ride_id,sample_idx,_elapsed_ms,ts_utc,ts_pst,video_ts_anchor,ms_today,cf_accel,cf_brake,cf_cruise,cf_turn_left,cf_turn_right,cf_carve_left,cf_carve_right,cf_ascent,cf_descent,cf_traction_loss,cf_idle,cf_forward,cf_reverse,speed_meters_per_sec,erpm,duty_cycle,current_in,current_motor,d_axis_current,q_axis_current,roll,pitch,yaw,accX,accY,accZ,gyroX,gyroY,gyroZ,gnss_lat,fault_code,d_axis_voltage,q_axis_voltage,tacho_meters,tacho_abs_meters,gnss_lon,gnss_alt,gnss_gVel,gnss_vVel,input_voltage,temp_mos_max,temp_motor,battery_level,dt_ms,_on_grid
ride_101,0,0.0,2025-09-30 18:07:13.031000+00:00,2025-09-30 11:07:13.031,00:00:26.2,65233031,,,,,,,,,,,,,,0.0,0.0,-0.001,0.0,0.06,-0.08,0.0,0.0,0.0,0.0,0.0,0.0,0.0,0.0,0.0,0.0,47.5983938,0.0,-0.042,-0.057,-0.009,0.028,-122.830716,103.90000153,0.0,0.0,76.7,18.7,17.9,0.544,100,True
,1,100.0,2025-09-30 18:07:13.131000+00:00,2025-09-30 11:07:13.131,00:00:26.3,65233131,,,,,,,,,,,,,,0.0,0.0,-0.001,0.0,0.0,0.0,0.0,0.023805557647058825,0.35259603529411765,0.058789064705882355,-0.3454120823529412,-0.018814770588235295,0.9282683882352941,-0.08949471882352941,0.05194839294117647,-0.2406823529411765,47.5983938,,-0.059,-0.046,-0.009,0.028,-122.830716,103.90000153,0.0,0.0,76.7,18.7,17.9,0.544,100,True
,2,200.0,2025-09-30 18:07:13.231000+00:00,2025-09-30 11:07:13.231,00:00:26.4,65233231,,,,,,,,,,,,,,0.0,0.0,-0.001,0.0,0.0,0.0,0.0,0.023884296703296705,0.35264051648351646,0.05935583846153846,-0.3445713516483516,-0.016800007692307693,0.9282826703296703,-0.05991305164835166,0.06490080000000001,-0.29090681318681316,47.5983938,,-0.059,-0.046,-0.009,0.028,-122.830716,103.90000153,0.0,0.0,76.7,18.7,17.9,0.544,100,True
,3,300.0,2025-09-30 18:07:13.331000+00:00,2025-09-30 11:07:13.331,00:00:26.5,65233331,,,,,,,,,,,,,,0.0,0.0,-0.001,0.0,0.0,0.0,0.0,0.023884975757575755,0.3526440101010101,0.05985609696969697,-0.3415348181818182,-0.015917548484848484,0.9282280303030302,0.0466419505050505,-0.05048593434343435,-0.2898000707070707,47.59839574767677,,-0.05931313131313131,-0.046,-0.009,0.028,-122.83076149484849,104.97944130111111,0.0,0.0,76.7,18.7,17.9,0.544,100,True
,4,400.0,2025-09-30 18:07:13.431000+00:00,2025-09-30 11:07:13.431,00:00:26.6,65233431,,,,,,,,,,,,,,0.0,0.0,-0.001,0.0,0.0,0.0,0.0,0.023917721951219512,0.35265734146341465,0.060371317073170734,-0.33996939024390244,-0.01536010487804878,0.9281910487804879,0.01580000243902439,0.045271724390243906,-0.32976324390243905,47.59840002,,-0.05960975609756097,-0.046,-0.009,0.028,-122.83086129,107.34724467,0.0,0.0,76.7,18.7,17.9,0.544,100,True
,5,500.0,2025-09-30 18:07:13.531000+00:00,2025-09-30 11:07:13.531,00:00:26.7,65233531,,,,,,,,,,,,,,0.0,0.0,-0.001,0.0,0.0,0.0,0.0,0.02391684812030075,0.3526726541353383,0.0608168007518797,-0.3392795864661654,-0.016149593233082706,0.9281639398496241,-0.0192589,0.07249441052631579,-0.24126754887218044,47.59840002,,-0.059375939849624054,-0.046,-0.009,0.028,-122.83086129,107.34724467,0.0,0.0,76.7,18.7,17.9,0.544,100,True
,6,600.0,2025-09-30 18:07:13.631000+00:00,2025-09-30 11:07:13.631,00:00:26.8,65233631,,,,,,,,,,,,,,0.0,0.0,-0.001,0.0,0.0,0.0,0.0,0.023847649999999998,0.352698875,0.061122925,-0.341313,-0.018218625000000002,0.928113125,-0.038221412499999996,0.11601325,-0.25761775000000003,47.59840002,,-0.059875,-0.046,-0.009,0.028,-122.83086129,107.34724467,0.0,0.0,76.7,18.7,17.9,0.544,100,True
,7,700.0,2025-09-30 18:07:13.731000+00:00,2025-09-30 11:07:13.731,00:00:26.9,65233731,,,,,,,,,,,,,,0.0,0.0,-0.001,0.0,0.0,0.0,0.0,0.023936179411764704,0.3527393161764706,0.06150483676470588,-0.3412188823529412,-0.019284066176470587,0.9280491544117647,-0.14976560367647057,0.11505589705882353,-0.3511633382352941,47.59840002,,-0.05913970588235294,-0.046,-0.009,0.028,-122.83086129,107.34724467,0.0,0.0,76.7,18.7,17.9,0.544,100,True
,8,800.0,2025-09-30 18:07:13.831000+00:00,2025-09-30 11:07:13.831,00:00:27.0,65233831,,,,,,,,,,,,,,0.0,0.0,-0.001,0.0,0.0,0.0,0.0,0.02396629456521739,0.35273907608695654,0.06218146630434782,-0.34103547826086955,-0.013932277173913044,0.9279419130434783,-0.03739695543478261,-0.06886085326086955,-0.25503427173913046,47.59840002,,-0.059,-0.046,-0.009,0.028,-122.83086129,107.34724467,0.0,0.0,76.7,18.7,17.9,0.544,100,True
,9,900.0,2025-09-30 18:07:13.931000+00:00,2025-09-30 11:07:13.931,00:00:27.1,65233931,,,,,,,,,,,,,,0.0,0.0,-0.001,0.0,0.0,0.0,0.0,0.024027465934065934,0.3527291978021978,0.06295955824175824,-0.3377600989010989,-0.01689595054945055,0.9278957472527473,-0.09344167142857143,0.11092417582417585,-0.30388072527472526,47.59840002,,-0.059,-0.046,-0.009,0.028,-122.83086129,107.34724467,0.0,0.0,76.7,18.7,17.9,0.544,100,True
,10,1000.0,2025-09-30 18:07:14.031000+00:00,2025-09-30 11:07:14.031,00:00:27.2,65234031,,,,,,,,,,,,,,0.0,0.0,-0.001,0.0,0.0,0.0,0.0,0.0240512,0.3527253846153846,0.06352123846153847,-0.3440569230769231,-0.01903076923076923,0.9279126923076924,-0.0342223,0.03492705384615385,-0.28822069230769226,47.59840002,,-0.059153846153846154,-0.04684615384615384,-0.009,0.028,-122.83086129,107.34724467,0.0,0.0,76.7,18.7,17.9,0.544,100,True
,11,1100.0,2025-09-30 18:07:14.131000+00:00,2025-09-30 11:07:14.131,00:00:27.3,65234131,,,,,,,,,,,,,,0.0,0.0,-0.001,0.0,0.0,0.0,0.0,0.024029000000000002,0.35272074999999997,0.06399015,-0.34057375,-0.015538074999999998,0.92792125,-0.051065950000000006,-0.023428024999999998,-0.202359,47.59840002,,-0.06,-0.046,-0.009,0.028,-122.83086129,107.34724467,0.0,0.0,76.7,18.7,17.9,0.544,100,True
,12,1200.0,2025-09-30 18:07:14.231000+00:00,2025-09-30 11:07:14.231,00:00:27.4,65234231,,,,,,,,,,,,,,0.0,0.0,-0.001,0.0,0.0,0.0,0.0,0.02409573194444444,0.35271161805555556,0.06446189652777778,-0.3402132013888889,-0.013142291666666667,0.9279280416666668,0.026709654166666666,-0.039954859027777775,-0.34467878472222224,47.59840002,,-0.06,-0.04621527777777778,-0.009,0.028,-122.83086129,107.34724467,0.0,0.0,76.7,18.7,17.9,0.544,100,True
,13,1300.0,2025-09-30 18:07:14.331000+00:00,2025-09-30 11:07:14.331,00:00:27.5,65234331,,,,,,,,,,,,,,0.0,0.0,-0.001,0.0,0.0,0.0,0.0,0.024068093055555555,0.35269425694444445,0.06477446597222222,-0.3414041736111111,-0.014856458333333333,0.9279572083333334,-0.030212429166666672,-0.08951117847222223,-0.4367780902777778,47.59840002,,-0.06,-0.04690972222222222,-0.009,0.028,-122.83086129,107.34724467,0.0,0.0,76.7,18.7,17.9,0.544,100,True
,14,1400.0,2025-09-30 18:07:14.431000+00:00,2025-09-30 11:07:14.431,00:00:27.6,65234431,,,,,,,,,,,,,,0.0,0.0,-0.001,0.0,0.0,0.0,0.0,0.02418212659574468,0.3527095425531915,0.0656058255319149,-0.3426073510638298,-0.01701133510638298,0.9280269787234042,-0.08946031063829787,-0.07877767234042553,-0.29860004255319145,47.59840082425532,,-0.05907446808510638,-0.04607446808510638,-0.009,0.028,-122.83086096159575,107.47068170414893,0.0,0.0,76.7,18.7,17.9,0.544,100,True
,15,1500.0,2025-09-30 18:07:14.531000+00:00,2025-09-30 11:07:14.531,00:00:27.7,65234531,,,,,,,,,,,,,,0.0,0.0,-0.001,0.0,0.0,0.0,0.0,0.02422841777777778,0.3527661444444445,0.06612522222222222,-0.3408384888888889,-0.016313756666666665,0.9280631333333333,-0.010953835555555555,0.10585028777777777,-0.2626389333333333,47.59841082,,-0.05985555555555555,-0.04685555555555555,-0.009,0.028,-122.83085688,109.0048277,0.0,0.0,76.7,18.7,17.9,0.544,100,True
,16,1600.0,2025-09-30 18:07:14.631000+00:00,2025-09-30 11:07:14.631,00:00:27.8,65234631,,,,,,,,,,,,,,0.0,0.0,-0.001,0.0,0.0,0.0,0.0,0.024224834939759035,0.35276672289156624,0.06660870722891565,-0.33877051807228914,-0.016405043373493976,0.9280668674698795,0.0012862879518072273,0.04492273855421687,-0.3638600843373494,47.59841082,,-0.05927710843373494,-0.046,-0.009,0.028,-122.83085688,109.0048277,0.0,0.0,76.7,18.7,17.9,0.544,100,True
,17,1700.0,2025-09-30 18:07:14.731000+00:00,2025-09-30 11:07:14.731,00:00:27.9,65234731,,,,,,,,,,,,,,0.0,0.0,-0.001,0.0,0.0,0.0,0.0,0.024328534782608695,0.35275469565217393,0.06716011739130434,-0.34118143478260865,-0.019762504347826088,0.9280830434782609,-0.03447209130434783,0.045474665217391304,-0.3099285652173913,47.59841082,,-0.05956521739130435,-0.04643478260869565,-0.009,0.028,-122.83085688,109.0048277,0.0,0.0,76.7,18.7,17.9,0.544,100,True
,18,1800.0,2025-09-30 18:07:14.831000+00:00,2025-09-30 11:07:14.831,00:00:28.0,65234831,,,,,,,,,,,,,,0.0,0.0,-0.001,0.0,0.0,0.0,0.0,0.0242852,0.35273093333333333,0.06764658,-0.3401454,-0.01894954,0.9280553333333332,-0.03328849999999999,-0.02957268666666668,-0.34674320000000003,47.59841082,,-0.059,-0.047,-0.009,0.028,-122.83085688,109.0048277,0.0,0.0,76.7,18.7,17.9,0.544,100,True
,19,1900.0,2025-09-30 18:07:14.931000+00:00,2025-09-30 11:07:14.931,00:00:28.1,65234931,,,,,,,,,,,,,,0.0,0.0,-0.001,0.0,0.0,0.0,0.0,0.024277163829787233,0.3527273191489362,0.06812701063829787,-0.34181614893617024,-0.01723693829787234,0.9280180212765957,-0.05820056382978723,0.034351731914893616,-0.378005914893617,47.59841082,,-0.05961702127659574,-0.047,-0.009,0.028,-122.83085688,109.0048277,0.0,0.0,76.7,18.7,17.9,0.544,100,True
,20,2000.0,2025-09-30 18:07:15.031000+00:00,2025-09-30 11:07:15.031,00:00:28.2,65235031,,,,,,,,,,,,,,0.0,0.0,-0.001,0.0,0.0,0.0,0.0,0.024371572727272726,0.35274260606060603,0.0685391606060606,-0.3399737878787879,-0.016964863636363636,0.9280525151515151,-0.02852829393939394,0.18297009090909092,-0.34805878787878786,47.59841082,,-0.059515151515151514,-0.047,-0.009,0.028,-122.83085688,109.0048277,0.0,0.0,76.7,18.7,17.9,0.544,100,True
,21,2100.0,2025-09-30 18:07:15.131000+00:00,2025-09-30 11:07:15.131,00:00:28.3,65235131,,,,,,,,,,,,,,0.0,0.0,-0.001,0.0,0.0,0.0,0.0,0.024426828888888887,0.3527702222222222,0.06893800444444445,-0.3387025111111111,-0.017286775555555554,0.9280916222222222,0.001592188888888891,0.18102388888888887,-0.2894946666666667,47.59841082,,-0.059,-0.04664444444444445,-0.009,0.028,-122.83085688,109.0048277,0.0,0.0,76.7,18.7,17.9,0.544,100,True
,22,2200.0,2025-09-30 18:07:15.231000+00:00,2025-09-30 11:07:15.231,00:00:28.4,65235231,,,,,,,,,,,,,,0.0,0.0,-0.001,0.0,0.0,0.0,0.0,0.02437713191489362,0.3528201276595745,0.0695409085106383,-0.33862374468085105,-0.01541183829787234,0.9280441914893617,-0.05119811063829788,0.04524483829787234,-0.33238180851063825,47.59841082,,-0.059,-0.046,-0.009,0.028,-122.83085688,109.0048277,0.0,0.0,76.7,18.7,17.9,0.544,100,True
,23,2300.0,2025-09-30 18:07:15.331000+00:00,2025-09-30 11:07:15.331,00:00:28.5,65235331,,,,,,,,,,,,,,0.0,0.0,-0.001,0.0,0.0,0.0,0.0,0.024494273684210525,0.3528601052631579,0.07015161578947368,-0.3388942255639098,-0.01673191127819549,0.9280413157894737,-0.0971615112781955,-0.00591194285714286,-0.39372512030075185,47.59841082,,-0.059,-0.046,-0.009,0.028,-122.83085688,109.0048277,0.0,0.0,76.7,18.7,17.9,0.544,100,True
,24,2400.0,2025-09-30 18:07:15.431000+00:00,2025-09-30 11:07:15.431,00:00:28.6,65235431,,,,,,,,,,,,,,0.0,0.0,-0.001,0.0,0.0,0.0,0.0,0.024620848387096776,0.3528525161290323,0.07055567096774193,-0.3445336774193548,-0.021850383870967743,0.9280870967741935,0.10453816129032259,-0.10546867096774193,-0.2752437419354839,47.59841238774193,,-0.059,-0.046,-0.009,0.028,-122.83085512354839,109.06536580322582,0.0,0.0,76.7,18.7,17.9,0.544,100,True
,25,2500.0,2025-09-30 18:07:15.531000+00:00,2025-09-30 11:07:15.531,00:00:28.7,65235531,,,,,,,,,,,,,,0.0,0.0,-0.001,0.0,0.0,0.0,0.0,0.02409360487804878,0.3526306585365854,0.07093291463414633,-0.3430007317073171,-0.01760100243902439,0.9279668536585366,0.12372763414634153,-0.10698516341463415,-0.19198724390243904,47.59842054,,-0.059268292682926826,-0.04626829268292683,-0.009,0.028,-122.83084599,109.38016394,0.0,0.0,76.7,18.7,17.9,0.544,100,True
,26,2600.0,2025-09-30 18:07:15.631000+00:00,2025-09-30 11:07:15.631,00:00:28.8,65235631,,,,,,,,,,,,,,0.0,0.0,-0.001,0.0,0.0,0.0,0.0,0.024170008791208793,0.35242875824175823,0.07166441208791209,-0.3427045054945055,-0.01792120989010989,0.9277975934065934,-0.36554385714285714,-0.26414878791208796,-0.4970243186813187,47.59842054,,-0.06,-0.047,-0.009,0.028,-122.83084599,109.38016394,0.0,0.0,76.7,18.7,17.9,0.544,100,True
,27,2700.0,2025-09-30 18:07:15.731000+00:00,2025-09-30 11:07:15.731,00:00:28.9,65235731,,,,,,,,,,,,,,0.0,0.0,-0.001,0.0,0.0,0.0,0.0,0.024375916304347826,0.35256721739130437,0.07222836847826086,-0.3427102934782609,-0.01980603152173913,0.9279693804347826,0.23085330108695654,-0.5427911413043478,-0.3180209891304348,47.59842054,,-0.06053260869565217,-0.047,-0.009,0.028,-122.83084599,109.38016394,0.0,0.0,76.7,18.7,17.9,0.544,100,True
,28,2800.0,2025-09-30 18:07:15.831000+00:00,2025-09-30 11:07:15.831,00:00:29.0,65235831,,,,,,,,,,,,,,0.0,0.0,-0.001,0.0,0.0,0.0,0.0,0.023926025806451614,0.3526622258064516,0.07253184838709677,-0.34193270967741934,-0.013879945161290323,0.9281507419354839,0.009351451612903294,0.19909151612903236,-0.3040118064516129,47.59842054,,-0.060387096774193544,-0.046387096774193545,-0.009,0.028,-122.83084599,109.38016394,0.0,0.0,76.7,18.7,17.9,0.544,100,True
,29,2900.0,2025-09-30 18:07:15.931000+00:00,2025-09-30 11:07:15.931,00:00:29.1,65235931,,,,,,,,,,,,,,0.0,0.0,-0.001,0.0,0.0,0.0,0.0,0.024229985542168674,0.35244598795180726,0.07318117228915662,-0.3387066265060241,-0.021753073493975903,0.9280649759036145,-0.352947,0.5504847831325301,-0.41161385542168677,47.59842054,,-0.06,-0.046,-0.009,0.028,-122.83084599,109.38016394,0.0,0.0,76.7,18.7,17.9,0.544,100,True
,30,3000.0,2025-09-30 18:07:16.031000+00:00,2025-09-30 11:07:16.031,00:00:29.2,65236031,,,,,,,,,,,,,,0.0,0.0,-0.001,0.0,0.0,0.0,0.0,0.024611848387096773,0.3524468064516129,0.07380250967741936,-0.3364811290322581,-0.019417367741935483,0.9281502903225807,0.17632251612903216,0.047984187096774156,-0.2853789677419355,47.59842054,,-0.05912903225806451,-0.046,-0.009,0.028,-122.83084599,109.38016394,0.0,0.0,76.7,18.7,17.9,0.544,100,True
,31,3100.0,2025-09-30 18:07:16.131000+00:00,2025-09-30 11:07:16.131,00:00:29.3,65236131,,,,,,,,,,,,,,0.0,0.0,-0.001,0.0,0.0,0.0,0.0,0.023948259550561797,0.3525400561797753,0.07404205617977527,-0.3431429325842697,-0.015993595505617977,0.9282639213483146,0.25967,-0.5085356696629214,-0.25979334831460676,47.59842054,,-0.05998876404494382,-0.046,-0.009,0.028,-122.83084599,109.38016394,0.0,0.0,76.7,18.7,17.9,0.544,100,True
,32,3200.0,2025-09-30 18:07:16.231000+00:00,2025-09-30 11:07:16.231,00:00:29.4,65236231,,,,,,,,,,,,,,0.0,0.0,-0.001,0.0,0.0,0.0,0.0,0.02412997840909091,0.3527168181818182,0.07461934318181818,-0.3393691931818182,-0.015750928409090908,0.9284995227272727,-0.35360406818181817,-0.18590302272727274,-0.45444354545454546,47.59842054,,-0.06,-0.046,-0.009,0.028,-122.83084599,109.38016394,0.0,0.0,76.7,18.7,17.9,0.544,100,True
,33,3300.0,2025-09-30 18:07:16.331000+00:00,2025-09-30 11:07:16.331,00:00:29.5,65236331,,,,,,,,,,,,,,0.0,0.0,-0.001,0.0,0.0,0.0,0.0,0.02455058181818182,0.352624,0.07528597272727272,-0.3417494545454546,-0.018655151515151513,0.9284380303030303,0.029936363636363643,0.3012347878787879,-0.19255869696969696,47.59842054,,-0.059787878787878786,-0.046,-0.009,0.028,-122.83084599,109.38016394,0.0,0.0,76.7,18.7,17.9,0.544,100,True
,34,3400.0,2025-09-30 18:07:16.431000+00:00,2025-09-30 11:07:16.431,00:00:29.6,65236431,,,,,,,,,,,,,,0.0,0.0,-0.001,0.0,0.0,0.0,0.0,0.02418921904761905,0.35256380952380956,0.07560737301587302,-0.34100882539682537,-0.01335695238095238,0.9283135714285714,0.08932973015873015,0.39235419365079366,-0.2908778412698413,47.59842088571428,,-0.059,-0.046,-0.009,0.028,-122.83084471365079,109.33175387587302,0.0,0.0,76.7,18.7,17.9,0.544,100,True
,35,3500.0,2025-09-30 18:07:16.531000+00:00,2025-09-30 11:07:16.531,00:00:29.7,65236531,,,,,,,,,,,,,,0.0,0.0,-0.001,0.0,0.0,0.0,0.0,0.024171123809523812,0.3526447619047619,0.07597134126984127,-0.34075803174603175,-0.014922190476190476,0.9282707142857143,-0.3679805873015874,0.057736892063492085,-0.4146453015873016,47.59842245714286,,-0.059,-0.046,-0.009,0.028,-122.8308389120635,109.11170812984128,0.0,0.0,76.7,18.7,17.9,0.544,100,True
,36,3600.0,2025-09-30 18:07:16.631000+00:00,2025-09-30 11:07:16.631,00:00:29.8,65236631,,,,,,,,,,,,,,0.0,0.0,-0.001,0.0,0.0,0.0,0.0,0.02485073939393939,0.3527129696969697,0.0766835,-0.34155090909090907,-0.021174375757575754,0.9281991818181818,-0.10393186060606058,-0.15813235757575758,-0.30600957575757576,47.59842252,,-0.059969696969696965,-0.046,-0.009,0.028,-122.83083868,109.1029063,0.0,0.0,76.7,18.7,17.9,0.544,100,True
,37,3700.0,2025-09-30 18:07:16.731000+00:00,2025-09-30 11:07:16.731,00:00:29.9,65236731,,,,,,,,,,,,,,0.0,0.0,-0.001,0.0,0.0,0.0,0.0,0.024038042857142856,0.3527052857142857,0.07707611428571429,-0.3414377142857143,-0.014901348571428573,0.928053,0.32171399999999994,-0.04268288571428572,-0.1294604285714286,47.59842252,,-0.05914285714285714,-0.046,-0.009,0.028,-122.83083868,109.1029063,0.0,0.0,76.7,18.7,17.9,0.544,100,True
,38,3800.0,2025-09-30 18:07:16.831000+00:00,2025-09-30 11:07:16.831,00:00:30.0,65236831,,,,,,,,,,,,,,0.0,0.0,-0.001,0.0,0.0,0.0,0.0,0.022853731460674157,0.3527789775280899,0.07710757752808989,-0.3415239775280899,-0.008074964269662923,0.928042595505618,0.8807753932584268,-0.058248606741573034,-0.06938958426966294,47.59842252,,-0.06,-0.046,-0.009,0.028,-122.83083868,109.1029063,0.0,0.0,76.7,18.7,17.9,0.544,100,True
,39,3900.0,2025-09-30 18:07:16.931000+00:00,2025-09-30 11:07:16.931,00:00:30.1,65236931,,,,,,,,,,,,,,0.0,0.0,-0.001,0.0,0.0,0.0,0.0,0.023249127173913045,0.35277308695652176,0.07777142173913043,-0.3431874456521739,-0.022079537282608697,0.9279720869565218,-0.8759322391304347,0.25103615217391306,-0.7446259130434782,47.59842252,,-0.059641304347826087,-0.046,-0.009,0.028,-122.83083868,109.1029063,0.0,0.0,76.7,18.7,17.9,0.544,100,True
,40,4000.0,2025-09-30 18:07:17.031000+00:00,2025-09-30 11:07:17.031,00:00:30.2,65237031,,,,,,,,,,,,,,0.0,0.0,-0.001,0.0,0.0,0.0,0.0,0.023547844565217392,0.352616847826087,0.07834864239130435,-0.34032653260869566,-0.027962976521739135,0.927715847826087,0.8823843804347825,0.1349999054347826,0.11054915217391292,47.59842252,,-0.05944565217391304,-0.04644565217391304,-0.009,0.028,-122.83083868,109.1029063,0.0,0.0,76.7,18.7,17.9,0.544,100,True
,41,4100.0,2025-09-30 18:07:17.131000+00:00,2025-09-30 11:07:17.131,00:00:30.3,65237131,,,,,,,,,,,,,,0.0,0.0,-0.001,0.0,0.0,0.0,0.0,0.02051613604651163,0.3525797674418605,0.07771536162790699,-0.3414114534883721,-0.003181326046511628,0.927662523255814,1.232696803488372,-0.45867912674418604,0.13887837209302323,47.59842252,,-0.06,-0.047,-0.009,0.028,-122.83083868,109.1029063,0.0,0.0,76.7,18.7,17.9,0.544,100,True
,42,4200.0,2025-09-30 18:07:17.231000+00:00,2025-09-30 11:07:17.231,00:00:30.4,65237231,,,,,,,,,,,,,,0.0,0.0,-0.0017159090909090909,0.0,0.0,0.0,0.0,0.02027068068181818,0.3519331363636364,0.07820558068181818,-0.3431426136363636,-0.01749605568181818,0.9274315909090909,-0.2306286875,-0.9476235795454546,-0.5740257272727273,47.59842252,,-0.05713636363636364,-0.054875,-0.009,0.028,-122.83083868,109.1029063,0.0,0.0,76.7,18.7,17.9,0.544,100,True
,43,4300.0,2025-09-30 18:07:17.331000+00:00,2025-09-30 11:07:17.331,00:00:30.5,65237331,,,,,,,,,,,,,,0.0,0.0,-0.002815217391304348,0.0,0.0,0.0,0.0,0.019209908695652173,0.3470711304347826,0.07725124891304348,-0.3381173913043478,-0.030045321739130434,0.9256947826086956,2.9822206739130435,-6.510052717391305,2.63565922826087,47.59842252,,-0.04947826086956522,-0.11343478260869566,-0.009,0.028,-122.83083868,109.1029063,0.0,0.0,76.7,18.7,17.9,0.544,100,True
,44,4400.0,2025-09-30 18:07:17.431000+00:00,2025-09-30 11:07:17.431,00:00:30.6,65237431,,,,,,,,,,,,,,0.0,0.0,-0.003912087912087912,0.0,0.0,0.0,0.0,0.010937343956043956,0.32475975824175823,0.07347451978021978,-0.3272604835164835,0.007218910989010993,0.9193141648351648,3.83670989010989,-20.367182857142858,0.2898685536263734,47.59842252,,-0.08174725274725275,-0.17707692307692308,-0.009,0.028,-122.83083868,109.1029063,0.0,0.0,76.7,18.7,17.9,0.544,100,True
ride_101,45,4500.0,2025-09-30 18:07:17.531000+00:00,2025-09-30 11:07:17.531,00:00:30.7,65237531,,,,,,,,,,,,,,0.0,-1.0,0.0,0.0,-0.74,-0.64,0.7,0.00601355,0.279229,0.0737135,-0.281006,0.0221295,0.909921,-0.57836,-32.4482,-1.47564,47.5984309,0.0,0.097,-0.064,-0.009,0.028,-122.83082885,107.94460611,0.0,0.0,76.7,18.7,17.9,0.543,100,True
,46,4600.0,2025-09-30 18:07:17.631000+00:00,2025-09-30 11:07:17.631,00:00:30.8,65237631,,,,,,,,,,,,,,-0.0008369565217391304,0.0,0.0,0.0,0.19652173913043477,-0.4085869565217391,-0.18793478260869567,0.012892313043478262,0.22065029347826087,0.07549112934782608,-0.22983896739130433,-0.00533047097826087,0.9055484891304348,-5.628995543478261,-33.437945652173916,-1.2354853913043478,47.5984309,,0.163,-0.00783695652173913,-0.018,0.037,-122.83082885,107.94460611,0.0,0.0,76.7,18.7,17.9,0.543,100,True
,47,4700.0,2025-09-30 18:07:17.731000+00:00,2025-09-30 11:07:17.731,00:00:30.9,65237731,,,,,,,,,,,,,,0.0,0.0,0.0,0.0,0.24250000000000002,-0.34249999999999997,-0.315,0.021466125,0.15395665,0.07733105,-0.140056225,0.005196275,0.907323,-3.880565,-36.60975,-2.8298550000000002,47.5984309,,0.16275,-0.007,-0.018,0.037,-122.83082885,107.94460611,0.0,0.0,76.7,18.7,17.9,0.543,100,True
,48,4800.0,2025-09-30 18:07:17.831000+00:00,2025-09-30 11:07:17.831,00:00:31.0,65237831,,,,,,,,,,,,,,0.0,0.0,0.0,0.0,0.29703296703296705,-0.29956043956043954,-0.4847252747252747,0.02373064945054945,0.06767798241758242,0.07963084615384616,-0.04330769274725275,-0.009059149450549451,0.9156878681318681,3.1092145054945055,-37.035993406593406,-1.019375791208791,47.5984309,,0.16234065934065933,-0.007,-0.018,0.037,-122.83082885,107.94460611,0.0,0.0,76.7,18.7,17.9,0.543,100,True
,49,4900.0,2025-09-30 18:07:17.931000+00:00,2025-09-30 11:07:17.931,00:00:31.1,65237931,,,,,,,,,,,,,,0.0,0.0,0.0,0.0,0.3342553191489362,-0.24297872340425533,-0.6482978723404255,0.01672805744680851,0.007969719148936169,0.08016406382978723,0.031186198297872343,0.004837974468085106,0.9284355744680851,4.154954042553191,-30.163782978723404,-0.937967,47.5984309,,0.1625744680851064,-0.006574468085106383,-0.018,0.037,-122.83082885,107.94460611,0.0,0.0,76.7,18.7,17.9,0.543,100,True
,50,5000.0,2025-09-30 18:07:18.031000+00:00,2025-09-30 11:07:18.031,00:00:31.2,65238031,,,,,,,,,,,,,,0.0,0.0,0.0,0.0,0.3002469135802469,-0.27111111111111114,-0.5409876543209876,0.010800363950617283,-0.03816961111111111,0.08129765925925926,0.08392954444444445,-0.004860557407407406,0.9468298395061728,1.6914957283950618,-18.0442012345679,-0.3326063456790125,47.5984309,,0.1625679012345679,-0.006567901234567902,-0.018,0.037,-122.83082885,107.94460611,0.0,0.0,76.7,18.7,17.9,0.543,100,True
,51,5100.0,2025-09-30 18:07:18.131000+00:00,2025-09-30 11:07:18.131,00:00:31.3,65238131,,,,,,,,,,,,,,0.0,0.0,0.0,0.0,0.0710204081632653,-0.36306122448979594,-0.13479591836734695,0.009587760102040817,-0.05844623469387755,0.08035155306122449,0.10231732448979591,-0.005642650510204083,0.9669880204081633,-0.13508630612244898,-4.953152397959185,1.1053140612244898,47.5984309,,0.163,-0.007663265306122449,-0.018,0.037,-122.83082885,107.94460611,0.0,0.0,76.7,18.7,17.9,0.543,100,True
,52,5200.0,2025-09-30 18:07:18.231000+00:00,2025-09-30 11:07:18.231,00:00:31.4,65238231,,,,,,,,,,,,,,0.0,0.0,0.0,0.0,-0.46071428571428563,-0.2942857142857143,0.6401190476190477,0.010126200714285714,-0.05848664523809524,0.07964237023809523,0.08627020357142857,0.006267083452380952,0.9875630833333333,-1.4170310714285714,5.408398059523809,-1.191359642857143,47.5984309,,0.16220238095238096,-0.009595238095238096,-0.018,0.037,-122.83082885,107.94460611,0.0,0.0,76.7,18.7,17.9,0.543,100,True
,53,5300.0,2025-09-30 18:07:18.331000+00:00,2025-09-30 11:07:18.331,00:00:31.5,65238331,,,,,,,,,,,,,,0.0,-3.744360902255639,0.0,0.0,-0.8757894736842106,0.12315789473684213,1.1557142857142857,0.011506485714285714,-0.05019745338345865,0.08198121578947368,0.06412463458646617,-0.005864093984962406,0.9989855639097744,-1.4793001503759398,8.005537894736841,-2.1440263909774435,47.5984309,,0.16137593984962406,-0.01124812030075188,-0.018,0.037,-122.83082885,107.94460611,0.0,0.0,76.7,18.7,17.9,0.543,100,True
,54,5400.0,2025-09-30 18:07:18.431000+00:00,2025-09-30 11:07:18.431,00:00:31.6,65238431,,,,,,,,,,,,,,0.0,-2.774193548387097,0.0,-0.005376344086021506,1.112043010752688,0.2417204301075269,2.219462365591398,0.011733974193548387,-0.0370313688172043,0.08396796451612903,0.040540316129032264,-0.012687091397849463,1.008166989247312,1.4939535483870967,6.513648817204301,-0.016808709677419653,47.59843160430108,,0.12659139784946238,0.06058064516129033,-0.023376344086021506,0.042376344086021506,-122.83082259731182,107.00471763150537,0.0,0.0,76.7,18.7,17.9,0.543,100,True
,55,5500.0,2025-09-30 18:07:18.531000+00:00,2025-09-30 11:07:18.531,00:00:31.7,65238531,,,,,,,,,,,,,,-0.06864516129032258,-1.2258064516129032,0.0,-0.01,4.0525806451612905,0.2932258064516129,3.9490322580645163,0.006593301935483871,-0.025895616129032257,0.08353653225806452,0.02753161935483871,0.0271366064516129,1.011901935483871,3.6404464516129034,3.211673225806451,0.15357254838709666,47.59843221,,0.02835483870967742,0.13403225806451613,-0.03351612903225806,0.052516129032258066,-122.83081722,106.19641354,0.0,0.0,76.7,18.7,17.9,0.543,100,True
,56,5600.0,2025-09-30 18:07:18.631000+00:00,2025-09-30 11:07:18.631,00:00:31.8,65238631,,,,,,,,,,,,,,-0.0698021978021978,-18.87912087912088,0.0,-0.017032967032967035,4.336153846153846,0.5025274725274725,5.402857142857143,0.0010235408000000001,-0.02568946043956044,0.08561072637362638,0.0245894967032967,0.040598545054945055,1.008879120879121,0.7788872087912089,-2.5610370329670333,-2.4357653076923076,47.59843221,,-0.08040659340659341,0.09317582417582418,-0.037,0.056,-122.83081722,106.19641354,0.0,0.0,76.7,18.7,17.9,0.543,100,True
,57,5700.0,2025-09-30 18:07:18.731000+00:00,2025-09-30 11:07:18.731,00:00:31.9,65238731,,,,,,,,,,,,,,-0.018606382978723406,-56.287234042553195,-0.0038829787234042554,-0.01223404255319149,-0.9710638297872345,0.6431914893617021,5.726702127659574,0.0022182819329787233,-0.032690530851063826,0.09149593617021276,0.07859082765957447,0.0036478710638297857,1.0038091489361702,-2.782454585106383,-3.744245638297872,-4.150703723404255,47.59843221,,-0.12042553191489362,-0.034170212765957456,-0.04476595744680851,0.06298936170212766,-122.83081722,106.19641354,0.0,0.0,76.7,18.7,17.9,0.543,100,True
,58,5800.0,2025-09-30 18:07:18.831000+00:00,2025-09-30 11:07:18.831,00:00:32.0,65238831,,,,,,,,,,,,,,-0.06914772727272728,-13.829545454545453,-0.004102272727272727,-0.0010227272727272724,-5.636931818181818,0.07750000000000001,5.971363636363637,0.007323210454545455,-0.03725377386363636,0.09926785454545455,0.05769341477272727,-0.016287156363636365,1.0000320795454545,-2.404445909090909,0.7766569318181822,-4.417665340909091,47.59843221,,-0.0907840909090909,-0.14579545454545453,-0.05507954545454546,0.07397727272727272,-122.83081722,106.19641354,0.0,0.0,76.7,18.7,17.9,0.543,100,True
,59,5900.0,2025-09-30 18:07:18.931000+00:00,2025-09-30 11:07:18.931,00:00:32.1,65238931,,,,,,,,,,,,,,-0.0970561797752809,-111.85393258426966,-0.0030674157303370786,-0.001348314606741573,-6.0113483146067415,0.0006741573033707865,6.001348314606742,0.009001796516853932,-0.03343778426966292,0.1061445617977528,0.05752,-0.03087131348314607,0.9981723595505618,0.991830404494382,3.8161186516853935,-2.8570480898876407,47.59843221,,-0.039842696629213484,-0.18857303370786516,-0.07560674157303371,0.09460674157303371,-122.83081722,106.19641354,0.0,0.0,76.7,18.7,17.9,0.543,100,True
,60,6000.0,2025-09-30 18:07:19.031000+00:00,2025-09-30 11:07:19.031,00:00:32.2,65239031,,,,,,,,,,,,,,-0.084,-113.19767441860465,-0.004,-0.02197674418604651,-6.03,0.008023255813953488,6.02,0.00581109,-0.0292267,0.110247,0.0487386,0.0156168,0.996794,1.4573,1.12524,-4.24658,47.59843221,,-0.11909302325581396,-0.26646511627906977,-0.084,0.103,-122.83081722,106.19641354,0.0,0.0,76.7,18.7,17.9,0.543,100,True
,61,6100.0,2025-09-30 18:07:19.131000+00:00,2025-09-30 11:07:19.131,00:00:32.3,65239131,,,,,,,,,,,,,,-0.11499999999999999,-206.40816326530611,-0.004,-0.03316326530612245,-6.026836734693878,-0.012653061224489797,6.02,0.004193493234693878,-0.03027835918367347,0.11380852040816326,0.05288529285714286,0.009700908673469389,0.995369581632653,1.477421530612245,0.30575183673469386,-4.262187551020408,47.59843221,,-0.13737755102040816,-0.42596938775510207,-0.09317346938775511,0.11185714285714285,-122.83081722,106.19641354,0.0,0.0,76.7,18.7,17.9,0.543,100,True
,62,6200.0,2025-09-30 18:07:19.231000+00:00,2025-09-30 11:07:19.231,00:00:32.4,65239231,,,,,,,,,,,,,,-0.20529411764705882,-258.94117647058823,-0.004388235294117647,-0.04388235294117647,-6.012235294117647,-0.02447058823529412,6.012235294117647,8.14768470588235e-05,-0.032523424705882355,0.12390374117647059,0.05356302470588235,0.0006471335294117651,0.9915805294117648,0.8559743647058824,-0.18618023529411776,-4.114260823529412,47.59843221,,0.05665882352941176,-0.5155647058823529,-0.12387058823529412,0.14225882352941177,-122.83081722,106.19641354,0.0,0.0,76.7,18.7,17.9,0.543,100,True
,63,6300.0,2025-09-30 18:07:19.331000+00:00,2025-09-30 11:07:19.331,00:00:32.5,65239331,,,,,,,,,,,,,,-0.24466666666666667,-260.4,-0.003933333333333334,-0.04466666666666667,-5.978666666666666,-0.016,5.973333333333334,-0.00044808016,-0.03016296666666667,0.13002013333333332,0.02050417733333333,0.0020701233333333333,0.9903820666666667,-0.5565182,3.594050666666667,-2.8771033333333333,47.59843221,,0.06773333333333333,-0.49366666666666664,-0.15113333333333334,0.17013333333333333,-122.83081722,106.19641354,0.0,0.0,76.7,18.7,17.9,0.543,100,True
,64,6400.0,2025-09-30 18:07:19.431000+00:00,2025-09-30 11:07:19.431,00:00:32.6,65239431,,,,,,,,,,,,,,-0.24568181818181817,-226.92424242424244,-0.01046969696969697,-0.022424242424242426,-3.8728787878787876,0.022727272727272728,3.862878787878788,0.0009949534227272727,-0.02090555303030303,0.13330333333333333,-0.014826396363636364,-0.001876329393939394,0.9913310757575757,-1.6265840606060606,7.327708484848484,-1.4766718636363636,47.59843153772727,,0.005530303030303038,-0.5988787878787879,-0.1723030303030303,0.1913030303030303,-122.83081471106061,105.82442582530302,0.0,0.0,76.7,18.7,17.9,0.543,100,True
,65,6500.0,2025-09-30 18:07:19.531000+00:00,2025-09-30 11:07:19.531,00:00:32.7,65239531,,,,,,,,,,,,,,-0.22806451612903225,-217.31182795698925,-0.014688172043010754,-0.011182795698924731,-1.8502150537634408,0.04247311827956989,1.8486021505376344,0.0038194305376344083,-0.010846635268817205,0.13549761290322582,-0.010475205376344086,-0.006935581397849461,0.9923115698924732,-3.127467741935484,6.693209892473117,-1.0813439677419354,47.59843068,,-0.04501075268817205,-0.7658924731182796,-0.19331182795698926,0.21231182795698925,-122.83081151,105.34982081,0.0,0.0,76.7,18.7,17.9,0.543,100,True
,66,6600.0,2025-09-30 18:07:19.631000+00:00,2025-09-30 11:07:19.631,00:00:32.8,65239631,,,,,,,,,,,,,,-0.12211235955056181,-197.51685393258427,-0.006932584269662922,-0.025168539325842697,-2.532247191011236,-0.024382022471910104,2.574494382022472,0.008555382247191011,-0.006132413707865169,0.13611884269662922,-0.02053363146067417,-0.012362384808988762,0.9910160224719101,-2.4540755056179773,5.090712584269663,-0.36325191011235947,47.59843068,,0.024797752808988764,-0.7015056179775281,-0.22776404494382022,0.2467640449438202,-122.83081151,105.34982081,0.0,0.0,76.7,18.7,17.9,0.543,100,True
,67,6700.0,2025-09-30 18:07:19.731000+00:00,2025-09-30 11:07:19.731,00:00:32.9,65239731,,,,,,,,,,,,,,-0.012,-13.5,-0.0085,-0.005,-0.275,0.425,2.635,0.01039085,0.017982210000000002,0.1329595,-0.0917945,0.009460322,0.994237,-1.7784499999999999,20.53215,0.722631,47.59843068,,-0.0625,-0.30299999999999994,-0.263,0.282,-122.83081151,105.34982081,0.0,0.0,76.7,18.7,17.9,0.543,100,True
,68,6800.0,2025-09-30 18:07:19.831000+00:00,2025-09-30 11:07:19.831,00:00:33.0,65239831,,,,,,,,,,,,,,-0.011377777777777778,0.0,0.0,-0.0037777777777777775,-0.6928888888888889,0.1266666666666667,2.427111111111111,0.014416813333333332,0.06860350666666667,0.13118724444444446,-0.11930477777777779,-0.018891362222222218,1.002181511111111,-2.2966582222222223,30.913564444444443,1.6245785333333331,47.59843068,,-0.11342222222222222,-0.1063111111111111,-0.26922222222222225,0.2882222222222222,-122.83081151,105.34982081,0.0,0.0,76.7,18.762222222222224,17.9,0.543,100,True
,69,6900.0,2025-09-30 18:07:19.931000+00:00,2025-09-30 11:07:19.931,00:00:33.1,65239931,,,,,,,,,,,,,,-0.003811881188118812,1.9603960396039604,0.0,0.0,-0.45089108910891085,-0.13930693069306932,0.42742574257425736,0.01616500891089109,0.12291465346534652,0.12971369306930694,-0.16966075247524753,-0.020853181386138613,1.0066510891089109,0.2174065742574257,32.206705940594055,1.0886622037623765,47.59843068,,-0.09850495049504951,-0.1261089108910891,-0.27888118811881185,0.29788118811881187,-122.83081151,105.34982081,0.0,0.0,76.7,18.8,17.9,0.543,100,True
,70,7000.0,2025-09-30 18:07:20.031000+00:00,2025-09-30 11:07:20.031,00:00:33.2,65240031,,,,,,,,,,,,,,0.0,0.6219512195121952,0.0,0.0,-0.10097560975609758,-0.06207317073170732,-0.14097560975609758,0.014396960975609756,0.17744756097560976,0.13148775609756097,-0.17577045121951218,0.0012382854878048768,1.0056514634146343,0.22872651829268287,27.435159756097562,-2.695820851097561,47.59843068,,-0.14314634146341465,-0.032914634146341465,-0.282,0.301,-122.83081151,105.34982081,0.0,0.0,76.7,18.8,17.9,0.543,100,True
,71,7100.0,2025-09-30 18:07:20.131000+00:00,2025-09-30 11:07:20.131,00:00:33.3,65240131,,,,,,,,,,,,,,0.0,0.0,0.0,0.0,0.07065934065934065,0.11329670329670333,0.06714285714285714,0.01711045164835165,0.2286536043956044,0.13718431868131867,-0.19134665934065934,-0.03067088021978022,1.0022360439560438,-2.6194681230769232,33.013679120879125,-2.0777454945054945,47.59843068,,-0.16147252747252747,0.012153846153846157,-0.27379120879120883,0.3101208791208791,-122.83081151,105.34982081,0.0,0.0,76.7,18.8,17.9,0.543,100,True
,72,7200.0,2025-09-30 18:07:20.231000+00:00,2025-09-30 11:07:20.231,00:00:33.4,65240231,,,,,,,,,,,,,,0.0,0.0,0.0,0.0,0.6143010752688172,0.3476344086021505,0.7231182795698924,0.02081715806451613,0.28510823655913975,0.13567074193548387,-0.24758161290322583,-0.038049160215053765,0.9991455913978494,0.3893725591397854,35.711677419354835,5.180157849462365,47.59843068,,-0.162,0.011032258064516128,-0.273,0.311,-122.83081151,105.34982081,0.0,0.0,76.7,18.8,17.9,0.543,100,True
,73,7300.0,2025-09-30 18:07:20.331000+00:00,2025-09-30 11:07:20.331,00:00:33.5,65240331,,,,,,,,,,,,,,-0.017528089887640447,-89.71910112359551,0.0,0.0,0.5905617977528089,0.507191011235955,1.533258426966292,0.014142334831460674,0.33944426966292135,0.13192861797752808,-0.35174365168539323,0.023867535955056182,0.9889009775280898,2.4813298876404497,27.299043258426966,-1.5265332584269664,47.59843068,,-0.1476179775280899,-0.028595505617977527,-0.2745168539325843,0.31251685393258427,-122.83081151,105.34982081,0.0,0.0,76.7,18.8,17.9,0.543,100,True
,74,7400.0,2025-09-30 18:07:20.431000+00:00,2025-09-30 11:07:20.431,00:00:33.6,65240431,,,,,,,,,,,,,,-0.07553684210526315,25.42105263157895,0.0,0.0,0.20400000000000001,0.07389473684210526,0.16505263157894737,0.012211823157894737,0.34009823157894736,0.13286116842105264,-0.36422114736842104,0.029140167368421052,0.9620118631578948,-2.0396165263157893,-2.595758,-1.4147821894736843,47.598430808631576,,-0.13585263157894736,-0.04828421052631579,-0.27953684210526314,0.32246315789473684,-122.83080982410527,105.24669805821053,0.0,0.0,76.7,18.8,17.9,0.543,100,True
,75,7500.0,2025-09-30 18:07:20.531000+00:00,2025-09-30 11:07:20.531,00:00:33.7,65240531,,,,,,,,,,,,,,0.0,0.0,0.0,0.0,0.48,0.27348314606741575,0.5569662921348315,0.01462708988764045,0.3420983820224719,0.1350879775280899,-0.2889026629213483,-0.00962029179775281,0.9442289101123595,-0.1674357303370786,1.3929760674157303,-0.14387401235955055,47.59843115,,-0.162,0.012,-0.273,0.329,-122.83080535,104.97302614,0.0,0.0,76.7,18.8,17.9,0.543,100,True
,76,7600.0,2025-09-30 18:07:20.631000+00:00,2025-09-30 11:07:20.631,00:00:33.8,65240631,,,,,,,,,,,,,,0.0,0.0,0.0,0.0,0.49806451612903224,0.2845161290322581,0.57,0.013875412903225807,0.34344496774193545,0.13520012903225806,-0.3115471935483871,-0.0010017803225806452,0.9309051290322581,0.4004769032258064,0.49476483870967725,-0.3186858612903226,47.59843115,,-0.162,0.012451612903225806,-0.273,0.329,-122.83080535,104.97302614,0.0,0.0,76.7,18.8,17.9,0.543,100,True
,77,7700.0,2025-09-30 18:07:20.731000+00:00,2025-09-30 11:07:20.731,00:00:33.9,65240731,,,,,,,,,,,,,,0.0,0.0,0.0,0.0,0.4450588235294118,0.2496470588235294,0.48929411764705877,0.013732163529411765,0.34410576470588233,0.13580017647058823,-0.3357582588235294,0.017599231764705882,0.9210315294117647,-0.6527864470588235,-0.9857028588235295,-0.7990387882352941,47.59843115,,-0.162,0.012423529411764707,-0.273,0.329,-122.83080535,104.97302614,0.0,0.0,76.7,18.8,17.9,0.543,100,True
,78,7800.0,2025-09-30 18:07:20.831000+00:00,2025-09-30 11:07:20.831,00:00:34.0,65240831,,,,,,,,,,,,,,0.0,0.0,0.0,0.0,-0.10934065934065929,0.04417582417582416,-0.15373626373626376,0.017524251648351648,0.3455540879120879,0.1382658131868132,-0.37001942857142855,-0.0025129043956043998,0.9163086153846154,-2.5674884835164837,-0.7222901648351648,-2.1169614395604395,47.59843115,,-0.162,0.013406593406593406,-0.273,0.329,-122.83080535,104.97302614,0.0,0.0,76.7,18.8,17.9,0.543,100,True
,79,7900.0,2025-09-30 18:07:20.931000+00:00,2025-09-30 11:07:20.931,00:00:34.1,65240931,,,,,,,,,,,,,,0.0,0.0,0.0,-0.008111111111111112,-2.4126666666666665,0.5783333333333333,-2.663,0.022225461111111112,0.3482964777777778,0.14303418888888889,-0.3816924888888889,-0.04320738666666667,0.9145042777777778,1.3656604444444445,0.5089443888888888,-1.8406248888888888,47.59843115,,-0.15956666666666666,0.016433333333333335,-0.273,0.329,-122.83080535,104.97302614,0.0,0.0,76.7,18.8,17.9,0.543,100,True
,80,8000.0,2025-09-30 18:07:21.031000+00:00,2025-09-30 11:07:21.031,00:00:34.2,65241031,,,,,,,,,,,,,,0.09536170212765957,0.8829787234042553,0.007063829787234043,-0.018829787234042553,-5.1604255319148935,1.0643617021276597,-5.0354255319148935,0.019626940425531914,0.3505345106382979,0.1446623510638298,-0.3607185957446809,-0.048252793617021277,0.9129193723404255,2.131708404255319,0.7598625319148936,0.2918669893617023,47.59843115,,-0.12191489361702128,0.11412765957446809,-0.2641702127659575,0.33782978723404256,-122.83080535,104.97302614,0.0,0.0,76.7,18.8,17.9,0.543,100,True
,81,8100.0,2025-09-30 18:07:21.131000+00:00,2025-09-30 11:07:21.131,00:00:34.3,65241131,,,,,,,,,,,,,,0.09811111111111112,71.21111111111111,0.005033333333333333,-0.00022222222222222088,-6.003888888888889,0.0024444444444444713,-6.001888888888889,0.016403138888888887,0.3534547444444444,0.1427753111111111,-0.3715463333333333,0.011319385555555554,0.9125076888888889,-1.892755444444444,0.6908086,1.1090753222222223,47.59843115,,-0.08337777777777777,0.13392222222222222,-0.2541,0.3479,-122.83080535,104.97302614,0.0,0.0,76.7,18.70111111111111,17.9,0.543,100,True
,82,8200.0,2025-09-30 18:07:21.231000+00:00,2025-09-30 11:07:21.231,00:00:34.4,65241231,,,,,,,,,,,,,,0.03088888888888889,116.77777777777777,0.004,-0.011111111111111112,-6.026666666666667,-0.008888888888888889,-6.026666666666667,0.021938666666666665,0.35331888888888885,0.14409466666666665,-0.3826086666666667,0.0014413533333333334,0.9112137777777778,-5.06162,-1.5094801111111111,-2.523301111111111,47.59843115,,-0.11499999999999999,0.18066666666666667,-0.24288888888888888,0.36,-122.83080535,104.97302614,0.0,0.0,76.7,18.7,17.9,0.543,100,True
,83,8300.0,2025-09-30 18:07:21.331000+00:00,2025-09-30 11:07:21.331,00:00:34.5,65241331,,,,,,,,,,,,,,0.11681481481481482,155.2962962962963,0.004,-0.018518518518518517,-6.004444444444444,-0.0014814814814814812,-6.004444444444444,0.028181777777777778,0.3532448148148148,0.14768577777777778,-0.37119311111111114,-0.0027269577777777783,0.9109989629629629,-2.7263533333333334,-0.9978808518518519,-3.2019085185185183,47.59843115,,-0.175,0.2584444444444445,-0.22881481481481483,0.37333333333333335,-122.83080535,104.97302614,0.0,0.0,76.7,18.7,17.9,0.543,100,True
,84,8400.0,2025-09-30 18:07:21.431000+00:00,2025-09-30 11:07:21.431,00:00:34.6,65241431,,,,,,,,,,,,,,0.20162886597938146,247.9484536082474,0.007298969072164948,-0.03649484536082474,-6.032989690721649,0.0,-6.032989690721649,0.029479472164948454,0.35430134020618553,0.1576938969072165,-0.40022463917525775,-0.04082419113402062,0.9111663092783505,1.774555670103092,1.3599532268041237,-2.9612011340206186,47.59843115,,-0.17875257731958763,0.43812371134020617,-0.194659793814433,0.407340206185567,-122.83080535,104.97302614,0.0,0.0,76.7,18.7,17.9,0.543,100,True
,85,8500.0,2025-09-30 18:07:21.531000+00:00,2025-09-30 11:07:21.531,00:00:34.7,65241531,,,,,,,,,,,,,,0.2796976744186046,302.6744186046512,0.009930232558139535,-0.059302325581395345,-6.011046511627907,0.0,-6.011046511627907,0.02667118139534884,0.35726413953488373,0.16315593023255814,-0.35524624418604656,-0.0050937624418604666,0.9123093023255814,1.2798537209302325,0.3535721976744186,-2.815215348837209,47.59843081220931,,-0.03416279069767442,0.6303139534883722,-0.16097674418604652,0.4410232558139535,-122.83080066918605,105.01238711418605,0.0,0.0,76.7,18.7,17.9,0.543,100,True
,86,8600.0,2025-09-30 18:07:21.631000+00:00,2025-09-30 11:07:21.631,00:00:34.8,65241631,,,,,,,,,,,,,,0.3019022556390977,323.3157894736842,0.008045112781954888,-0.07,-6.008646616541353,-0.009548872180451128,-6.008646616541353,0.026644435338345863,0.35891457894736845,0.16800572932330826,-0.3568097744360902,-0.07455831052631579,0.9136291127819548,5.001930827067669,0.7858054135338346,-1.3099445864661654,47.5984308,,-0.002045112781954887,0.7298195488721805,-0.13973684210526313,0.4623082706766917,-122.8308005,105.0138098,0.0,0.0,76.7,18.7,17.9,0.543,100,True
,87,8700.0,2025-09-30 18:07:21.731000+00:00,2025-09-30 11:07:21.731,00:00:34.9,65241731,,,,,,,,,,,,,,0.31693984962406013,328.57894736842104,0.008796992481203006,-0.07,-5.98609022556391,-0.0020300751879699253,-5.98609022556391,0.022586690977443608,0.3594408947368421,0.16790121804511277,-0.350006015037594,-0.048855152631578955,0.914380992481203,3.807111278195489,1.6548956390977443,1.3221456390977444,47.5984308,,-0.0027969924812030074,0.7268120300751879,-0.11868421052631578,0.4841127819548872,-122.8308005,105.0138098,0.0,0.0,76.7,18.7,17.9,0.543,100,True
,88,8800.0,2025-09-30 18:07:21.831000+00:00,2025-09-30 11:07:21.831,00:00:35.0,65241831,,,,,,,,,,,,,,0.3121758241758242,338.02197802197804,0.009802197802197802,-0.07,-5.988021978021978,-0.008021978021978023,-5.988021978021978,0.02747758131868132,0.35740262637362635,0.1630566043956044,-0.3358600769230769,-0.03554913846153846,0.9169208021978021,-5.746420219780219,4.299055384615385,1.521481098901099,47.5984308,,-0.0013956043956043958,0.6955164835164834,-0.0744945054945055,0.5277032967032967,-122.8308005,105.0138098,0.0,0.0,76.7,18.78021978021978,17.9,0.543,100,True
,89,8900.0,2025-09-30 18:07:21.931000+00:00,2025-09-30 11:07:21.931,00:00:35.1,65241931,,,,,,,,,,,,,,0.2994193548387097,299.44086021505376,0.006473118279569892,-0.052365591397849465,-5.981182795698925,0.03408602150537634,-5.981182795698925,0.034964123655913976,0.3568985053763441,0.16139551612903227,-0.3023403978494624,-0.04857513548387096,0.9203308494623655,0.3544036559139787,-0.6198563440860205,-0.5223648602150537,47.5984308,,0.01310752688172043,0.6068817204301075,-0.040311827956989246,0.5616881720430107,-122.8308005,105.0138098,0.0,0.0,76.7,18.711827956989247,17.9,0.543,100,True
ride_101,90,9000.0,2025-09-30 18:07:22.031000+00:00,2025-09-30 11:07:22.031,00:00:35.2,65242031,,,,,,,,,,,,,,0.252,50.0,0.002,-0.03,-5.42,0.06,-5.8,0.0286516,0.354266,0.163683,-0.277379,-0.0257921,0.924057,8.29966,3.74276,-1.5709,47.5984308,0.0,0.064,0.417,-0.018,0.584,-122.8308005,105.0138098,0.0,0.0,76.7,18.8,17.9,0.543,100,True
,91,9100.0,2025-09-30 18:07:22.131000+00:00,2025-09-30 11:07:22.131,00:00:35.3,65242131,,,,,,,,,,,,,,0.027195652173913044,53.58695652173913,0.0,-0.0015217391304347826,-3.9102173913043474,0.03695652173913043,-5.504347826086957,0.016363165217391305,0.35366704347826083,0.16542354347826088,-0.2607466521739131,-0.040709502173913045,0.9303388913043479,5.617249347826086,-0.2091627608695652,0.38533091304347833,47.5984308,,-0.08082608695652174,0.09739130434782609,0.0013695652173913043,0.6043695652173913,-122.8308005,105.0138098,0.0,0.0,76.7,18.715217391304346,17.9,0.543,100,True
,92,9200.0,2025-09-30 18:07:22.231000+00:00,2025-09-30 11:07:22.231,00:00:35.4,65242231,,,,,,,,,,,,,,0.03387640449438202,21.831460674157302,0.0,-0.007528089887640449,1.861573033707865,0.3580898876404494,-2.452134831460674,0.009926176853932584,0.35088886516853934,0.16402973033707866,-0.25497952808988766,-0.01796618202247191,0.9360608202247191,0.5688283146067415,1.4219837078651685,0.7695202696629214,47.5984308,,-0.13791011235955056,-0.04346067415730337,0.009,0.612,-122.8308005,105.0138098,0.0,0.0,76.7,18.8,17.9,0.543,100,True
,93,9300.0,2025-09-30 18:07:22.331000+00:00,2025-09-30 11:07:22.331,00:00:35.5,65242331,,,,,,,,,,,,,,0.0,0.0,0.0,0.0,0.3661290322580645,0.2745161290322581,0.46,0.011631470967741935,0.3478564193548387,0.16373106451612904,-0.3241033870967742,0.008392690322580644,0.939999935483871,-2.5695993548387097,-0.982924193548387,-0.6210232258064516,47.5984308,,-0.16235483870967743,0.01229032258064516,0.009,0.612,-122.8308005,105.0138098,0.0,0.0,76.7,18.8,17.9,0.543,100,True
,94,9400.0,2025-09-30 18:07:22.431000+00:00,2025-09-30 11:07:22.431,00:00:35.6,65242431,,,,,,,,,,,,,,0.0,-34.54545454545455,0.0,0.0,0.7378787878787878,0.45545454545454545,1.3266666666666667,0.01814550303030303,0.334569,0.16739118181818183,-0.3635137878787879,-0.04314805454545454,0.9381340606060606,-3.0063466666666665,-13.317862121212123,-1.8715266666666666,47.598417406060605,,-0.16087878787878787,0.004333333333333333,0.009,0.612,-122.83077962121212,104.67629214242424,0.0,0.0,76.7,18.8,17.9,0.543,100,True
,95,9500.0,2025-09-30 18:07:22.531000+00:00,2025-09-30 11:07:22.531,00:00:35.7,65242531,,,,,,,,,,,,,,-8.695652173913044e-05,-104.08695652173913,0.0,0.0,0.2669565217391304,0.4521739130434783,1.931304347826087,0.022513965217391307,0.3046375652173913,0.17180499999999999,-0.33899108695652175,-0.06625954782608695,0.931161347826087,2.296763043478261,-33.31788695652174,-2.89224,47.5983866,,-0.15043478260869564,-0.021782608695652177,0.008217391304347826,0.6128695652173913,-122.8307316,103.90000153,0.0,0.0,76.7,18.8,17.9,0.543,100,True
,96,9600.0,2025-09-30 18:07:22.631000+00:00,2025-09-30 11:07:22.631,00:00:35.8,65242631,,,,,,,,,,,,,,-0.0008139534883720931,0.0,0.0,0.0,-1.8304651162790697,-0.627906976744186,1.7097674418604651,0.013183934437209301,0.23063744186046511,0.17145820930232558,-0.2337720697674419,-0.02922848604651163,0.9163191860465116,8.625486046511629,-46.095055813953486,1.7590884186046511,47.5983866,,-0.09237209302325582,-0.1348139534883721,0.0,0.622,-122.8307316,103.90000153,0.0,0.0,76.7,18.8,17.9,0.543,100,True
,97,9700.0,2025-09-30 18:07:22.731000+00:00,2025-09-30 11:07:22.731,00:00:35.9,65242731,,,,,,,,,,,,,,0.0,0.0,0.0,0.0,-1.0325,-0.38125000000000003,0.943125,-0.00158832899375,0.149723125,0.16782475,-0.12209659375,0.06174285625,0.909529375,4.0084687500000005,-44.13845625,0.26630056249999995,47.5983866,,-0.094,-0.13368750000000001,0.0,0.622,-122.8307316,103.90000153,0.0,0.0,76.7,18.8,17.9,0.543,100,True
,98,9800.0,2025-09-30 18:07:22.831000+00:00,2025-09-30 11:07:22.831,00:00:36.0,65242831,,,,,,,,,,,,,,0.0,0.0,0.0,0.0,-0.604367816091954,-0.3360919540229885,0.494367816091954,-0.0023634316091954025,0.08110639770114943,0.16845418390804598,-0.04172901494252874,0.030781108965517244,0.9140801839080459,-3.3738213793103444,-34.40214137931034,-0.4066796551724138,47.5983866,,-0.09360919540229885,-0.13260919540229885,0.0,0.622,-122.8307316,103.90000153,0.0,0.0,76.7,18.8,17.9,0.543,100,True
,99,9900.0,2025-09-30 18:07:22.931000+00:00,2025-09-30 11:07:22.931,00:00:36.1,65242931,,,,,,,,,,,,,,0.0,0.0,0.0,0.0,-0.6644943820224719,-0.340561797752809,0.5650561797752809,0.006921659101123596,0.02819015617977528,0.16870905617977527,0.0038760730337078636,-0.011792641123595507,0.928354393258427,-5.797892584269663,-23.853630337078652,0.12056458426966288,47.5983866,,-0.09352808988764046,-0.13252808988764045,0.0,0.622,-122.8307316,103.90000153,0.0,0.0,76.7,18.8,17.9,0.5424719101123596,100,True
,100,10000.0,2025-09-30 18:07:23.031000+00:00,2025-09-30 11:07:23.031,00:00:36.2,65243031,,,,,,,,,,,,,,0.0,0.0,0.0,0.0,-0.7715217391304348,-0.35,0.6815217391304348,0.014508310869565218,-0.006842663043478263,0.16824815217391303,0.02440032391304348,-0.02460211086956522,0.946223347826087,-2.411649369565217,-15.769504347826087,-0.4818191739130434,47.5983866,,-0.0933695652173913,-0.133,0.0,0.622,-122.8307316,103.90000153,0.0,0.0,76.7,18.8,17.9,0.542,100,True
,101,10100.0,2025-09-30 18:07:23.131000+00:00,2025-09-30 11:07:23.131,00:00:36.3,65243131,,,,,,,,,,,,,,0.0,0.0,0.0,0.0,-0.3403296703296704,-0.3282417582417582,0.2793406593406593,0.014334035164835165,-0.026335714285714285,0.16928183516483516,0.056729507692307696,-0.025972264835164835,0.9650163406593407,2.9044020329670333,-3.3185082637362644,-1.0584658241758242,47.5983866,,-0.093,-0.13227472527472528,0.0,0.622,-122.8307316,103.90000153,0.0,0.0,76.7,18.8,17.9,0.542,100,True
,102,10200.0,2025-09-30 18:07:23.231000+00:00,2025-09-30 11:07:23.231,00:00:36.4,65243231,,,,,,,,,,,,,,0.0,0.0,0.0,0.0,0.6767741935483872,-0.11032258064516129,-0.6703225806451614,0.007050990322580645,-0.014067983870967742,0.17170087096774195,0.07943832903225807,0.003633948387096776,0.987265064516129,3.676127741935484,23.039921548387095,-2.3556287096774193,47.5983866,,-0.09380645161290323,-0.13038709677419355,0.0,0.622,-122.8307316,103.90000153,0.0,0.0,76.7,18.8,17.9,0.542,100,True
,103,10300.0,2025-09-30 18:07:23.331000+00:00,2025-09-30 11:07:23.331,00:00:36.5,65243331,,,,,,,,,,,,,,0.0,85.64444444444445,0.0,0.0,0.388,0.04022222222222223,-0.3771111111111111,0.004784202222222222,0.044876257777777775,0.1759376888888889,0.007604473133333331,0.005917175333333333,1.0136820888888889,-3.213745111111111,42.99725333333333,-1.4590926666666666,47.5983866,,-0.10128888888888889,-0.12179999999999999,0.0,0.622,-122.8307316,103.90000153,0.0,0.0,76.7,18.8,17.9,0.542,100,True
,104,10400.0,2025-09-30 18:07:23.431000+00:00,2025-09-30 11:07:23.431,00:00:36.6,65243431,,,,,,,,,,,,,,0.006461538461538461,-5.076923076923077,0.0,0.0,0.27692307692307694,0.15692307692307692,0.3515384615384615,0.016532523076923076,0.12979484615384615,0.17857523076923076,-0.10456861538461538,-0.019136915384615386,1.0336346153846154,-8.309676153846153,50.450376923076924,-0.618704,47.59839013846154,,-0.1620769230769231,0.010538461538461538,0.009,0.631,-122.83073596230768,103.99954936384616,0.0,0.0,76.7,18.8,17.9,0.542,100,True
,105,10500.0,2025-09-30 18:07:23.531000+00:00,2025-09-30 11:07:23.531,00:00:36.7,65243531,,,,,,,,,,,,,,-0.0017391304347826088,-54.52173913043478,0.0,0.0,0.3391304347826087,0.32,0.938695652173913,0.02755121739130435,0.2087928260869565,0.18349,-0.23388139130434785,-0.042793708695652175,1.0386291304347828,-2.055134347826087,39.772378260869566,-2.2624460869565217,47.5984326,,-0.1515217391304348,-0.01847826086956522,0.007434782608695652,0.6325652173913043,-122.83078831,105.19412337,0.0,0.0,76.7,18.8,17.9,0.542,100,True
,106,10600.0,2025-09-30 18:07:23.631000+00:00,2025-09-30 11:07:23.631,00:00:36.8,65243631,,,,,,,,,,,,,,-0.01,0.0,0.0,0.0,-1.04,-0.48857142857142855,0.9214285714285715,0.0284633,0.262391,0.189665,-0.271299,-0.0943664,1.0353,4.89989,40.6895,-3.0562,47.5984326,,-0.09557142857142857,-0.13142857142857142,0.0,0.64,-122.83078831,105.19412337,0.0,0.0,76.7,18.8,17.9,0.542,100,True
,107,10700.0,2025-09-30 18:07:23.731000+00:00,2025-09-30 11:07:23.731,00:00:36.9,65243731,,,,,,,,,,,,,,-0.005604395604395605,0.0,0.0,0.0,-1.6976923076923076,-0.5968131868131867,1.5796703296703296,0.02348140989010989,0.2962661648351648,0.1912206043956044,-0.40325152747252746,-0.05869114725274725,1.025379120879121,3.434021868131868,30.21771978021978,-0.9979582417582415,47.5984326,,-0.09243956043956043,-0.13543956043956046,0.0,0.64,-122.83078831,105.19412337,0.0,0.0,76.7,18.8,17.9,0.542,100,True
,108,10800.0,2025-09-30 18:07:23.831000+00:00,2025-09-30 11:07:23.831,00:00:37.0,65243831,,,,,,,,,,,,,,0.0,0.0,0.0,0.0,-1.2091011235955056,-0.44235955056179777,1.1301123595505618,0.014858047191011236,0.3390578426966292,0.19262921348314607,-0.4419779438202247,-0.04186838314606742,0.9957842584269663,1.2208524382022472,6.457063932584269,1.3374477528089888,47.5984326,,-0.093,-0.13434831460674157,0.0,0.64,-122.83078831,105.19412337,0.0,0.0,76.7,18.8,17.9,0.542,100,True
,109,10900.0,2025-09-30 18:07:23.931000+00:00,2025-09-30 11:07:23.931,00:00:37.1,65243931,,,,,,,,,,,,,,0.0,0.0,0.0,0.0,-0.5943478260869566,-0.3365217391304348,0.5047826086956522,0.009690260869565218,0.34135178260869564,0.18988782608695653,-0.31902386956521744,-0.05021159565217392,0.9676586086956522,1.935587565217391,2.3300404347826085,-0.1303554347826088,47.5984326,,-0.093,-0.133,0.0,0.64,-122.83078831,105.19412337,0.0,0.0,76.7,18.8,17.9,0.542,100,True
,110,11000.0,2025-09-30 18:07:24.031000+00:00,2025-09-30 11:07:24.031,00:00:37.2,65244031,,,,,,,,,,,,,,0.0,0.0,0.0,0.0,-0.5476344086021505,-0.33268817204301077,0.4110752688172043,0.008954358709677418,0.347598935483871,0.18972890322580646,-0.33255650537634407,-0.01437657096774194,0.9489220215053763,0.9477469032258063,7.472366774193548,-1.1453791935483872,47.5984326,,-0.093,-0.133,0.0,0.64,-122.83078831,105.19412337,0.0,0.0,76.7,18.8,17.9,0.542,100,True
,111,11100.0,2025-09-30 18:07:24.131000+00:00,2025-09-30 11:07:24.131,00:00:37.3,65244131,,,,,,,,,,,,,,0.0,0.0,0.0,0.0,-0.51,-0.3381521739130435,0.37630434782608696,0.009165854239130435,0.3829974891304348,0.19559996739130434,-0.3448417934782609,-0.009400892934782608,0.9475058369565218,0.06418454347826086,32.51130260869566,-3.2700479347826086,47.5984326,,-0.093,-0.133,0.0,0.64,-122.83078831,105.19412337,0.0,0.0,76.7,18.8,17.9,0.542,100,True
ride_101,112,11200.0,2025-09-30 18:07:24.231000+00:00,2025-09-30 11:07:24.231,00:00:37.4,65244231,,,,,,,,,,,,,,0.0,0.0,0.0,0.0,-0.56,-0.34,0.44,0.0133516,0.470559,0.203083,-0.357358,-0.0430668,0.977068,1.47814,68.2169,-1.49173,47.5984326,0.0,-0.093,-0.133,0.0,0.64,-122.83078831,105.19412337,0.0,0.0,76.7,18.8,17.9,0.542,100,True
,113,11300.0,2025-09-30 18:07:24.331000+00:00,2025-09-30 11:07:24.331,00:00:37.5,65244331,,,,,,,,,,,,,,0.0,0.0,0.0,0.0,-0.6702941176470588,-0.35470588235294115,0.565,0.01568101176470588,0.5581766470588235,0.20460579411764707,-0.40354182352941176,-0.014781785294117649,1.002878294117647,-0.49091882352941196,82.49697352941176,0.6533876470588234,47.5984326,,-0.093,-0.133,0.0,0.64,-122.83078831,105.19412337,0.0,0.0,76.7,18.8,17.9,0.542,100,True
,114,11400.0,2025-09-30 18:07:24.431000+00:00,2025-09-30 11:07:24.431,00:00:37.6,65244431,,,,,,,,,,,,,,0.0,0.0,0.0,0.0,-0.73,-0.36,0.63,0.022402666666666668,0.7163963333333333,0.21048733333333333,-0.5759446666666667,0.018856473333333332,1.0167966666666666,-3.7526200000000003,80.30633333333334,-3.5692166666666667,47.5984326,,-0.09366666666666666,-0.133,0.0,0.64,-122.83078831,105.19412337,0.0,0.0,76.7,18.8,17.9,0.542,100,True
,115,11500.0,2025-09-30 18:07:24.531000+00:00,2025-09-30 11:07:24.531,00:00:37.7,65244531,,,,,,,,,,,,,,0.0,0.0,0.0,0.0,-0.7241860465116279,-0.36,0.6162790697674418,0.03383036279069768,0.8515975581395349,0.2282705581395349,-0.7213933720930232,-0.043460267441860476,0.9814735813953488,7.066293953488373,53.34443255813953,-5.3891939534883715,47.598432402325585,,-0.09320930232558139,-0.133,0.0,0.64,-122.83078536069767,105.19576878023256,0.0,0.0,76.7,18.8,17.97906976744186,0.542,100,True
,116,11600.0,2025-09-30 18:07:24.631000+00:00,2025-09-30 11:07:24.631,00:00:37.8,65244631,,,,,,,,,,,,,,0.0,0.0,0.0,0.0,-0.7111827956989247,-0.3511827956989247,0.6188172043010752,0.03612202043010753,0.9041888602150538,0.24475010752688173,-0.7731103763440861,-0.06051468494623656,0.8931401612903226,9.093372043010753,14.181079354838715,-2.7243882795698924,47.59843235,,-0.093,-0.133,0.0,0.64,-122.83078458,105.19620433,0.0,0.0,76.7,18.8,18.0,0.542,100,True
,117,11700.0,2025-09-30 18:07:24.731000+00:00,2025-09-30 11:07:24.731,00:00:37.9,65244731,,,,,,,,,,,,,,0.0,0.0,0.0,0.0,-0.6594623655913979,-0.34,0.559462365591398,0.0294704,0.885809,0.250843,-0.760523,-0.0432415,0.760099,-2.81347,-30.9149,-2.1385,47.59843235,,-0.093,-0.133,0.0,0.64,-122.83078458,105.19620433,0.0,0.0,76.7,18.8,17.998924731182797,0.542,100,True
,118,11800.0,2025-09-30 18:07:24.831000+00:00,2025-09-30 11:07:24.831,00:00:38.0,65244831,,,,,,,,,,,,,,0.0,0.0,0.0,0.0,-0.6038461538461538,-0.3391208791208791,0.5012087912087912,0.029674083516483516,0.8748505824175824,0.25033653846153847,-0.7475745164835165,-0.046924787912087915,0.7441433956043956,-1.937046263736264,-34.468121978021976,-1.7589378021978024,47.59843235,,-0.093,-0.133,0.0,0.64,-122.83078458,105.19620433,0.0,0.0,76.7,18.8,17.908791208791207,0.542,100,True
,119,11900.0,2025-09-30 18:07:24.931000+00:00,2025-09-30 11:07:24.931,00:00:38.1,65244931,,,,,,,,,,,,,,0.0,0.0,0.0,0.0,-0.5501190476190476,-0.33,0.42416666666666664,0.029754383333333332,0.7389987142857143,0.24282342857142858,-0.5967909523809524,-0.07267680714285715,0.5629862619047619,4.92732,-70.26821547619048,2.3778734523809524,47.59843235,,-0.093,-0.13320238095238096,0.0,0.64,-122.83078458,105.19620433,0.0,0.0,76.7,18.8,17.979761904761904,0.542,100,True
,120,12000.0,2025-09-30 18:07:25.031000+00:00,2025-09-30 11:07:25.031,00:00:38.2,65245031,,,,,,,,,,,,,,0.0,0.0,0.0,0.0,-0.6186956521739131,-0.33358695652173914,0.5122826086956521,0.020942946739130434,0.6212419239130434,0.23133042391304348,-0.5193760543478261,-0.018294829130434783,0.4946528586956522,-2.7740327717391304,-62.488269565217394,2.5258701086956523,47.59843235,,-0.093,-0.1336413043478261,0.0,0.64,-122.83078458,105.19620433,0.0,0.0,76.7,18.8,17.9,0.542,100,True
,121,12100.0,2025-09-30 18:07:25.131000+00:00,2025-09-30 11:07:25.131,00:00:38.3,65245131,,,,,,,,,,,,,,0.0,0.0,0.0,0.0,-0.6474725274725275,-0.34,0.5474725274725275,0.019688162637362637,0.5320753516483516,0.2246231208791209,-0.4704486263736264,-0.01673815274725275,0.4901468901098901,-0.6582287252747253,-56.014274725274724,1.6576002197802198,47.59843235,,-0.093,-0.133,0.0,0.64,-122.83078458,105.19620433,0.0,0.0,76.7,18.8,17.945054945054945,0.542,100,True
,122,12200.0,2025-09-30 18:07:25.231000+00:00,2025-09-30 11:07:25.231,00:00:38.4,65245231,,,,,,,,,,,,,,0.0,0.0,0.0,0.0,-0.5967441860465116,-0.3341860465116279,0.4967441860465116,0.018904695348837208,0.44238106976744185,0.2186643488372093,-0.39115232558139534,-0.03061976046511628,0.5231183953488372,1.811185534883721,-53.53289534883721,1.9673258139534884,47.59843235,,-0.093,-0.133,0.0,0.64,-122.83078458,105.19620433,0.0,0.0,76.7,18.8,18.0,0.542,100,True
,123,12300.0,2025-09-30 18:07:25.331000+00:00,2025-09-30 11:07:25.331,00:00:38.5,65245331,,,,,,,,,,,,,,0.0,0.0,0.0,0.0,-0.29333333333333333,-0.2833333333333333,0.22666666666666663,0.016887766666666665,0.367398,0.21216566666666667,-0.332148,-0.03361343333333333,0.5821616666666667,0.2087433333333335,-38.860299999999995,3.55713,47.59843235,,-0.09366666666666666,-0.13233333333333333,0.0,0.64,-122.83078458,105.19620433,0.0,0.0,76.7,18.8,18.0,0.542,100,True
,124,12400.0,2025-09-30 18:07:25.431000+00:00,2025-09-30 11:07:25.431,00:00:38.6,65245431,,,,,,,,,,,,,,0.0,0.0,0.0,0.0,-0.5025925925925926,-0.3204444444444444,0.4324444444444444,0.012063445481481482,0.3460495037037037,0.20651022962962962,-0.3491537333333333,0.08691517185185185,0.655120074074074,-3.5584037777777784,-15.630402429629626,1.7920986518518518,47.59843285874074,,-0.0934962962962963,-0.1330074074074074,0.0,0.64,-122.83078319481481,105.37176052940741,0.0,0.0,76.7,18.8,18.0,0.542,100,True
,125,12500.0,2025-09-30 18:07:25.531000+00:00,2025-09-30 11:07:25.531,00:00:38.7,65245531,,,,,,,,,,,,,,0.0,0.0,-0.0031058823529411766,0.0,-1.1411764705882352,-0.3528235294117647,1.0783529411764707,0.016932910117647058,0.3435786941176471,0.20695443529411764,-0.34811652941176474,0.10911990588235293,0.7511242352941176,-5.952794941176471,-1.903022611764706,-1.9119728000000002,47.59843336,,-0.0980470588235294,-0.14836470588235295,0.0,0.64,-122.83078183,105.54473502,0.0,0.0,76.7,18.8,18.0,0.542,100,True
