sample_idx,ts_utc,ms_today,speed_meters_per_sec,erpm,duty_cycle,current_in,current_motor,d_axis_current,q_axis_current,roll,pitch,yaw,accX,accY,accZ,gyroX,gyroY,gyroZ,fault_code,d_axis_voltage,q_axis_voltage,tacho_meters,tacho_abs_meters,input_voltage,temp_mos_max,temp_motor,battery_level
0,2025-09-27 20:43:58.560000+00:00,74638560,0.0,0.0,-0.001,0.0,-0.03,-0.05,-0.12,0.0682242,0.332988,-2.65158,-0.323853,-0.0632092,0.937316,0.0174481,-0.0895306,0.178805,0.0,0.037,-0.054,1729.58,1740.49,81.0,28.2,30.2,0.858
1,2025-09-27 20:43:58.660000+00:00,74638660,0.0,0.0,-0.001,0.0,0.0,0.0,0.0,0.08594556551724138,0.321811724137931,-2.5306286206896553,-0.3130015517241379,-0.07989169655172414,0.9402086896551725,0.24077641379310347,0.3184268965517241,0.17926710344827584,,0.005,-0.074,1729.58,1740.49,81.0,28.282758620689656,30.2,0.858
2,2025-09-27 20:43:58.760000+00:00,74638760,0.0,0.0,-0.001,0.0,0.0,0.0,0.0,0.08534649787234043,0.32254748936170213,-2.5310291489361703,-0.3137364042553191,-0.08275819148936171,0.940421914893617,0.2634247659574468,0.26124017021276597,0.252314085106383,,0.005,-0.074,1729.58,1740.49,81.0,28.2,30.170212765957448,0.858
3,2025-09-27 20:43:58.860000+00:00,74638860,0.0,0.0,-0.001,0.0,0.0,0.0,0.0,0.08493067272727273,0.3228498181818182,-2.5313499999999998,-0.3171239090909091,-0.07852606363636364,0.9402737272727273,0.12933026,0.18372963636363637,0.14063830909090907,,0.0051818181818181815,-0.074,1729.58,1740.49,81.0,28.2,30.11818181818182,0.858
4,2025-09-27 20:43:58.960000+00:00,74638960,0.0,0.0,-0.001,0.0,0.0,0.0,0.0,0.08494794545454545,0.3228551657754011,-2.5314676470588235,-0.31622070053475937,-0.0832400743315508,0.9400464545454545,0.048207495294117636,-0.041553786096256706,0.07490392406417112,,0.005716577540106952,-0.074,1729.58,1740.49,81.0,28.2,30.171657754010695,0.858
5,2025-09-27 20:43:59.060000+00:00,74639060,0.0,0.0,-0.001,0.0,0.0,0.0,0.0,0.08446729285714286,0.3228037261904762,-2.5318489285714283,-0.31642014285714287,-0.08414738214285715,0.939644,0.2598514751190476,-0.002110226190476183,0.2520124869047619,,0.005440476190476191,-0.074,1729.58,1740.49,81.0,28.25595238095238,30.14404761904762,0.858
6,2025-09-27 20:43:59.160000+00:00,74639160,0.0,0.0,-0.001,0.0,0.0,0.0,0.0,0.08303423846153846,0.32278523076923077,-2.53264,-0.31566076923076924,-0.08248523076923077,0.9392281538461539,0.6051406923076923,0.025889307692307698,0.40715115384615386,,0.005692307692307693,-0.074,1729.58,1740.49,81.0,28.23076923076923,30.16923076923077,0.858
7,2025-09-27 20:43:59.260000+00:00,74639260,0.0,0.0,-0.001,0.0,0.0,0.0,0.0,0.08242224893617021,0.32277557446808514,-2.5330536170212765,-0.31525144680851064,-0.08459428085106384,0.9391072765957447,0.14600619148936178,-0.19842461702127662,0.16265958723404256,,0.006,-0.074,1729.58,1740.49,81.0,28.2,30.2,0.858
8,2025-09-27 20:43:59.360000+00:00,74639360,0.0,0.0,-0.001,0.0,0.0,0.0,0.0,0.08263462298850575,0.32258354022988506,-2.5331986206896553,-0.31393910344827586,-0.08571758505747126,0.9390052298850574,-0.5566406091954023,-0.22248567011494252,-0.07559461034482759,,0.006,-0.074,1729.58,1740.49,81.0,28.2,30.2,0.858
9,2025-09-27 20:43:59.460000+00:00,74639460,0.0,0.0,-0.001,0.0,0.0,0.0,0.0,0.08377051555555556,0.32207595555555557,-2.5331502222222224,-0.31180315555555554,-0.08227022444444444,0.9388541111111112,-0.5697734444444444,-0.019992508888888892,-0.018681331111111116,,0.006,-0.074,1729.58,1740.49,81.0,28.2,30.15111111111111,0.858
10,2025-09-27 20:43:59.560000+00:00,74639560,0.0,0.0,-0.001,0.0,0.0,0.0,0.0,0.0840803,0.3219016666666667,-2.53334,-0.31220000000000003,-0.07916176666666666,0.9389693333333333,0.28129,0.004519933333333337,0.24839026666666666,,0.005333333333333333,-0.074,1729.58,1740.49,81.0,28.2,30.166666666666668,0.858
11,2025-09-27 20:43:59.660000+00:00,74639660,0.0,0.0,-0.001,0.0,0.0,0.0,0.0,0.08304561555555555,0.32195755555555555,-2.533869888888889,-0.31224361111111115,-0.08073916444444444,0.9391829444444445,0.6420101777777778,0.10941725888888888,0.38978826666666666,,0.005,-0.074,1729.58,1740.49,81.0,28.2,30.2,0.858
12,2025-09-27 20:43:59.760000+00:00,74639760,0.0,0.0,-0.001,0.0,0.0,0.0,0.0,0.08225244999999999,0.3219751195652174,-2.534357934782609,-0.3169108804347826,-0.07123645760869565,0.9393702717391305,-0.25539338043478266,-0.007908058695652198,-0.02418591086956523,,0.005,-0.074,1729.58,1740.49,81.0,28.2,30.2,0.858
13,2025-09-27 20:43:59.860000+00:00,74639860,0.0,0.0,-0.001,0.0,0.0,0.0,0.0,0.083120739,0.32178217000000003,-2.5342999,-0.31265652,-0.08426973600000001,0.93945889,-0.35011662,-0.021426333,-0.006784646799999988,,0.005,-0.07490999999999999,1729.58,1740.49,81.0,28.2,30.2,0.858
14,2025-09-27 20:43:59.960000+00:00,74639960,0.0,0.0,-0.001,0.0,0.0,0.0,0.0,0.08415491506849315,0.32174009589041097,-2.5343289041095893,-0.3129045890410959,-0.08262377808219178,0.9396853698630137,-0.20306120547945206,-0.01531032876712329,0.12230700684931506,,0.005068493150684932,-0.074,1729.58,1740.49,81.0,28.2,30.2,0.858
15,2025-09-27 20:44:00.060000+00:00,74640060,0.0,0.0,-0.001,0.0,0.0,0.0,0.0,0.08435306575342466,0.3218010547945206,-2.5344179452054796,-0.31395047945205484,-0.08133055890410959,0.9397990684931506,-0.25501326027397264,0.032186383561643835,0.07824707534246576,,0.005753424657534247,-0.074,1729.58,1740.49,81.0,28.2,30.2,0.858
16,2025-09-27 20:44:00.160000+00:00,74640160,0.0,0.0,-0.001,0.0,0.0,0.0,0.0,0.0845393247311828,0.3218925053763441,-2.534560107526882,-0.3150340967741936,-0.07836992903225808,0.9398806021505376,-0.27161088172043013,0.049530774193548385,0.08637810215053764,,0.005655913978494624,-0.074,1729.58,1740.49,81.0,28.2,30.2,0.858
17,2025-09-27 20:44:00.260000+00:00,74640260,0.0,0.0,-0.001,0.0,0.0,0.0,0.0,0.08471889462365591,0.3220011075268817,-2.5347321505376343,-0.31613893548387095,-0.07447138064516129,0.9399440430107526,-0.2683216344086021,0.04991448387096774,0.12386654301075269,,0.005118279569892473,-0.074,1729.58,1740.49,81.0,28.2,30.2,0.858
18,2025-09-27 20:44:00.360000+00:00,74640360,0.0,0.0,-0.001,0.0,0.0,0.0,0.0,0.0847584,0.322025,-2.53477,-0.316382,-0.0736137,0.939958,-0.267598,0.0499989,0.132114,,0.005672413793103449,-0.074,1729.58,1740.49,81.0,28.2,30.2,0.858
19,2025-09-27 20:44:00.460000+00:00,74640460,0.0,0.0,-0.001,0.0,0.0,0.0,0.0,0.08530745894736842,0.32206415789473686,-2.5349331578947365,-0.3134764842105263,-0.07954944947368421,0.9397132631578947,0.11244764210526315,0.05153506421052632,0.2822022947368421,,0.006,-0.074,1729.58,1740.49,81.0,28.2,30.2,0.858
20,2025-09-27 20:44:00.560000+00:00,74640560,0.0,0.0,-0.001,0.0,0.0,0.0,0.0,0.08458531999999999,0.3222711894736842,-2.535520736842105,-0.3135901894736842,-0.07899587157894737,0.9394645157894737,0.4622689368421053,0.05222025157894737,0.34914430526315793,,0.0052947368421052635,-0.074,1729.58,1740.49,81.0,28.2,30.2,0.8587052631578947
21,2025-09-27 20:44:00.660000+00:00,74640660,0.0,0.0,-0.001,0.0,0.0,0.0,0.0,0.08385778651685394,0.322438797752809,-2.5359888764044944,-0.3137735280898877,-0.08458287865168539,0.9393737415730337,0.047880312359550536,0.049683326966292136,0.10127944943820225,,0.005,-0.07480898876404495,1729.58,1740.49,81.0,28.2,30.2,0.859
22,2025-09-27 20:44:00.760000+00:00,74640760,0.0,0.0,-0.001,0.0,0.0,0.0,0.0,0.08408661734693877,0.32258014285714287,-2.5362005102040817,-0.31772225510204083,-0.08187301836734695,0.9393693061224491,-0.3276552336734694,0.2579038142857143,0.20552812244897958,,0.005,-0.074,1729.58,1740.49,81.0,28.2,30.2,0.859
23,2025-09-27 20:44:00.860000+00:00,74640860,0.0,0.0,-0.001,0.0,0.0,0.0,0.0,0.08468397553956836,0.3226933741007194,-2.536253237410072,-0.31688613669064747,-0.08538478489208633,0.9392996258992805,0.01116398273381295,-0.01955960071942446,0.17560726402877697,,0.00502158273381295,-0.074,1729.58,1740.49,81.0,28.2,30.2,0.859
24,2025-09-27 20:44:00.960000+00:00,74640960,0.0,0.0,-0.001,0.0,0.0,0.0,0.0,0.08481649352517986,0.32277251079136693,-2.5363611510791366,-0.3140573597122302,-0.08889428129496402,0.9392204892086331,-0.1983065928057554,-0.020406291366906474,0.09288273165467625,,0.005741007194244604,-0.074,1729.58,1740.49,81.0,28.2,30.2,0.859
25,2025-09-27 20:44:01.060000+00:00,74641060,0.0,0.0,-0.001,0.0,0.0,0.0,0.0,0.08497900493827161,0.3228752716049383,-2.5366212345679013,-0.3111182098765432,-0.08206264814814815,0.9390956049382716,0.011436632098765442,0.14608641111111112,0.14742395432098765,,0.006,-0.074,1729.58,1740.49,81.0,28.2,30.2,0.859
26,2025-09-27 20:44:01.160000+00:00,74641160,0.0,0.0,-0.001,0.0,0.0,0.0,0.0,0.08499345746268658,0.32293092537313434,-2.536803880597015,-0.31220358208955223,-0.08169968731343283,0.9390142537313433,0.13037232313432834,0.10364145298507463,0.16692071641791045,,0.006,-0.07338059701492537,1729.58,1740.49,81.0,28.2,30.2,0.859
27,2025-09-27 20:44:01.260000+00:00,74641260,0.0,0.0,-0.001,0.0,0.0,0.0,0.0,0.08462186153846155,0.3231231538461538,-2.53716,-0.31363846153846153,-0.07911078461538461,0.9389988461538462,0.3235755384615384,0.08981372307692306,0.3393066153846154,,0.005461538461538462,-0.07353846153846154,1729.58,1740.49,81.0,28.2,30.2,0.859
28,2025-09-27 20:44:01.360000+00:00,74641360,0.0,0.0,-0.001,0.0,0.0,0.0,0.0,0.08409972173913044,0.32342597826086955,-2.5375954347826086,-0.3147378695652174,-0.0763048304347826,0.9390376956521739,0.23119467173913044,0.03379248260869565,0.3329434347826087,,0.005630434782608696,-0.074,1729.58,1740.49,81.0,28.2,30.2,0.859
29,2025-09-27 20:44:01.460000+00:00,74641460,0.0,0.0,-0.001,0.0,0.0,0.0,0.0,0.08407068749999999,0.323676125,-2.537813125,-0.31635575,-0.08215958749999999,0.9390805624999999,-0.006789593749999989,0.17320237500000002,0.2002031875,,0.0053125,-0.07468749999999999,1729.58,1740.49,81.0,28.2,30.2,0.859
30,2025-09-27 20:44:01.560000+00:00,74641560,0.0,0.0,-0.001,0.0,0.0,0.0,0.0,0.08413583333333333,0.32381008333333333,-2.537955833333333,-0.3157399166666667,-0.08087056666666666,0.9390885833333333,-0.020679875,0.056628999999999985,0.20993516666666667,,0.005,-0.075,1729.58,1740.49,81.0,28.2,30.2,0.859
31,2025-09-27 20:44:01.660000+00:00,74641660,0.0,0.0,-0.001,0.0,0.0,0.0,0.0,0.08417235333333334,0.3238833111111111,-2.5380975555555554,-0.31412759999999995,-0.07568971111111111,0.9390704888888889,0.02019479111111111,-0.22728344444444445,0.2471239111111111,,0.005022222222222222,-0.07497777777777777,1729.58,1740.49,81.0,28.2,30.2,0.859
32,2025-09-27 20:44:01.760000+00:00,74641760,0.0,0.0,-0.001,0.0,0.0,0.0,0.0,0.08442294347826088,0.32327534782608697,-2.5384578260869564,-0.31498730434782607,-0.0850871391304348,0.9386186086956522,-0.11547468695652174,-0.13571734782608696,0.12677826086956523,,0.006,-0.074,1729.58,1740.49,81.0,28.2,30.2,0.859
33,2025-09-27 20:44:01.860000+00:00,74641860,0.0,0.0,-0.001,0.0,0.0,0.0,0.0,0.08432830579710145,0.3232282463768116,-2.5386897101449275,-0.3167981739130435,-0.08371829855072464,0.9387070144927536,-0.009980411594202904,0.06759642028985507,0.16636376811594203,,0.006,-0.074,1729.58,1740.49,81.0,28.2,30.2,0.859
34,2025-09-27 20:44:01.960000+00:00,74641960,0.0,0.0,-0.001,0.0,0.0,0.0,0.0,0.0845368,0.32324906382978724,-2.5389468085106386,-0.3136028510638298,-0.07561160851063829,0.9389134255319149,-0.27147789361702124,0.008812389361702117,0.037185617872340426,,0.006,-0.07478723404255319,1729.58,1740.49,81.0,28.2,30.2,0.859
35,2025-09-27 20:44:02.060000+00:00,74642060,0.0,0.0,-0.001,0.0,0.0,0.0,0.0,0.0855218909090909,0.32314618181818183,-2.5388818181818182,-0.3169465454545454,-0.09362134545454545,0.9390184545454545,-0.22834236363636362,-0.1493911,-0.07371873454545455,,0.005090909090909091,-0.075,1729.58,1740.49,81.0,28.2,30.2,0.859
36,2025-09-27 20:44:02.160000+00:00,74642160,0.0,0.0,-0.001,0.0,0.0,0.0,0.0,0.08581910845070422,0.3226193943661972,-2.5390642253521127,-0.31648002816901405,-0.08547394647887323,0.9387755774647888,-0.270477709859155,-0.3595232788732394,0.0019514354929577472,,0.006,-0.07495774647887324,1729.58,1740.49,81.0,28.2,30.2,0.859
37,2025-09-27 20:44:02.260000+00:00,74642260,0.0,0.0,-0.001,0.0,0.0,0.0,0.0,0.08608424929577464,0.3223426338028169,-2.539134647887324,-0.31641383098591547,-0.08057472112676056,0.9387685352112676,-0.11453954084507043,-0.16147792676056338,0.08521802704225352,,0.006,-0.07425352112676056,1729.58,1740.49,81.0,28.2,30.2,0.859
38,2025-09-27 20:44:02.360000+00:00,74642360,0.0,0.0,-0.001,0.0,0.0,0.0,0.0,0.08616312168674699,0.3221921084337349,-2.5393759036144576,-0.31577853012048196,-0.08117352530120482,0.9389410361445782,-0.004632546987951805,-0.19817612530120482,0.11158224096385543,,0.006,-0.074,1729.58,1740.49,81.0,28.2,30.2,0.859
39,2025-09-27 20:44:02.460000+00:00,74642460,0.0,0.0,-0.001,0.0,0.0,0.0,0.0,0.08610362330097086,0.3220087087378641,-2.539620873786408,-0.314216067961165,-0.08184855533980583,0.9390173786407767,0.12581685825242717,-0.06463713980582522,0.15403295145631068,,0.005213592233009709,-0.074,1729.58,1740.49,81.0,28.2,30.2,0.859
40,2025-09-27 20:44:02.560000+00:00,74642560,0.0,0.0,-0.001,0.0,0.0,0.0,0.0,0.08562355853658536,0.32182031707317077,-2.5401360975609757,-0.31520314634146346,-0.08410378048780487,0.9391628780487804,0.0905818463414634,-0.15276316585365854,0.17303570731707318,,0.005,-0.074,1729.58,1740.49,81.0,28.2,30.2,0.859
41,2025-09-27 20:44:02.660000+00:00,74642660,0.0,0.0,-0.001,0.0,0.0,0.0,0.0,0.08573525172413793,0.3215042413793104,-2.5403441379310343,-0.3127550344827586,-0.08564477931034482,0.9392031034482758,-0.19525048275862067,-0.22761289655172415,0.13103079310344828,,0.006,-0.07403448275862069,1729.58,1740.49,81.0,28.2,30.2,0.859
42,2025-09-27 20:44:02.760000+00:00,74642760,0.0,0.0,-0.001,0.0,0.0,0.0,0.0,0.08604179565217392,0.32125447826086956,-2.540498260869565,-0.31353478260869566,-0.08470701739130435,0.9393053043478261,-0.06031547826086957,-0.1471589913043478,0.1984394347826087,,0.006,-0.07482608695652174,1729.58,1740.49,81.0,28.2,30.2,0.859
43,2025-09-27 20:44:02.860000+00:00,74642860,0.0,0.0,-0.001,0.0,0.0,0.0,0.0,0.08595892857142858,0.32107942857142857,-2.54076,-0.3106081428571429,-0.08914317142857142,0.9394248571428572,0.17124374285714286,-0.08915495714285715,0.21550214285714286,,0.005714285714285714,-0.074,1729.58,1740.49,81.0,28.2,30.2,0.859
44,2025-09-27 20:44:02.960000+00:00,74642960,0.0,0.0,-0.001,0.0,0.0,0.0,0.0,0.08582341240875913,0.3210020145985401,-2.5410242335766426,-0.3122865109489051,-0.08401277883211679,0.9395685693430657,-0.00291163722627737,-0.08951229343065693,0.18059127737226277,,0.005291970802919708,-0.0742919708029197,1729.58,1740.49,81.0,28.2,30.2,0.859
45,2025-09-27 20:44:03.060000+00:00,74643060,0.0,0.0,-0.001,0.0,0.0,0.0,0.0,0.08583723917525773,0.3209265979381443,-2.541188350515464,-0.3105952577319588,-0.08333650618556701,0.9396272474226804,-0.05012733711340206,-0.09379950103092784,0.1847781030927835,,0.005969072164948454,-0.075,1729.58,1740.49,81.0,28.2,30.2,0.859
46,2025-09-27 20:44:03.160000+00:00,74643160,0.0,0.0,-0.001,0.0,0.0,0.0,0.0,0.08594834090909091,0.32048638636363636,-2.541473181818182,-0.3114486590909091,-0.08321835909090909,0.9394173409090909,0.036465979545454545,-0.25817497727272726,0.17886270454545455,,0.005068181818181818,-0.075,1729.58,1740.49,81.0,28.2,30.2,0.859
47,2025-09-27 20:44:03.260000+00:00,74643260,0.0,0.0,-0.001,0.0,0.0,0.0,0.0,0.08550364468085107,0.3197099574468085,-2.5418800000000004,-0.31119040425531913,-0.07707501276595745,0.9390648510638298,0.2551465446808511,-0.5024135744680851,0.14871991489361702,,0.006,-0.07480851063829787,1729.58,1740.49,81.0,28.2,30.2,0.859
48,2025-09-27 20:44:03.360000+00:00,74643360,0.0,0.0,-0.001,0.0,0.0,0.0,0.0,0.0850605,0.31941,-2.54226,-0.313755,-0.0818314,0.939288,0.0810624,0.119682,0.10081,,0.006,-0.07431168831168831,1729.58,1740.49,81.0,28.2,30.2,0.859
49,2025-09-27 20:44:03.460000+00:00,74643460,0.0,0.0,-0.001,0.0,0.0,0.0,0.0,0.0851291587628866,0.31955972164948454,-2.5424005154639175,-0.3120237525773196,-0.08371479175257732,0.939636381443299,0.12077865979381444,0.15425897938144328,0.16507062886597937,,0.005515463917525773,-0.07451546391752577,1729.58,1740.49,81.0,28.2,30.2,0.8594845360824742
50,2025-09-27 20:44:03.560000+00:00,74643560,0.0,0.0,-0.001,0.0,0.0,0.0,0.0,0.08504350136986302,0.3197676301369863,-2.5427006849315066,-0.31094124657534244,-0.08654470136986302,0.9400909041095891,0.1848159589041096,0.16680601369863013,0.2077038904109589,,0.005342465753424658,-0.074,1729.58,1740.49,81.0,28.2,30.2,0.86
51,2025-09-27 20:44:03.660000+00:00,74643660,0.0,0.0,-0.001,0.0,0.0,0.0,0.0,0.0847388,0.319861,-2.54299,-0.312399,-0.0881312,0.940252,0.226645,0.120271,0.158304,,0.005945945945945946,-0.07405405405405405,1729.58,1740.49,81.0,28.2,30.2,0.86
52,2025-09-27 20:44:03.760000+00:00,74643760,0.0,0.0,-0.001,0.0,0.0,0.0,0.0,0.08470048478260869,0.31978828260869563,-2.5431726086956523,-0.31235171739130435,-0.0846436347826087,0.9402585217391304,0.11095619565217393,0.028840782608695645,0.14647486956521738,,0.005326086956521739,-0.07467391304347826,1729.58,1740.49,81.0,28.2,30.2,0.86
53,2025-09-27 20:44:03.860000+00:00,74643860,0.0,0.0,-0.001,0.0,0.0,0.0,0.0,0.08495557045454545,0.31935040909090906,-2.543519772727273,-0.3097498863636363,-0.08265853863636363,0.9401148181818182,-0.1608874090909091,-0.25107318181818183,0.09548776363636363,,0.0055681818181818185,-0.074,1729.58,1740.49,81.0,28.2,30.2,0.86
54,2025-09-27 20:44:03.960000+00:00,74643960,0.0,0.0,-0.001,0.0,0.0,0.0,0.0,0.08527001111111111,0.31897922222222225,-2.5436133333333335,-0.3075588888888889,-0.08438124444444445,0.9400135555555555,0.32342877777777784,-0.09622388888888889,0.2847650666666666,,0.005,-0.074,1729.58,1740.49,81.0,28.2,30.2,0.86
55,2025-09-27 20:44:04.060000+00:00,74644060,0.0,0.0,-0.001,0.0,0.0,0.0,0.0,0.0849008654676259,0.3190730575539568,-2.5439012949640287,-0.3092664604316547,-0.0805194820143885,0.9401860575539568,0.49399396402877693,0.12238488489208633,0.36485464748201435,,0.005,-0.074,1729.58,1740.49,81.0,28.2,30.2,0.86
56,2025-09-27 20:44:04.160000+00:00,74644160,0.0,0.0,-0.001,0.0,0.0,0.0,0.0,0.08443066744186047,0.31927422093023256,-2.5442523255813954,-0.3099500697674419,-0.08050997325581395,0.940356453488372,0.09193181395348839,0.12075959302325581,0.20607177906976745,,0.005,-0.07424418604651162,1729.58,1740.49,81.0,28.2,30.2,0.86
57,2025-09-27 20:44:04.260000+00:00,74644260,0.0,0.0,-0.001,0.0,0.0,0.0,0.0,0.08391754367816093,0.3195283448275862,-2.5447327586206896,-0.3098006551724138,-0.07802375747126436,0.9404714942528736,-0.015921183908045977,0.06345036206896552,0.109895,,0.005,-0.07459770114942528,1729.58,1740.49,81.0,28.2,30.2,0.86
58,2025-09-27 20:44:04.360000+00:00,74644360,0.0,0.0,-0.001,0.0,0.0,0.0,0.0,0.08351856956521739,0.31950095652173915,-2.545096956521739,-0.31303760869565217,-0.07339579565217391,0.9403466086956521,0.008458826086956528,-0.019870091304347828,0.1452724956521739,,0.005521739130434783,-0.074,1729.58,1740.49,81.0,28.2,30.2,0.86
59,2025-09-27 20:44:04.460000+00:00,74644460,0.0,0.0,-0.001,0.0,0.0,0.0,0.0,0.08375314,0.3194348666666667,-2.5452375555555555,-0.3104228888888889,-0.07894956222222223,0.9402956666666666,-0.22021386666666667,-0.15132322222222225,0.0691142648888889,,0.006,-0.074,1729.58,1740.49,81.0,28.2,30.2,0.86
60,2025-09-27 20:44:04.560000+00:00,74644560,0.0,0.0,-0.001,0.0,0.0,0.0,0.0,0.08432014,0.31921940000000004,-2.5453253333333334,-0.31027760000000004,-0.08085015333333334,0.9401954,-0.32648426666666663,-0.1795138,0.050617650666666666,,0.006,-0.074,1729.58,1740.49,81.0,28.2,30.2,0.86
61,2025-09-27 20:44:04.660000+00:00,74644660,0.0,0.0,-0.001,0.0,0.0,0.0,0.0,0.08514222444444444,0.31907277777777776,-2.5453093333333334,-0.30931328888888887,-0.08894500666666666,0.9402505111111111,-0.2308447111111111,0.015974555555555547,-0.00037630222222222176,,0.006,-0.074,1729.58,1740.49,81.0,28.2,30.2,0.86
62,2025-09-27 20:44:04.760000+00:00,74644760,0.0,0.0,-0.001,0.0,0.0,0.0,0.0,0.08566507415730337,0.31907829213483146,-2.5454352808988765,-0.31232526966292135,-0.08491957640449438,0.9403723258426966,-0.4914514831460674,-0.020265103370786505,-0.12387918539325843,,0.005033707865168539,-0.074,1729.58,1740.49,81.0,28.2,30.2,0.86
63,2025-09-27 20:44:04.860000+00:00,74644860,0.0,0.0,-0.001,0.0,0.0,0.0,0.0,0.08676959431818182,0.31931913636363635,-2.5452861363636363,-0.3112869545454545,-0.09075486818181819,0.9406541704545454,-0.33610775,0.3945754431818182,0.06672130681818182,,0.006,-0.074,1729.58,1740.49,81.0,28.2,30.2,0.86
64,2025-09-27 20:44:04.960000+00:00,74644960,0.0,0.0,-0.001,0.0,0.0,0.0,0.0,0.08703448333333333,0.3198308333333333,-2.54548,-0.31298016666666667,-0.08330026666666666,0.9408591666666667,-0.14077566666666666,0.20142416666666668,0.10772513333333333,,0.005833333333333334,-0.074,1729.58,1740.49,81.0,28.2,30.2,0.86
65,2025-09-27 20:44:05.060000+00:00,74645060,0.0,0.0,-0.001,0.0,0.0,0.0,0.0,0.08735017717391304,0.31980396739130434,-2.545626195652174,-0.31069850000000004,-0.08440056195652174,0.9404964130434783,-0.16276117391304348,-0.0713954347826087,0.09207721304347827,,0.005271739130434783,-0.074,1729.58,1740.49,81.0,28.2,30.2,0.86
66,2025-09-27 20:44:05.160000+00:00,74645160,0.0,0.0,-0.001,0.0,0.0,0.0,0.0,0.08739556250000001,0.31968675,-2.545855,-0.309564125,-0.08045065000000001,0.9401333749999999,0.026164499999999993,-0.09828775000000001,0.17812987500000002,,0.006,-0.074375,1729.58,1740.49,81.0,28.2,30.2,0.86
67,2025-09-27 20:44:05.260000+00:00,74645260,0.0,0.0,-0.001,0.0,0.0,0.0,0.0,0.08720087128712871,0.3194801287128713,-2.546163663366337,-0.309451396039604,-0.08018066237623762,0.9398580594059406,0.15418660396039605,-0.13640670792079207,0.13597832673267327,,0.006,-0.07455445544554455,1729.58,1740.49,81.0,28.2,30.2,0.86
68,2025-09-27 20:44:05.360000+00:00,74645360,0.0,0.0,-0.001,0.0,0.0,0.0,0.0,0.0872009488372093,0.31935858139534884,-2.546478372093023,-0.31088951162790696,-0.08330090930232557,0.9398358604651162,0.04376407906976745,0.015535095348837211,0.10514877674418605,,0.006,-0.07451162790697674,1729.58,1740.49,81.0,28.2,30.2,0.86
69,2025-09-27 20:44:05.460000+00:00,74645460,0.0,0.0,-0.001,0.0,0.0,0.0,0.0,0.0873164,0.319341,-2.54662,-0.312339,-0.0857415,0.939893,-0.0584018,0.0498111,0.113762,,0.005301204819277108,-0.0743012048192771,1729.58,1740.49,81.0,28.2,30.2,0.86
70,2025-09-27 20:44:05.560000+00:00,74645560,0.0,0.0,-0.001,0.0,0.0,0.0,0.0,0.08727861804511279,0.31932464661654136,-2.546760977443609,-0.3130946390977443,-0.08469668796992481,0.9399211954887218,-0.019079243609022557,-0.1475821894736842,0.11233192481203008,,0.0055639097744360905,-0.07456390977443608,1729.58,1740.49,81.0,28.2,30.2,0.86
71,2025-09-27 20:44:05.660000+00:00,74645660,0.0,0.0,-0.001,0.0,0.0,0.0,0.0,0.08714206666666667,0.3191057333333333,-2.547070666666667,-0.31244886666666666,-0.08448174,0.9399248,0.11466504,-0.23432473333333334,0.16707293333333334,,0.006,-0.07453333333333333,1729.58,1740.49,81.0,28.2,30.2,0.86
72,2025-09-27 20:44:05.760000+00:00,74645760,0.0,0.0,-0.001,0.0,0.0,0.0,0.0,0.08680354347826087,0.3188061304347826,-2.5475091304347828,-0.3114866956521739,-0.08352404347826087,0.939954304347826,0.27563373913043476,-0.11906991739130435,0.26644678260869564,,0.005434782608695652,-0.074,1729.58,1740.49,81.0,28.2,30.2,0.86
73,2025-09-27 20:44:05.860000+00:00,74645860,0.0,0.0,-0.001,0.0,0.0,0.0,0.0,0.08647996938775511,0.31892291836734693,-2.5478720408163267,-0.31111779591836736,-0.07750793877551021,0.9402274897959183,0.12660273469387753,0.16761836122448986,0.17806914285714287,,0.005612244897959183,-0.074,1729.58,1740.49,81.0,28.2,30.2,0.86
74,2025-09-27 20:44:05.960000+00:00,74645960,0.0,0.0,-0.001,0.0,0.0,0.0,0.0,0.08646946031746032,0.3191205079365079,-2.54807873015873,-0.3097193015873016,-0.07590893650793651,0.9404808095238095,-0.054284596825396825,0.1923761,0.14651974603174603,,0.0055079365079365086,-0.074,1729.58,1740.49,81.0,28.150793650793652,30.2,0.86
75,2025-09-27 20:44:06.060000+00:00,74646060,0.0,0.0,-0.001,0.0,0.0,0.0,0.0,0.08659328791208791,0.3192883956043956,-2.5482786813186813,-0.30914153846153847,-0.07891498241758241,0.940626978021978,-0.06442316043956045,0.023129229670329675,0.21263573626373627,,0.005395604395604396,-0.074,1729.58,1740.49,81.0,28.13956043956044,30.2,0.86
76,2025-09-27 20:44:06.160000+00:00,74646160,0.0,0.0,-0.001,0.0,0.0,0.0,0.0,0.08666910449438203,0.3194591685393258,-2.54864202247191,-0.3121612359550562,-0.08425827640449438,0.9406804494382022,0.01737931011235955,0.0512406584269663,0.17658098876404493,,0.0054943820224719105,-0.074,1729.58,1740.49,81.0,28.2,30.2,0.86
77,2025-09-27 20:44:06.260000+00:00,74646260,0.0,0.0,-0.001,0.0,0.0,0.0,0.0,0.08678943191489362,0.3195352765957447,-2.5489272340425533,-0.31377229787234046,-0.08602617446808511,0.9406211914893616,-0.07175485531914895,0.036419621276595746,0.11507004255319148,,0.005595744680851064,-0.074,1729.58,1740.49,81.0,28.2,30.2,0.86
78,2025-09-27 20:44:06.360000+00:00,74646360,0.0,0.0,-0.001,0.0,0.0,0.0,0.0,0.08712323333333333,0.31963366666666665,-2.5490866666666667,-0.30828300000000003,-0.08527556666666666,0.9405913333333333,-0.18277933333333335,0.0256318,0.031224666666666664,,0.005333333333333333,-0.07466666666666666,1729.58,1740.49,81.0,28.2,30.2,0.86
79,2025-09-27 20:44:06.460000+00:00,74646460,0.0,0.0,-0.001,0.0,0.0,0.0,0.0,0.08763750344827587,0.31963258620689655,-2.549185517241379,-0.3097467931034483,-0.08839402413793104,0.9404895172413793,-0.26540668965517245,0.048558648275862065,-0.008608665862068966,,0.005793103448275862,-0.07341379310344827,1729.58,1740.49,81.0,28.2,30.2,0.86
80,2025-09-27 20:44:06.560000+00:00,74646560,0.0,0.0,-0.001,0.0,0.0,0.0,0.0,0.0878642288888889,0.3196200888888889,-2.549373111111111,-0.31351415555555556,-0.08387535777777777,0.9404310222222223,-0.1304700888888889,0.11483252,0.23497884711111114,,0.006,-0.07391111111111111,1729.58,1740.49,81.0,28.2,30.2,0.86
81,2025-09-27 20:44:06.660000+00:00,74646660,0.0,0.0,-0.001,0.0,0.0,0.0,0.0,0.08772979361702128,0.31952897872340424,-2.5496444680851065,-0.3088061489361702,-0.08131221914893617,0.9402665106382978,0.008623217021276608,-0.017236306382978725,0.11155702127659575,,0.006,-0.074,1729.58,1740.49,81.09787234042552,28.2,30.2,0.86
82,2025-09-27 20:44:06.760000+00:00,74646760,0.0,0.0,-0.001,0.0,0.0,0.0,0.0,0.08765677023809523,0.31951908333333334,-2.549900119047619,-0.30805772619047617,-0.0843081380952381,0.9401287023809524,-0.0385363369047619,-0.020014786904761904,0.1311380238095238,,0.005130952380952381,-0.074,1729.58,1740.49,81.08690476190476,28.2,30.2,0.86
83,2025-09-27 20:44:06.860000+00:00,74646860,0.0,0.0,-0.001,0.0,0.0,0.0,0.0,0.08770021847826087,0.3193690543478261,-2.550158695652174,-0.30840688043478265,-0.08708546304347826,0.9400133695652174,-0.0126170597826087,0.021874532608695655,0.2093287608695652,,0.006,-0.07429347826086956,1729.58,1740.49,81.0,28.2,30.2,0.86
84,2025-09-27 20:44:06.960000+00:00,74646960,0.0,0.0,-0.001,0.0,0.0,0.0,0.0,0.08795637065217392,0.3192286739130435,-2.550345652173913,-0.3101428043478261,-0.08066363152173912,0.9399953260869566,-0.5179921847826087,-0.20069668478260866,0.022978271739130432,,0.005619565217391305,-0.075,1729.58,1740.49,81.03804347826087,28.2,30.2,0.86
85,2025-09-27 20:44:07.060000+00:00,74647060,0.0,0.0,-0.001,0.0,0.0,0.0,0.0,0.08892394074074074,0.31881649629629627,-2.5503117037037035,-0.31159560000000003,-0.0779169237037037,0.9398769407407408,-0.8755090444444444,-0.5662577555555556,-0.09245579777777778,,0.005,-0.07468148148148147,1729.58,1740.49,81.06814814814814,28.2,30.2,0.86
86,2025-09-27 20:44:07.160000+00:00,74647160,0.0,0.0,-0.001,0.0,0.0,0.0,0.0,0.0902836,0.3184263435114504,-2.5500763358778626,-0.31101598473282444,-0.09018884809160306,0.9398681145038168,-0.7207424241221374,-0.20532602290076338,0.03823136564885496,,0.005061068702290076,-0.074,1729.58,1740.49,81.006106870229,28.2,30.2,0.86006106870229
87,2025-09-27 20:44:07.260000+00:00,74647260,0.0,0.0,-0.001,0.0,0.0,0.0,0.0,0.0911836,0.31824313740458016,-2.550030534351145,-0.30929079389312975,-0.09728319923664122,0.9401070458015268,-0.130535225648855,0.11528619083969463,0.036809686259541986,,0.005824427480916031,-0.074,1729.58,1740.49,81.0824427480916,28.2,30.2,0.860824427480916
88,2025-09-27 20:44:07.360000+00:00,74647360,0.0,0.0,-0.001,0.0,0.0,0.0,0.0,0.09122354347826087,0.31859939130434783,-2.5503464130434783,-0.30861529347826083,-0.08509206086956521,0.9405938695652174,0.1270587114130435,0.013768220652173924,0.08640104673913043,,0.005163043478260869,-0.074,1729.58,1740.49,81.1,28.2,30.2,0.861
89,2025-09-27 20:44:07.460000+00:00,74647460,0.0,0.0,-0.001,0.0,0.0,0.0,0.0,0.09088173076923076,0.3185789230769231,-2.5506995604395604,-0.3072224835164835,-0.08857095384615385,0.9405285494505494,0.1679379120879121,0.0470078945054945,0.29084975164835164,,0.0059340659340659345,-0.074,1729.58,1740.49,81.1,28.2,30.2,0.861
90,2025-09-27 20:44:07.560000+00:00,74647560,0.0,0.0,-0.001,0.0,0.0,0.0,0.0,0.0899212875,0.3188880681818182,-2.551249886363636,-0.30893567045454545,-0.07922763295454546,0.9405931136363636,0.5746142159090909,0.052675047727272724,0.3935841818181818,,0.005056818181818182,-0.07305681818181818,1729.58,1740.49,81.1,28.2,30.2,0.861
91,2025-09-27 20:44:07.660000+00:00,74647660,0.0,0.0,-0.001,0.0,0.0,0.0,0.0,0.08934352282608696,0.318892402173913,-2.5516613043478262,-0.31118469565217394,-0.08596611413043478,0.9404404565217391,0.22246898913043478,0.08921333152173913,0.17197329347826087,,0.006,-0.074,1729.58,1740.49,81.1,28.2,30.2,0.861
92,2025-09-27 20:44:07.760000+00:00,74647760,0.0,0.0,-0.001,0.0,0.0,0.0,0.0,0.08837218888888888,0.3190982777777778,-2.552200555555556,-0.31009183333333334,-0.08649408333333333,0.9404490555555555,0.734957388888889,0.2033947222222222,0.30024788888888887,,0.005722222222222222,-0.074,1729.58,1740.49,81.1,28.2,30.2,0.861
93,2025-09-27 20:44:07.860000+00:00,74647860,0.0,0.0,-0.001,0.0,0.0,0.0,0.0,0.0866014,0.3192972643678161,-2.5529596551724136,-0.3103170229885057,-0.0837766540229885,0.9403070114942529,0.9128614942528736,0.08169444367816092,0.47731705747126435,,0.005,-0.074,1729.58,1740.49,81.1,28.2,30.2,0.861
94,2025-09-27 20:44:07.960000+00:00,74647960,0.0,0.0,-0.001,0.0,0.0,0.0,0.0,0.08569087692307692,0.3195482857142857,-2.553500769230769,-0.3102045824175824,-0.07924667362637362,0.9403144395604396,-0.25958578021978024,0.08328818241758242,0.15269279120879123,,0.005527472527472528,-0.074,1729.58,1740.49,81.1,28.2,30.2,0.861
95,2025-09-27 20:44:08.060000+00:00,74648060,0.0,0.0,-0.001,0.0,0.0,0.0,0.0,0.08634198208955224,0.3196216119402985,-2.5535191791044776,-0.309521723880597,-0.08397250373134328,0.9403071492537314,-0.6205611119402985,-0.04055369850746268,0.012975372388059701,,0.006,-0.074,1729.58,1740.49,81.1,28.2,30.2,0.861
96,2025-09-27 20:44:08.160000+00:00,74648160,0.0,0.0,-0.001,0.0,0.0,0.0,0.0,0.087178525,0.31956874999999996,-2.5534425,-0.30976575,-0.09269492500000001,0.9402055,-0.26912749999999996,-0.142669775,0.11665202499999999,,0.00575,-0.074,1729.58,1740.49,81.1,28.2,30.2,0.861
97,2025-09-27 20:44:08.260000+00:00,74648260,0.0,0.0,-0.001,0.0,0.0,0.0,0.0,0.08715324157303371,0.3196096853932584,-2.5536793258426966,-0.3132135505617978,-0.08965952359550562,0.9400904157303371,0.4873074157303371,-0.039469792134831455,0.3052492696629213,,0.005,-0.074,1729.58,1740.49,81.1,28.2,30.2,0.861
98,2025-09-27 20:44:08.360000+00:00,74648360,0.0,0.0,-0.001,0.0,0.0,0.0,0.0,0.08576837878787878,0.3198351515151515,-2.554393939393939,-0.31230515151515154,-0.08444889090909091,0.9399828181818182,0.795590909090909,-0.03603197878787879,0.43153572727272727,,0.005424242424242424,-0.074,1729.58,1740.49,81.1,28.2,30.2,0.861
99,2025-09-27 20:44:08.460000+00:00,74648460,0.0,0.0,-0.001,0.0,0.0,0.0,0.0,0.0843601196969697,0.32011846212121214,-2.555107727272727,-0.31261826515151514,-0.0766901393939394,0.9399584696969697,0.2670365045454545,-0.021234651515151526,0.3228390681818182,,0.0056742424242424245,-0.07432575757575757,1729.58,1740.49,81.1,28.2,30.2,0.861
100,2025-09-27 20:44:08.560000+00:00,74648560,0.0,0.0,-0.001,0.0,0.0,0.0,0.0,0.08427766564885497,0.320203641221374,-2.5553141984732823,-0.3120169923664122,-0.08085144045801528,0.9399812900763359,-0.02380205343511451,0.23038080458015267,0.10887787786259542,,0.005083969465648855,-0.07491603053435114,1729.58,1740.49,81.1,28.2,30.2,0.861
101,2025-09-27 20:44:08.660000+00:00,74648660,0.0,0.0,-0.001,0.0,0.0,0.0,0.0,0.08494644427480916,0.320273106870229,-2.5553523664122135,-0.3135078320610687,-0.08518999007633588,0.9400293816793893,-0.3431861755725191,-0.03649369923664125,0.13963131297709924,,0.005847328244274809,-0.0741526717557252,1729.58,1740.49,81.1,28.2,30.2,0.861
102,2025-09-27 20:44:08.760000+00:00,74648760,0.0,0.0,-0.001,0.0,0.0,0.0,0.0,0.08535650107526882,0.3206138817204301,-2.5554460215053765,-0.31330019354838706,-0.08340445268817204,0.9402927634408602,0.08860237634408602,0.09217836774193548,0.28177855913978495,,0.005139784946236559,-0.07313978494623656,1729.58,1740.49,81.1,28.2,30.2,0.861
103,2025-09-27 20:44:08.860000+00:00,74648860,0.0,0.0,-0.001,0.0,0.0,0.0,0.0,0.08543504,0.32035959999999997,-2.5556146666666666,-0.3116433,-0.08503761666666666,0.9399927666666666,0.03433251000000001,-0.1487713,0.31847563333333334,,0.005966666666666667,-0.07396666666666667,1729.58,1740.49,81.1,28.2,30.2,0.861
104,2025-09-27 20:44:08.960000+00:00,74648960,0.0,0.0,-0.001,0.0,0.0,0.0,0.0,0.08539935054347826,0.32046286956521736,-2.5557570652173913,-0.31081563586956523,-0.08442763858695652,0.9400679836956521,0.09998039076086956,-0.01094098369565219,0.2742593641304348,,0.005472826086956522,-0.074,1729.58,1740.49,81.1,28.2,30.2,0.861
105,2025-09-27 20:44:09.060000+00:00,74649060,0.0,0.0,-0.001,0.0,0.0,0.0,0.0,0.08539548500000001,0.3205882375,-2.5559401250000002,-0.31057245,-0.08326774249999999,0.940139175,0.10438440000000002,0.0981171125,0.2166914875,,0.0051625,-0.074,1729.58,1740.49,81.1,28.2,30.2,0.861
106,2025-09-27 20:44:09.160000+00:00,74649160,0.0,0.0,-0.001,0.0,0.0,0.0,0.0,0.08565788241758242,0.32073592307692306,-2.5563406593406595,-0.3126992637362637,-0.08057198681318681,0.9400688241758243,-0.09671614065934066,-0.020150840659340658,0.11783926373626373,,0.006,-0.074,1729.58,1740.49,81.1,28.2,30.2,0.861
107,2025-09-27 20:44:09.260000+00:00,74649260,0.0,0.0,-0.001,0.0,0.0,0.0,0.0,0.08580004206896552,0.3207175103448276,-2.5565897931034485,-0.312529924137931,-0.08153348965517242,0.9399247379310345,0.10480473931034484,-0.060464672413793094,0.14128040689655172,,0.006,-0.074,1729.58,1740.49,81.1,28.2,30.2,0.861
108,2025-09-27 20:44:09.360000+00:00,74649360,0.0,0.0,-0.001,0.0,0.0,0.0,0.0,0.08566990413793105,0.3205568206896552,-2.5568035862068967,-0.31294164827586207,-0.08326417931034483,0.939728875862069,0.16133411862068966,-0.1560698448275862,0.23422661379310344,,0.006,-0.074,1729.58,1740.49,81.1,28.2,30.2,0.861
109,2025-09-27 20:44:09.460000+00:00,74649460,0.0,0.0,-0.001,0.0,0.0,0.0,0.0,0.08542745056179775,0.3204940224719101,-2.5571337078651686,-0.315020202247191,-0.08430434382022473,0.9396178426966292,0.2589340449438202,0.013342876404494379,0.2394703370786517,,0.005,-0.074,1729.58,1740.49,81.1,28.2,30.2,0.861
110,2025-09-27 20:44:09.560000+00:00,74649560,0.0,0.0,-0.001,0.0,0.0,0.0,0.0,0.08490430502793296,0.32055151396648046,-2.5575212849162012,-0.31608218994413406,-0.08426738826815643,0.9396007597765363,0.32298437653631284,-0.1164562067039106,0.26101948603351954,,0.005150837988826816,-0.074,1729.58,1740.49,81.1,28.2,30.2,0.861
111,2025-09-27 20:44:09.660000+00:00,74649660,0.0,0.0,-0.001,0.0,0.0,0.0,0.0,0.08467765698324023,0.32052749162011174,-2.557711229050279,-0.31247548603351954,-0.08228956703910614,0.9395739441340781,0.11794873407821233,0.03893932402234637,0.15964350837988828,,0.005709497206703911,-0.074,1729.58,1740.49,81.1,28.2,30.2,0.861
112,2025-09-27 20:44:09.760000+00:00,74649760,0.0,0.0,-0.001,0.0,0.0,0.0,0.0,0.08501200143884892,0.3205229424460432,-2.5578376258992805,-0.31080305035971223,-0.0832674309352518,0.9396276834532374,-0.2662272791366906,0.07016131079136692,-0.013813064748201445,,0.006,-0.074,1729.58,1740.49,81.1,28.2,30.2,0.861
113,2025-09-27 20:44:09.860000+00:00,74649860,0.0,0.0,-0.001,0.0,0.0,0.0,0.0,0.08589201758241757,0.32053602197802195,-2.5579107692307694,-0.3114301098901099,-0.08805891428571429,0.9397593626373627,-0.7054355747252747,-0.03726671648351648,-0.2015630769230769,,0.005901098901098901,-0.074,1729.58,1740.49,81.1,28.19010989010989,30.2,0.861
114,2025-09-27 20:44:09.960000+00:00,74649960,0.0,0.0,-0.001,0.0,0.0,0.0,0.0,0.08607150153846153,0.32048878461538466,-2.5581387692307693,-0.31364070769230773,-0.09575998153846155,0.9397751846153847,0.07837215230769232,-0.16917344615384616,0.18400503076923078,,0.005,-0.074,1729.58,1740.49,81.1,28.113846153846154,30.2,0.861
115,2025-09-27 20:44:10.060000+00:00,74650060,0.0,0.0,-0.001,0.0,0.0,0.0,0.0,0.08591873230769231,0.3203264769230769,-2.558354153846154,-0.31366686153846157,-0.0885432123076923,0.939692876923077,0.02943799846153846,-0.22242036923076924,0.24289964615384615,,0.005,-0.074,1729.58,1740.49,81.1,28.19076923076923,30.2,0.861
116,2025-09-27 20:44:10.160000+00:00,74650160,0.0,0.0,-0.001,0.0,0.0,0.0,0.0,0.08604541142857143,0.3202278,-2.5585057142857144,-0.31235691428571427,-0.08371613142857143,0.9397075142857143,-0.2509600942857143,-0.18592194285714286,0.1411001257142857,,0.005,-0.074,1729.58,1740.49,81.1,28.13714285714286,30.2,0.861
117,2025-09-27 20:44:10.260000+00:00,74650260,0.0,0.0,-0.001,0.0,0.0,0.0,0.0,0.08713966470588236,0.3198534705882353,-2.5585291764705884,-0.31009751764705884,-0.08574050705882352,0.9397536235294117,-0.21283466352941177,-0.12082517411764707,0.09846812823529412,,0.005564705882352941,-0.07343529411764706,1729.58,1740.49,81.1,28.156470588235294,30.2,0.861
118,2025-09-27 20:44:10.360000+00:00,74650360,0.0,0.0,-0.001,0.0,0.0,0.0,0.0,0.08770885384615384,0.3195082307692308,-2.558711538461538,-0.31090215384615383,-0.08406727692307693,0.9398063846153846,0.19144913846153844,-0.1378694153846154,0.19106123076923076,,0.006,-0.07369230769230768,1729.58,1740.49,81.1,28.2,30.2,0.861
119,2025-09-27 20:44:10.460000+00:00,74650460,0.0,0.0,-0.001,0.0,0.0,0.0,0.0,0.08747764193548388,0.3193771935483871,-2.559111935483871,-0.3118338064516129,-0.08334709032258066,0.9398716451612903,0.18978535483870967,-0.05113785806451612,0.17915987096774194,,0.006,-0.0732258064516129,1729.58,1740.49,81.1,28.122580645161293,30.2,0.861
120,2025-09-27 20:44:10.560000+00:00,74650560,0.0,0.0,-0.001,0.0,0.0,0.0,0.0,0.08693976043956045,0.31928675824175823,-2.5595385714285714,-0.3089655934065934,-0.08539579670329671,0.9398618241758242,0.4702181868131868,-0.07945814615384617,0.2609890989010989,,0.005131868131868132,-0.07386813186813186,1729.58,1740.49,81.1,28.186813186813186,30.2,0.861
121,2025-09-27 20:44:10.660000+00:00,74650660,0.0,0.0,-0.001,0.0,0.0,0.0,0.0,0.08534967582417582,0.3190695274725275,-2.560264945054945,-0.30836475824175824,-0.0718391945054945,0.939746967032967,0.7358274065934066,-0.01662295604395604,0.46253147252747256,,0.006,-0.074,1729.58,1740.49,81.1,28.1010989010989,30.2,0.861
122,2025-09-27 20:44:10.760000+00:00,74650760,0.0,0.0,-0.001,0.0,0.0,0.0,0.0,0.0847316098901099,0.31920117582417584,-2.5607253846153846,-0.314869043956044,-0.06794817252747253,0.9400232307692308,-0.11368085714285714,-0.04241317582417582,0.19755037362637362,,0.006,-0.07389010989010988,1729.58,1740.49,81.1,28.2,30.2,0.861
123,2025-09-27 20:44:10.860000+00:00,74650860,0.0,0.0,-0.001,0.0,0.0,0.0,0.0,0.08514885648854963,0.3191377557251908,-2.5608717557251905,-0.3112940152671756,-0.07619339160305344,0.9401006106870229,0.006177523664122143,-0.1981289641221374,0.2715624732824427,,0.006,-0.07314503816793892,1729.58,1740.49,81.1,28.2,30.2,0.861
124,2025-09-27 20:44:10.960000+00:00,74650960,0.0,0.0,-0.001,0.0,0.0,0.0,0.0,0.08520862748091602,0.31905225954198474,-2.5609862595419846,-0.309699358778626,-0.08516545267175572,0.9401143511450382,0.28167080610687023,-0.036981406870228994,0.3530281221374046,,0.006,-0.07390839694656488,1729.58,1740.49,81.1,28.2,30.2,0.861
125,2025-09-27 20:44:11.060000+00:00,74651060,0.0,0.0,-0.001,0.0,0.0,0.0,0.0,0.084171210989011,0.31906907692307696,-2.5616092307692306,-0.3081967032967033,-0.08572773516483516,0.9401324395604396,0.6518966813186813,0.2528090208791209,0.33045384615384615,,0.005032967032967033,-0.074,1729.58,1740.49,81.1,28.2,30.2,0.861
126,2025-09-27 20:44:11.160000+00:00,74651160,0.0,0.0,-0.001,0.0,0.0,0.0,0.0,0.08281230967741936,0.3194328387096774,-2.562305806451613,-0.3111944516129032,-0.07618777096774193,0.9403557741935484,0.6223092903225806,0.3184445806451613,0.3255778064516129,,0.0050967741935483875,-0.07309677419354839,1729.58,1740.49,81.1,28.2,30.2,0.861
127,2025-09-27 20:44:11.260000+00:00,74651260,0.0,0.0,-0.001,0.0,0.0,0.0,0.0,0.0816756,0.319674,-2.56292,-0.311572,-0.0783323,0.940447,0.23888,0.191694,0.297044,,0.006,-0.074,1729.58,1740.49,81.1,28.2,30.2,0.861
128,2025-09-27 20:44:11.360000+00:00,74651360,0.0,0.0,-0.001,0.0,0.0,0.0,0.0,0.0816721,0.31978852380952383,-2.5629866666666667,-0.311107,-0.08023227619047618,0.9405210476190476,0.13489285714285715,0.22460542857142857,0.2556361428571428,,0.006,-0.074,1729.58,1740.49,81.1,28.176190476190477,30.2,0.861
129,2025-09-27 20:44:11.460000+00:00,74651460,0.0,0.0,-0.001,0.0,0.0,0.0,0.0,0.08184639278350515,0.3202229175257732,-2.563214845360825,-0.31076803092783506,-0.08643641855670103,0.940726824742268,-0.22828711340206187,0.25148134020618557,0.07444179051546393,,0.006,-0.074,1729.58,1740.49,81.1,28.137113402061857,30.2,0.861
130,2025-09-27 20:44:11.560000+00:00,74651560,0.0,0.0,-0.001,0.0,0.0,0.0,0.0,0.08223800357142858,0.3203960357142857,-2.563305,-0.31321782142857146,-0.08214787857142858,0.940622,-0.2769935,0.05390270357142857,0.02497979107142857,,0.006,-0.074,1729.58,1740.49,81.1,28.2,30.2,0.8614642857142857
131,2025-09-27 20:44:11.660000+00:00,74651660,0.0,0.0,-0.001,0.0,0.0,0.0,0.0,0.08271114680851063,0.3204764574468085,-2.563344893617021,-0.3149857659574468,-0.08581251914893617,0.9404601914893617,-0.02533190425531917,-0.06146861595744681,0.08284333085106384,,0.006,-0.07341489361702128,1729.58,1740.49,81.1,28.141489361702128,30.2,0.862
132,2025-09-27 20:44:11.760000+00:00,74651760,0.0,0.0,-0.001,0.0,0.0,0.0,0.0,0.08277239879518072,0.3206991325301205,-2.5635992771084335,-0.31163443373493976,-0.08529287831325301,0.9403659518072289,0.05279306144578312,0.06457603855421688,0.15550042891566265,,0.005265060240963856,-0.07373493975903614,1729.58,1740.49,81.1,28.1,30.2,0.862
133,2025-09-27 20:44:11.860000+00:00,74651860,0.0,0.0,-0.001,0.0,0.0,0.0,0.0,0.08268389856115108,0.3208972086330935,-2.5638178417266184,-0.3088010503597122,-0.0833304726618705,0.9403153525179856,0.014015033812949641,0.23789345323741007,0.13632158273381295,,0.0055611510791366905,-0.074,1729.58,1740.49,81.1,28.15611510791367,30.2,0.862
134,2025-09-27 20:44:11.960000+00:00,74651960,0.0,0.0,-0.001,0.0,0.0,0.0,0.0,0.08260168571428571,0.3210764285714286,-2.56403,-0.30973471428571425,-0.07828504285714286,0.9402331428571429,-0.11083245714285715,0.20954165714285716,0.08660978571428571,,0.005571428571428572,-0.074,1729.58,1740.49,81.1,28.2,30.2,0.862
135,2025-09-27 20:44:12.060000+00:00,74652060,0.0,0.0,-0.001,0.0,0.0,0.0,0.0,0.082661,0.3213452666666667,-2.5642913333333333,-0.31097406666666666,-0.07448246,0.9400944,-0.15888176,0.08689682666666668,0.08940390000000001,,0.005533333333333334,-0.074,1729.58,1740.49,81.1,28.14666666666667,30.2,0.862
136,2025-09-27 20:44:12.160000+00:00,74652160,0.0,0.0,-0.001,0.0,0.0,0.0,0.0,0.0830248465116279,0.321495488372093,-2.564474418604651,-0.31293916279069767,-0.07710573488372094,0.9399355813953488,-0.39585470232558145,0.024726588372093017,0.04883926976744185,,0.005325581395348837,-0.074,1729.58,1740.49,81.1,28.1,30.2,0.862
137,2025-09-27 20:44:12.260000+00:00,74652260,0.0,0.0,-0.001,0.0,0.0,0.0,0.0,0.08404534705882354,0.3215475294117647,-2.56434,-0.3131987647058823,-0.0823791294117647,0.939938705882353,-0.7530645294117647,0.01491485294117647,-0.07708775294117648,,0.005,-0.074,1729.58,1740.49,81.1,28.1,30.2,0.862
138,2025-09-27 20:44:12.360000+00:00,74652360,0.0,0.0,-0.001,0.0,0.0,0.0,0.0,0.08512918,0.3215596,-2.564244,-0.3115754,-0.08409616,0.9398764000000001,-0.52059408,0.07635486,-0.028666999999999998,,0.005,-0.074,1729.58,1740.49,81.1,28.14,30.2,0.862
139,2025-09-27 20:44:12.460000+00:00,74652460,0.0,0.0,-0.001,0.0,0.0,0.0,0.0,0.08524529010989011,0.3214098351648352,-2.564537142857143,-0.31101947252747253,-0.08012640879120879,0.9395355164835165,0.1960201923076923,-0.0916346813186813,0.1986819010989011,,0.005505494505494505,-0.074,1729.58,1740.49,81.1,28.2,30.2,0.862
140,2025-09-27 20:44:12.560000+00:00,74652560,0.0,0.0,-0.001,0.0,0.0,0.0,0.0,0.08453562222222222,0.3211788888888889,-2.5649744444444447,-0.31140533333333337,-0.07782147777777777,0.9392736666666667,0.34123455555555554,-0.14354355555555554,0.22122244444444444,,0.0054444444444444445,-0.074,1729.58,1740.49,81.1,28.2,30.2,0.862
141,2025-09-27 20:44:12.660000+00:00,74652660,0.0,0.0,-0.001,0.0,0.0,0.0,0.0,0.08391155696202532,0.32096883544303795,-2.565432278481013,-0.3129805063291139,-0.07333136582278481,0.9392502405063291,-0.031889556962025334,-0.06940798987341772,0.15357359493670886,,0.005708860759493671,-0.074,1729.58,1740.49,81.1,28.129113924050635,30.2,0.862
142,2025-09-27 20:44:12.760000+00:00,74652760,0.0,0.0,-0.001,0.0,0.0,0.0,0.0,0.08407528723404256,0.3208576489361702,-2.5656137234042555,-0.31578053191489364,-0.07574961489361702,0.9394768829787234,-0.25999844680851064,0.08142292765957444,0.07356184787234042,,0.006,-0.07481914893617021,1729.58,1740.49,81.1,28.1,30.2,0.862
143,2025-09-27 20:44:12.860000+00:00,74652860,0.0,0.0,-0.001,0.0,0.0,0.0,0.0,0.08519763636363636,0.32044026136363635,-2.5655356818181816,-0.31237754545454544,-0.09158278181818182,0.9396239204545455,-0.3394859545454545,-0.21075523863636364,0.07081749204545455,,0.005056818181818181,-0.075,1729.58,1740.49,81.1,28.1,30.2,0.862
144,2025-09-27 20:44:12.960000+00:00,74652960,0.0,0.0,-0.001,0.0,0.0,0.0,0.0,0.08494282857142857,0.3202750714285714,-2.5658767857142855,-0.31126160714285717,-0.08396837142857143,0.939935,0.4717038571428571,0.05857633928571429,0.407097,,0.005035714285714286,-0.074,1729.58,1740.49,81.1,28.1,30.2,0.862
145,2025-09-27 20:44:13.060000+00:00,74653060,0.0,0.0,-0.001,0.0,0.0,0.0,0.0,0.0843874,0.3201765,-2.5662125,-0.31375375,-0.0771598,0.942215,-0.6950990000000001,0.172533125,0.27975700000000003,,0.00575,-0.074,1729.58,1740.49,81.1,28.1,30.2,0.862
146,2025-09-27 20:44:13.160000+00:00,74653160,0.0,0.0,-0.001,0.0,0.0,0.0,0.0,0.08432210344827587,0.32005832183908045,-2.5665317241379313,-0.31141410344827586,-0.08036941494252874,0.9408552988505747,-0.4268718390804598,-0.01356862068965517,0.15467840229885058,,0.006,-0.074,1729.58,1740.49,81.1,28.1,30.2,0.862
147,2025-09-27 20:44:13.260000+00:00,74653260,0.0,0.0,-0.001,0.0,0.0,0.0,0.0,0.08495043720930233,0.32007262790697677,-2.5666,-0.3090508837209302,-0.08945389999999999,0.9403354186046512,-0.013678586744186066,0.03609608372093022,0.046242337209302306,,0.006,-0.074,1729.58,1740.49,81.1,28.190697674418605,30.2,0.862
148,2025-09-27 20:44:13.360000+00:00,74653360,0.0,0.0,-0.001,0.0,0.0,0.0,0.0,0.08535414545454546,0.31996176767676765,-2.566720808080808,-0.3084990303030303,-0.08419421515151515,0.9403198282828282,-0.25399378777777776,-0.0808267313131313,0.06198678888888888,,0.006,-0.07492929292929293,1729.58,1740.49,81.1,28.107070707070708,30.2,0.862
149,2025-09-27 20:44:13.460000+00:00,74653460,0.0,0.0,-0.001,0.0,0.0,0.0,0.0,0.08562565212765957,0.319904914893617,-2.566899893617021,-0.31132677659574465,-0.08653204361702128,0.9402973404255319,-0.006421951063829789,0.04140507021276596,0.09284015319148936,,0.005882978723404255,-0.07488297872340426,1729.58,1740.49,81.1,28.1,30.2,0.862
150,2025-09-27 20:44:13.560000+00:00,74653560,0.0,0.0,-0.001,0.0,0.0,0.0,0.0,0.08590284222222222,0.31982273333333333,-2.56705,-0.3090615,-0.08534496888888889,0.9402106555555555,-0.22171084444444444,-0.021748554444444443,-0.03827038666666666,,0.005,-0.074,1729.58,1740.49,81.1,28.11888888888889,30.2,0.862
151,2025-09-27 20:44:13.660000+00:00,74653660,0.0,0.0,-0.001,0.0,0.0,0.0,0.0,0.08668983181818182,0.3196120795454545,-2.5670469318181817,-0.31226062499999996,-0.08620354318181818,0.94004475,-0.3457848636363636,-0.06443208636363637,-0.01158010227272728,,0.005306818181818182,-0.074,1729.58,1740.49,81.1,28.16931818181818,30.2,0.862
152,2025-09-27 20:44:13.760000+00:00,74653760,0.0,0.0,-0.001,0.0,0.0,0.0,0.0,0.08719316511627907,0.31941272093023254,-2.5671443023255813,-0.3121901976744186,-0.08782063488372092,0.9397763255813953,0.2262753023255814,-0.09550994186046512,0.23081672093023256,,0.005546511627906977,-0.074,1729.58,1740.49,81.1,28.1,30.2,0.862
153,2025-09-27 20:44:13.860000+00:00,74653860,0.0,0.0,-0.001,0.0,0.0,0.0,0.0,0.08682199130434783,0.31914975,-2.567529239130435,-0.31294488043478264,-0.08417627826086957,0.9394527934782609,0.37931346739130434,-0.1405262608695652,0.1773671956521739,,0.0055760869565217395,-0.074,1729.58,1740.49,81.1,28.1,30.2,0.862
154,2025-09-27 20:44:13.960000+00:00,74653960,0.0,0.0,-0.001,0.0,0.0,0.0,0.0,0.08647297634408603,0.3188642688172043,-2.5678774193548386,-0.3138730215053763,-0.08056885806451612,0.9392836666666667,0.012157956989247376,-0.230933376344086,0.0424383559139785,,0.006,-0.074,1729.58,1740.49,81.1,28.1,30.2,0.862
155,2025-09-27 20:44:14.060000+00:00,74654060,0.0,0.0,-0.001,0.0,0.0,0.0,0.0,0.0864492,0.318781,-2.56796,-0.314011,-0.0803974,0.939273,-0.210102,-0.231476,-0.0105949,,0.006,-0.074,1729.58,1740.49,81.1,28.1,30.2,0.862
156,2025-09-27 20:44:14.160000+00:00,74654160,0.0,0.0,-0.001,0.0,0.0,0.0,0.0,0.08696125555555556,0.3186076666666667,-2.5680155555555553,-0.3147643333333333,-0.08719917777777778,0.9393935555555556,-0.08028649999999998,-0.15222094444444445,0.1333656,,0.006,-0.074,1729.58,1740.49,81.1,28.1,30.2,0.862
157,2025-09-27 20:44:14.260000+00:00,74654260,0.0,0.0,-0.001,0.0,0.0,0.0,0.0,0.08749756666666667,0.318349,-2.5681844444444444,-0.3136727777777778,-0.08782402222222223,0.9395935555555556,-0.010145166666666663,-0.05799676666666667,0.2199437777777778,,0.006,-0.074,1729.58,1740.49,81.1,28.1,30.2,0.862
158,2025-09-27 20:44:14.360000+00:00,74654360,0.0,0.0,-0.001,0.0,0.0,0.0,0.0,0.0877418375,0.318150875,-2.568397291666667,-0.3120469444444445,-0.08440453263888889,0.9397913680555555,-0.11256170833333333,-0.020241485416666666,0.10898200347222223,,0.005618055555555556,-0.074,1729.58,1740.49,81.1,28.1,30.2,0.862
159,2025-09-27 20:44:14.460000+00:00,74654460,0.0,0.0,-0.001,0.0,0.0,0.0,0.0,0.08792801460674157,0.3180647191011236,-2.568517191011236,-0.312851404494382,-0.08789810786516855,0.9399379662921349,-0.20934584269662923,-0.02139910224719101,-0.004125970786516853,,0.005,-0.074,1729.58,1740.49,81.1,28.1,30.2,0.862
160,2025-09-27 20:44:14.560000+00:00,74654560,0.0,0.0,-0.001,0.0,0.0,0.0,0.0,0.0884304135802469,0.3179935061728395,-2.56871,-0.3117227283950617,-0.08428215308641976,0.9402139135802469,-0.20730735802469136,-0.0021499938271604957,0.01891261234567901,,0.005271604938271605,-0.0742716049382716,1729.58,1740.49,81.1,28.1,30.2,0.862
161,2025-09-27 20:44:14.660000+00:00,74654660,0.0,0.0,-0.001,0.0,0.0,0.0,0.0,0.08905372666666667,0.3178716222222222,-2.5687555555555557,-0.3105094666666666,-0.08685697,0.9402417555555556,-0.20785873333333332,-0.04689109333333333,0.013085833333333338,,0.006,-0.075,1729.58,1740.49,81.1,28.1,30.2,0.862
162,2025-09-27 20:44:14.760000+00:00,74654760,0.0,0.0,-0.001,0.0,0.0,0.0,0.0,0.08933284838709678,0.3176645483870968,-2.568897741935484,-0.3111937741935484,-0.08518812580645162,0.9402003225806451,-0.0797905258064516,-0.08299430322580646,0.15553409677419355,,0.006,-0.0744516129032258,1729.58,1740.49,81.1,28.1,30.2,0.862
163,2025-09-27 20:44:14.860000+00:00,74654860,0.0,0.0,-0.001,0.0,0.0,0.0,0.0,0.08925732608695652,0.3176226086956522,-2.5691402173913045,-0.30912152173913043,-0.08542926304347825,0.9402809999999999,0.10537099347826087,0.06864294782608696,0.16947221739130436,,0.005369565217391304,-0.074,1729.58,1740.49,81.1,28.1,30.2,0.862
164,2025-09-27 20:44:14.960000+00:00,74654960,0.0,0.0,-0.001,0.0,0.0,0.0,0.0,0.08899900666666667,0.3179286,-2.5694233333333334,-0.31109173333333334,-0.08352503333333333,0.9405021333333333,0.10577542000000001,0.2743711333333333,0.1673308666666667,,0.005,-0.074,1729.58,1740.49,81.1,28.1,30.2,0.862
165,2025-09-27 20:44:15.060000+00:00,74655060,0.0,0.0,-0.001,0.0,0.0,0.0,0.0,0.08875563103448275,0.31826948275862066,-2.5697258620689656,-0.3097799540229885,-0.08707740114942529,0.9405928275862069,0.4024463827586207,-0.03551909655172414,0.2672484022988506,,0.005,-0.074,1729.58,1740.49,81.1,28.1,30.2,0.862
166,2025-09-27 20:44:15.160000+00:00,74655160,0.0,0.0,-0.001,0.0,0.0,0.0,0.0,0.08750559578947369,0.31844837894736844,-2.570336,-0.31236702105263153,-0.08365570736842105,0.9403944210526316,1.162133557894737,0.1929121368421053,0.5599933578947368,,0.005,-0.07302105263157894,1729.58,1740.49,81.1,28.1,30.2,0.862
167,2025-09-27 20:44:15.260000+00:00,74655260,0.0,0.0,-0.001,0.0,0.0,0.0,0.0,0.0857834559139785,0.318724,-2.5711048387096773,-0.31354482795698924,-0.07784063010752688,0.9402956344086021,0.4687291397849462,0.08966423655913978,0.2567650913978495,,0.005,-0.074,1729.58,1740.49,81.1,28.1,30.2,0.862
168,2025-09-27 20:44:15.360000+00:00,74655360,0.0,0.0,-0.001,0.0,0.0,0.0,0.0,0.08574228333333334,0.3182805,-2.571415,-0.3113956666666666,-0.08302816666666667,0.9399091666666667,-0.15851566666666667,-0.289254,0.04403085666666667,,0.005,-0.074,1729.58,1740.49,81.1,28.1,30.2,0.862
169,2025-09-27 20:44:15.460000+00:00,74655460,0.0,0.0,-0.001,0.0,0.0,0.0,0.0,0.08679259361702128,0.31735331914893616,-2.571484680851064,-0.3092182553191489,-0.08640014893617022,0.9396773404255319,-0.16465429787234045,-0.0746834680851064,0.02866774425531915,,0.005,-0.074,1729.58,1740.49,81.1,28.1,30.2,0.862
170,2025-09-27 20:44:15.560000+00:00,74655560,0.0,0.0,-0.001,0.0,0.0,0.0,0.0,0.08648797586206897,0.31749427586206896,-2.5717496551724137,-0.31007068965517237,-0.08746607586206896,0.9401523103448276,0.3194943724137931,0.17346162068965515,0.16657510689655172,,0.005413793103448276,-0.074,1729.58,1740.49,81.1,28.141379310344828,30.2,0.862
171,2025-09-27 20:44:15.660000+00:00,74655660,0.0,0.0,-0.001,0.0,0.0,0.0,0.0,0.08539029230769231,0.3178383846153846,-2.5721353846153847,-0.30849661538461537,-0.0796966,0.9405656923076923,0.40892484615384617,0.35036115384615385,0.015627230769230782,,0.006,-0.074,1729.58,1740.49,81.1,28.146153846153847,30.2,0.862
172,2025-09-27 20:44:15.760000+00:00,74655760,0.0,0.0,-0.001,0.0,0.0,0.0,0.0,0.0849787032967033,0.3184894615384615,-2.572457582417582,-0.3081834945054945,-0.08030122637362638,0.941045978021978,0.266242010989011,0.48102541758241757,0.6059790989010988,,0.006,-0.074,1729.58,1740.49,81.1,28.1,30.2,0.862
173,2025-09-27 20:44:15.860000+00:00,74655860,0.0,0.0,-0.001,0.0,0.0,0.0,0.0,0.0850327,0.318789,-2.57257,-0.308066,-0.0812249,0.941236,0.306176,0.409534,1.06191,,0.006,-0.07322093023255813,1729.58,1740.49,81.1,28.1,30.2,0.862
174,2025-09-27 20:44:15.960000+00:00,74655960,0.0,0.0,-0.001,0.0,0.0,0.0,0.0,0.08512246992481202,0.32116114285714287,-2.573166842105263,-0.3163511428571429,-0.054030946616541356,0.9421708496240602,0.15641540451127822,-0.573436932330827,0.8283236616541354,,0.006,-0.07360902255639097,1729.58,1740.49,81.1,28.1,30.2,0.862
175,2025-09-27 20:44:16.060000+00:00,74656060,0.0,0.0,-0.001,0.0,0.0,0.0,0.0,0.0859601,0.32199500000000003,-2.5733449999999998,-0.31652250000000004,-0.04946225,0.941783,0.3575549,-0.8176075,0.8591435000000001,,0.006,-0.075,1729.58,1740.49,81.1,28.1,30.2,0.862
176,2025-09-27 20:44:16.160000+00:00,74656160,0.0,0.0,-0.001,0.0,0.0,0.0,0.0,0.0864112957894737,0.3184093263157895,-2.5735395789473685,-0.3074208105263158,-0.05139368631578947,0.9385798000000001,-0.36503462105263174,-0.7485343684210526,-0.05976176842105252,,0.005452631578947369,-0.07490526315789474,1729.58,1740.49,81.1,28.1,30.2,0.862
177,2025-09-27 20:44:16.260000+00:00,74656260,0.0,0.0,-0.001,0.0,0.0,0.0,0.0,0.0870992392857143,0.3158511428571429,-2.5735714285714284,-0.3063617857142857,-0.046719057142857144,0.9377645,-1.1154053571428573,0.13389703571428568,-0.46445907142857146,,0.005,-0.074,1729.58,1740.49,81.1,28.1,30.2,0.862
178,2025-09-27 20:44:16.360000+00:00,74656360,0.0,0.0,-0.001,0.0,0.0,0.0,0.0,0.08969557717391305,0.3157700326086957,-2.572874565217391,-0.30615133695652175,-0.07456788369565218,0.9393045,-1.287828804347826,0.1772725554347826,-0.14555158695652176,,0.005,-0.074,1729.58,1740.49,81.1,28.1,30.2,0.862
179,2025-09-27 20:44:16.460000+00:00,74656460,0.0,0.0,-0.001,0.0,0.0,0.0,0.0,0.09148948260869565,0.31679558695652177,-2.5720168478260867,-0.3046222065217391,-0.13269067826086955,0.9412387391304348,1.2322551086956524,1.9624652902173911,0.31015821739130434,,0.004119565217391304,-0.07047826086956523,1729.58,1740.49,81.1,28.1,30.2,0.862
180,2025-09-27 20:44:16.560000+00:00,74656560,0.0,0.0,-0.001,0.0,0.0,0.0,0.0,0.08663972289156627,0.32685954216867474,-2.5736179518072286,-0.3210854096385542,-0.09132334457831325,0.9482435060240963,3.245677831325301,9.076617590361446,2.3925222891566262,,0.006,-0.075,1729.58,1740.49,81.1,28.1,30.2,0.862
181,2025-09-27 20:44:16.660000+00:00,74656660,0.0,0.0,-0.001,0.0,0.0,0.0,0.0,0.08853570000000001,0.3224427058823529,-2.574905882352941,-0.31174494117647056,-0.013211294117647057,0.9403988235294117,-6.592391764705883,-7.917452352941176,-1.8191011764705882,,0.006,-0.07517647058823529,1729.58,1740.49,81.1,28.1,30.2,0.862
182,2025-09-27 20:44:16.760000+00:00,74656760,0.0,0.0,-0.001,0.0,0.0,0.0,0.0,0.0979842493670886,0.3164051898734177,-2.570930886075949,-0.28913121518987345,-0.19730042025316455,0.9368675189873418,1.3161394936708861,2.380409493670886,2.3745901265822784,,0.006,-0.07559493670886076,1729.58,1740.49,81.1,28.1,30.2,0.862
183,2025-09-27 20:44:16.860000+00:00,74656860,0.0,0.0,-0.001,0.0,0.0,0.0,0.0,0.09240358394160585,0.3183045401459854,-2.5736408759124085,-0.30930812408759123,-0.10886900729927007,0.9381551532846715,-0.2080529197080292,-1.3853527737226277,-0.6185946058394162,,0.00572992700729927,-0.07372992700729927,1729.58,1740.49,81.1,28.1,30.2,0.862
184,2025-09-27 20:44:16.960000+00:00,74656960,0.0,0.0,-0.001,0.0,0.0,0.0,0.0,0.093233,0.316806,-2.5734,-0.301849,-0.143932,0.937788,1.97975,2.71791,0.891447,0.0,0.005,-0.073,1729.58,1740.49,81.1,28.1,30.2,0.862
185,2025-09-27 20:44:17.060000+00:00,74657060,0.0,0.0,-0.001,0.0,0.0,0.0,0.0,0.08649890151515151,0.31878959848484845,-2.5758470454545455,-0.3121968106060606,-0.0015412637878787878,0.9393614772727272,-0.4343389015151514,0.47037003787878784,-0.5592198484848485,,0.005,-0.073,1729.58,1740.49,81.1,28.1,30.2,0.862
186,2025-09-27 20:44:17.160000+00:00,74657160,0.0,0.0,-0.001,0.0,0.0,0.0,0.0,0.0852817803030303,0.3198267196969697,-2.576233409090909,-0.31553696212121213,0.0009165392424242426,0.9403682954545455,1.2209482196969699,0.5956420075757576,1.31726803030303,,0.005,-0.073,1729.58,1740.49,81.1,28.1,30.2,0.862
187,2025-09-27 20:44:17.260000+00:00,74657260,0.0,0.0,-0.001,0.0,0.0,0.0,0.0,0.084930546875,0.32216256249999997,-2.5762831250000002,-0.31661965625,-0.0496685334375,0.94175984375,-0.6122456249999999,0.22539671875000006,-0.04367093749999995,,0.00578125,-0.07534375,1729.58,1740.49,81.1,28.1,30.278125,0.862
188,2025-09-27 20:44:17.360000+00:00,74657360,0.0,0.0,-0.001,0.0,0.0,0.0,0.0,0.08751048522727273,0.3207420681818182,-2.575551818181818,-0.31583256818181815,-0.09925779090909091,0.9399980681818182,-0.7351160568181818,-2.6517079431818185,-0.5091278863636364,,0.006,-0.07779545454545454,1729.58,1740.49,81.1,28.1,30.3,0.862
189,2025-09-27 20:44:17.460000+00:00,74657460,0.0,0.0,-0.0009285714285714286,0.0,0.0,0.0,0.0,0.08834086428571429,0.31235357142857145,-2.575793571428571,-0.30219428571428575,-0.08689381428571429,0.9343830714285715,-0.5082655714285714,-6.613994285714286,-0.7121868714285714,,0.007857142857142858,-0.08614285714285713,1729.58,1740.49,81.1,28.1,30.2,0.862
190,2025-09-27 20:44:17.560000+00:00,74657560,0.0,6.458823529411765,0.0,0.0,0.030705882352941177,0.0031764705882352936,-0.033882352941176475,0.08909868588235295,0.2953761882352941,-2.575115882352941,-0.30088178823529416,-0.1061483294117647,0.9264574705882352,-1.3298936705882354,-11.483249411764707,-0.1832719905882353,,0.0017647058823529408,-0.06028235294117647,1729.58,1740.49,81.1,28.1,30.2,0.862
