sample_idx,ts_utc,ms_today,speed_meters_per_sec,erpm,duty_cycle,current_in,current_motor,d_axis_current,q_axis_current,roll,pitch,yaw,accX,accY,accZ,gyroX,gyroY,gyroZ,fault_code,d_axis_voltage,q_axis_voltage,tacho_meters,tacho_abs_meters,input_voltage,temp_mos_max,temp_motor,battery_level
0,2025-09-27 20:46:15.492000+00:00,74775492,0.0,0.0,0.001,0.0,0.01,0.04,-0.01,0.0771008,0.294474,-2.05104,-0.289883,-0.0749009,0.947631,-0.0461662,-0.0887543,0.254651,0.0,-0.024,-0.006,2071.79,2083.1,81.2,28.9,31.8,0.87
1,2025-09-27 20:46:15.592000+00:00,74775592,0.0,0.0,0.001,0.0,0.0,0.0,0.0,0.05654396746987952,0.29564972289156627,-1.9813559036144577,-0.2866562530120482,-0.05773198313253012,0.9496315662650603,-0.12120755421686748,0.1259429156626506,0.053300086746987954,,0.062,0.041,2071.79,2083.1,81.2,28.9,31.8,0.87
2,2025-09-27 20:46:15.692000+00:00,74775692,0.0,0.0,0.001,0.0,0.0,0.0,0.0,0.055517500000000004,0.29686190322580647,-1.9819329032258064,-0.29004493548387095,-0.060769774193548384,0.9498583870967742,0.7964227419354839,0.5602597935483871,0.3440958387096774,,0.062,0.041,2071.79,2083.1,81.2,28.9,31.8,0.87
3,2025-09-27 20:46:15.792000+00:00,74775792,0.0,0.0,0.001,0.0,0.0,0.0,0.0,0.05458400568181818,0.29726519318181815,-1.982379659090909,-0.2910947613636363,-0.05408106818181818,0.9494784659090909,0.13800573863636365,0.09023082727272727,0.1767691818181818,,0.06228409090909091,0.041,2071.79,2083.1,81.2,28.9,31.8,0.87
4,2025-09-27 20:46:15.892000+00:00,74775892,0.0,0.0,0.001,0.0,0.0,0.0,0.0,0.054523045054945055,0.29740315384615384,-1.982643846153846,-0.28885247252747254,-0.05749972417582418,0.9490912747252748,0.07991955494505494,0.1610852967032967,0.08735894285714285,,0.06259340659340659,0.041,2071.79,2083.1,81.2,28.9,31.8,0.87
5,2025-09-27 20:46:15.992000+00:00,74775992,0.0,0.0,0.001,0.0,0.0,0.0,0.0,0.05451933424657534,0.2974407123287671,-1.9828793150684931,-0.28692672602739727,-0.05487156849315069,0.9488266301369863,0.019341547945205484,0.09817664520547945,0.1545776301369863,,0.062,0.041,2071.79,2083.1,81.2,28.9,31.8,0.87
6,2025-09-27 20:46:16.092000+00:00,74776092,0.0,0.0,0.001,0.0,0.0,0.0,0.0,0.0545768,0.297414,-1.98303,-0.292587,-0.0548665,0.948628,-0.128134,0.0498737,0.119879,0.0,0.062,0.041,2071.79,2083.1,81.2,28.9,31.8,0.87
7,2025-09-27 20:46:16.192000+00:00,74776192,0.0,0.0,0.001,0.0,0.0,0.0,0.0,0.05500378987341772,0.29695902531645574,-1.983356329113924,-0.2948004810126582,-0.05417825949367088,0.9481463797468355,0.01690600759493671,-0.42096864556962027,0.17601815189873418,,0.062,0.04091139240506329,2071.79,2083.1,81.2,28.9,31.8,0.87
8,2025-09-27 20:46:16.292000+00:00,74776292,0.0,0.0,0.001,0.0,0.0,0.0,0.0,0.05494402173913043,0.29610604347826086,-1.9838,-0.29363317391304344,-0.05481570869565217,0.9478189565217391,0.0113302,-0.230237,0.11051,,0.062,0.04030434782608696,2071.79,2083.1,81.2,28.9,31.8,0.87
9,2025-09-27 20:46:16.392000+00:00,74776392,0.0,0.0,0.001,0.0,0.0,0.0,0.0,0.05509579302325581,0.29575593023255814,-1.984052093023256,-0.28939662790697673,-0.052000862790697676,0.9480737674418604,0.013891181395348838,-0.1713366465116279,0.13909860465116278,,0.062,0.041,2071.79,2083.1,81.2,28.9,31.8,0.87
10,2025-09-27 20:46:16.492000+00:00,74776492,0.0,0.0,0.001,0.0,0.0,0.0,0.0,0.055279065168539324,0.29559426966292135,-1.984292359550562,-0.2895658988764045,-0.051050177528089886,0.9438073707865169,-0.10695195617977526,-0.24752183595505617,0.1123788202247191,,0.062,0.041,2071.79,2083.1,81.2,28.9,31.8,0.87
11,2025-09-27 20:46:16.592000+00:00,74776592,0.0,0.0,0.001,0.0,0.0,0.0,0.0,0.055562635164835165,0.2952879395604396,-1.9844269230769231,-0.28844763736263734,-0.052310837362637364,0.9430634340659341,-0.18061228571428573,-0.3473159175824176,0.058275917032967035,,0.062,0.04066483516483517,2071.79,2083.1,81.2,28.9,31.8,0.87
12,2025-09-27 20:46:16.692000+00:00,74776692,0.0,0.0,0.001,0.0,0.0,0.0,0.0,0.055883184615384614,0.2948698076923077,-1.9845038461538462,-0.28663884615384616,-0.05675204615384615,0.9475936538461538,-0.142298,-0.3088911923076923,0.05452102692307693,,0.062,0.040115384615384615,2071.79,2083.1,81.2,28.9,31.8,0.87
13,2025-09-27 20:46:16.792000+00:00,74776792,0.0,0.0,0.001,0.0,0.0,0.0,0.0,0.05613248014184397,0.29451866666666665,-1.9847553191489362,-0.28670778723404255,-0.056032647517730495,0.9488733262411347,-0.134252,-0.26160382269503546,0.05333111276595744,,0.062,0.04,2071.79,2083.1,81.2,28.9,31.8,0.87
14,2025-09-27 20:46:16.892000+00:00,74776892,0.0,0.0,0.001,0.0,0.0,0.0,0.0,0.05628365441176471,0.29432177941176474,-1.9850126470588234,-0.28652157352941177,-0.05561909705882353,0.9492553382352941,-0.09186520735294118,-0.2500191911764706,0.08876373382352942,,0.062,0.04,2071.79,2083.1,81.2,28.9,31.8,0.87
15,2025-09-27 20:46:16.992000+00:00,74776992,0.0,0.0,0.001,0.0,0.0,0.0,0.0,0.05630981975308642,0.2943306790123457,-1.9852093827160495,-0.2852187037037037,-0.057801440740740735,0.9495759012345679,0.010258862962962963,-0.30300565432098764,0.1781511802469136,,0.062,0.04,2071.79,2083.1,81.2,28.9,31.8,0.87
16,2025-09-27 20:46:17.092000+00:00,74777092,0.0,0.0,0.001,0.0,0.0,0.0,0.0,0.056571535820895524,0.2935098507462687,-1.985609776119403,-0.2883501194029851,-0.054101342537313434,0.949510567164179,-0.3084180298507463,-0.45185285074626863,0.048533523880597014,,0.062,0.04,2071.79,2083.1,81.2,28.9,31.8,0.87
17,2025-09-27 20:46:17.192000+00:00,74777192,0.0,0.0,0.001,0.0,0.0,0.0,0.0,0.056948849253731344,0.2926710447761194,-1.9857515671641792,-0.2871411641791045,-0.054324402238805976,0.9492180298507463,-0.47366579104477613,-0.5050140447761193,-0.0413082671641791,,0.062,0.04,2071.79,2083.1,81.2,28.9,31.8,0.87
18,2025-09-27 20:46:17.292000+00:00,74777292,0.0,0.0,0.001,0.0,0.0,0.0,0.0,0.058846916326530614,0.29135997959183674,-1.9856457142857142,-0.28487913265306125,-0.06254160918367348,0.9492385918367348,-0.5516225408163266,-0.5112361020408163,0.014344884693877541,,0.06288775510204081,0.04088775510204082,2071.79,2083.1,81.2,28.9,31.8,0.87
19,2025-09-27 20:46:17.392000+00:00,74777392,0.0,0.0,0.001,0.0,0.0,0.0,0.0,0.05923845494505495,0.29074832967032965,-1.985854945054945,-0.28538857142857144,-0.05513285384615385,0.9496978461538461,0.016750805494505472,-0.1658593186813187,0.31247085054945056,,0.06202197802197802,0.041,2071.79,2083.1,81.2,28.9,31.8,0.87
20,2025-09-27 20:46:17.492000+00:00,74777492,0.0,0.0,0.001,0.0,0.0,0.0,0.0,0.05929669759036144,0.28999214457831324,-1.9861790361445784,-0.2822719638554217,-0.05699886024096385,0.9499300963855422,0.16246891566265062,-0.356586,0.12648207228915662,,0.062,0.041,2071.79,2083.1,81.2,28.9,31.8,0.87
21,2025-09-27 20:46:17.592000+00:00,74777592,0.0,0.0,0.001,0.0,0.0,0.0,0.0,0.058955444680851066,0.29002340425531914,-1.9866012765957446,-0.28651202127659575,-0.057660655319148935,0.9506368510638298,0.2578288510638298,0.024662978723404255,0.2761586808510638,,0.062,0.041,2071.79,2083.1,81.2,28.9,31.8,0.87
22,2025-09-27 20:46:17.692000+00:00,74777692,0.0,0.0,0.001,0.0,0.0,0.0,0.0,0.05839450674157303,0.2899491235955056,-1.9870233707865168,-0.28388861797752807,-0.058112783146067416,0.9509671348314607,0.4137255730337079,-0.12794180898876406,0.2683937191011236,,0.062,0.041,2071.79,2083.1,81.2,28.9,31.8,0.87
23,2025-09-27 20:46:17.792000+00:00,74777792,0.0,0.0,0.001,0.0,0.0,0.0,0.0,0.05765280298507462,0.2899574776119403,-1.9874408955223881,-0.2838742313432836,-0.05453863582089553,0.9512094029850746,0.4022098246268657,0.16775501492537315,0.30603362686567165,,0.062,0.041,2071.79,2083.1,81.2,28.9,31.8,0.87
24,2025-09-27 20:46:17.892000+00:00,74777892,0.0,0.0,0.001,0.0,0.0,0.0,0.0,0.057318962068965515,0.29002786206896547,-1.987735632183908,-0.2843688045977012,-0.05523615862068966,0.9513460804597701,0.03315612988505747,-0.018738277011494255,0.25585977011494254,,0.062,0.041,2071.79,2083.1,81.2,28.9,31.8,0.87
25,2025-09-27 20:46:17.992000+00:00,74777992,0.0,0.0,0.001,0.0,0.0,0.0,0.0,0.05708688181818181,0.2903158787878788,-1.9882072727272728,-0.28155933333333333,-0.05115708484848485,0.9515819090909091,0.09644969393939394,0.0663285606060606,0.27675187878787877,,0.062,0.041,2071.79,2083.1,81.2,28.9,31.8,0.87
26,2025-09-27 20:46:18.092000+00:00,74778092,0.0,0.0,0.001,0.0,0.0,0.0,0.0,0.05683263229166667,0.2906290416666667,-1.9885529166666667,-0.2833929270833333,-0.05209294895833333,0.95170584375,0.085587096875,0.3119709375,0.150417203125,,0.062,0.041,2071.79,2083.1,81.2,28.9,31.8,0.87
27,2025-09-27 20:46:18.192000+00:00,74778192,0.0,0.0,0.001,0.0,0.0,0.0,0.0,0.056687879012345684,0.29105527160493827,-1.9888602469135803,-0.2858877407407407,-0.05448807407407407,0.951739049382716,0.16253077530864196,0.28543451851851853,0.16744377283950618,,0.062,0.041,2071.79,2083.1,81.2,28.9,31.8,0.87
28,2025-09-27 20:46:18.292000+00:00,74778292,0.0,0.0,0.001,0.0,0.0,0.0,0.0,0.05637768571428572,0.2914917252747253,-1.989214065934066,-0.28527803296703297,-0.05380465054945055,0.9516407142857143,0.19181286153846153,0.257128,0.22637030769230768,,0.062,0.041,2071.79,2083.1,81.2,28.9,31.8,0.87
29,2025-09-27 20:46:18.392000+00:00,74778392,0.0,0.0,0.001,0.0,0.0,0.0,0.0,0.05594641724137931,0.2919918275862069,-1.9896386206896552,-0.28455648275862067,-0.05397566551724138,0.9514353103448276,0.14088327586206895,0.14542686206896552,0.25765179310344827,,0.062,0.040344827586206895,2071.79,2083.1,81.2,28.9,31.8,0.87
30,2025-09-27 20:46:18.492000+00:00,74778492,0.0,0.0,0.001,0.0,0.0,0.0,0.0,0.055695030434782605,0.2922316739130435,-1.9899778260869565,-0.28337069565217393,-0.053895015217391304,0.9511057826086956,0.159838,0.06741657608695653,0.19831495652173914,,0.062,0.04,2071.79,2083.1,81.2,28.9,31.8,0.87
31,2025-09-27 20:46:18.592000+00:00,74778592,0.0,0.0,0.001,0.0,0.0,0.0,0.0,0.05538937333333333,0.2924903333333333,-1.9903693333333334,-0.28857119999999997,-0.05524726,0.9509122,0.212045,0.29231812,0.09692084666666667,,0.062,0.04,2071.79,2083.1,81.2,28.9,31.8,0.87
32,2025-09-27 20:46:18.692000+00:00,74778692,0.0,0.0,0.001,0.0,0.0,0.0,0.0,0.05526988764044944,0.2926466404494382,-1.9906968539325842,-0.28466723595505616,-0.055765106741573034,0.9506923033707866,0.01368072584269664,-0.08552745617977531,0.10882249325842697,,0.062,0.04,2071.79,2083.1,81.2,28.9,31.8,0.87
33,2025-09-27 20:46:18.792000+00:00,74778792,0.0,0.0,0.001,0.0,0.0,0.0,0.0,0.0554236081632653,0.2928299387755102,-1.9909322448979592,-0.28417248979591836,-0.054193902040816325,0.9505823673469388,-0.21114795918367346,0.2602157551020408,0.15225795918367346,,0.062,0.041,2071.79,2083.1,81.2,28.9,31.8,0.87
34,2025-09-27 20:46:18.892000+00:00,74778892,0.0,0.0,0.001,0.0,0.0,0.0,0.0,0.05598505813953488,0.29324904651162786,-1.9910395348837209,-0.2866479069767442,-0.06036737441860465,0.9506104186046512,-0.7097223395348837,0.26937120930232555,-0.06667158139534884,,0.062,0.041,2071.79,2083.1,81.2,28.9,31.8,0.87
35,2025-09-27 20:46:18.992000+00:00,74778992,0.0,0.0,0.001,0.0,0.0,0.0,0.0,0.05634224418604651,0.29350420930232557,-1.9912148837209303,-0.28858972093023255,-0.06104476976744186,0.950373488372093,-0.009381399999999996,0.10209172093023255,0.13180451162790696,,0.062,0.041,2071.79,2083.1,81.2,28.9,31.8,0.87
36,2025-09-27 20:46:19.092000+00:00,74779092,0.0,0.0,0.001,0.0,0.0,0.0,0.0,0.05625612727272727,0.2935123636363636,-1.9915179545454544,-0.29080947727272727,-0.057688420454545454,0.9500389772727272,0.1199618181818182,-0.03484806818181818,0.2363295,,0.06152272727272727,0.04052272727272727,2071.79,2083.1,81.2,28.9,31.8,0.87
37,2025-09-27 20:46:19.192000+00:00,74779192,0.0,0.0,0.001,0.0,0.0,0.0,0.0,0.056091646808510635,0.2936413617021277,-1.9918293617021277,-0.28869506382978727,-0.05663395319148937,0.9499527234042553,0.09777428510638297,0.08931014468085102,0.18936421276595744,,0.06157446808510638,0.04,2071.79,2083.1,81.2,28.9,31.8,0.87
38,2025-09-27 20:46:19.292000+00:00,74779292,0.0,0.0,0.001,0.0,0.0,0.0,0.0,0.05610106046511628,0.29384618604651164,-1.9921074418604652,-0.2866742325581395,-0.05797767906976744,0.9499342325581396,0.04316710697674419,0.007898237209302328,0.15430632558139534,,0.062,0.040697674418604654,2071.79,2083.1,81.2,28.9,31.8,0.87
39,2025-09-27 20:46:19.392000+00:00,74779392,0.0,0.0,0.001,0.0,0.0,0.0,0.0,0.056105077999999996,0.29387156,-1.9923576,-0.2876575,-0.05851523,0.94977724,0.0871803,-0.15678977,0.17337584,,0.062,0.041,2071.79,2083.1,81.2,28.9,31.8,0.87
40,2025-09-27 20:46:19.492000+00:00,74779492,0.0,0.0,0.001,0.0,0.0,0.0,0.0,0.0561024,0.293857,-1.99242,-0.288041,-0.0587543,0.949719,0.0871803,-0.229586,0.174121,,0.062,0.04009756097560976,2071.79,2083.1,81.2,28.9,31.8,0.87
41,2025-09-27 20:46:19.592000+00:00,74779592,0.0,0.0,0.001,0.0,0.0,0.0,0.0,0.05588042553191489,0.2937346595744681,-1.9928408510638298,-0.29006989361702123,-0.054468861702127655,0.9495066170212766,-0.12355284468085108,-0.16159310638297875,0.12313636170212766,,0.06102127659574468,0.04,2071.79,2083.1,81.2,28.9,31.8,0.87
42,2025-09-27 20:46:19.692000+00:00,74779692,0.0,0.0,0.001,0.0,0.0,0.0,0.0,0.055732951764705885,0.2935089529411765,-1.9931491764705882,-0.2863988941176471,-0.05288716470588235,0.9493593882352942,0.29921249411764705,-0.21917522352941177,0.2256837294117647,,0.062,0.040976470588235295,2071.79,2083.1,81.2,28.9,31.8,0.87
43,2025-09-27 20:46:19.792000+00:00,74779792,0.0,0.0,0.001,0.0,0.0,0.0,0.0,0.05539974,0.2934484,-1.993574,-0.28703680000000004,-0.05389452,0.9494592,0.14541292,0.13463029999999998,0.19339256,,0.062,0.04,2071.79,2083.1,81.2,28.9,31.8,0.87
44,2025-09-27 20:46:19.892000+00:00,74779892,0.0,0.0,0.001,0.0,0.0,0.0,0.0,0.05551454,0.29350262222222223,-1.993821111111111,-0.2853438222222222,-0.05567356,0.9496482666666667,-0.09861081333333335,-0.016201833333333346,0.047692417777777774,,0.062,0.04,2071.79,2083.1,81.2,28.9,31.8,0.87
45,2025-09-27 20:46:19.992000+00:00,74779992,0.0,0.0,0.001,0.0,0.0,0.0,0.0,0.05617513258426966,0.2935891685393258,-1.9939122471910111,-0.2872698876404494,-0.061119793258426966,0.9498770674157304,-0.24286952808988765,0.08690074606741573,0.12561879438202245,,0.062,0.04,2071.79,2083.1,81.2,28.9,31.8,0.87
46,2025-09-27 20:46:20.092000+00:00,74780092,0.0,0.0,0.001,0.0,0.0,0.0,0.0,0.056709752941176465,0.29377166176470587,-1.9939752205882353,-0.28771754411764705,-0.06630546764705882,0.9500939485294118,0.031625132352941177,0.07800765514705882,0.20323249999999998,,0.062,0.04,2071.79,2083.1,81.2,28.9,31.8,0.87
47,2025-09-27 20:46:20.192000+00:00,74780192,0.0,0.0,0.001,0.0,0.0,0.0,0.0,0.05662163972602739,0.29374902054794516,-1.9942063698630137,-0.2865914178082192,-0.06283746506849315,0.9500875684931507,0.18596381506849316,0.12085895205479452,0.21577487465753425,,0.062,0.04011643835616439,2071.79,2083.1,81.2,28.9,31.8,0.87
48,2025-09-27 20:46:20.292000+00:00,74780292,0.0,0.0,0.001,0.0,0.0,0.0,0.0,0.056212461643835615,0.29363737671232876,-1.9945967808219178,-0.2853879931506849,-0.0551272595890411,0.9500320890410958,0.32086860958904107,0.11975278767123287,0.1076859020547945,,0.062,0.0408013698630137,2071.79,2083.1,81.2,28.9,31.8,0.87
49,2025-09-27 20:46:20.392000+00:00,74780392,0.0,0.0,0.001,0.0,0.0,0.0,0.0,0.055379612820512826,0.2936068205128205,-1.9952106410256412,-0.28596291025641024,-0.053339146153846155,0.9500014358974359,0.12280084487179488,-0.13324971794871798,0.2916347653846154,,0.062,0.041,2071.79,2083.1,81.2,28.9,31.8,0.87
50,2025-09-27 20:46:20.492000+00:00,74780492,0.0,0.0,0.001,0.0,0.0,0.0,0.0,0.055167702222222226,0.2936249111111111,-1.995452888888889,-0.2868117777777778,-0.055409942222222223,0.9500447777777778,0.09520141555555556,-0.06221438222222221,0.26383897777777776,,0.062,0.041,2071.79,2083.1,81.2,28.9,31.8,0.87
51,2025-09-27 20:46:20.592000+00:00,74780592,0.0,0.0,0.001,0.0,0.0,0.0,0.0,0.05531774831460674,0.29366949438202244,-1.9957485393258427,-0.28706537078651684,-0.05465030337078652,0.950140595505618,-0.14587962808988766,0.11677241348314606,0.12390962471910114,,0.062,0.041,2071.79,2083.1,81.2,28.9,31.8,0.87
52,2025-09-27 20:46:20.692000+00:00,74780692,0.0,0.0,0.001,0.0,0.0,0.0,0.0,0.05549720642857143,0.29372941428571425,-1.9959782857142856,-0.28786719285714285,-0.055269009285714286,0.9501681857142857,-0.13624413092857146,0.01666365714285714,0.0506579,,0.062,0.04050714285714286,2071.79,2083.1,81.2,28.9,31.8,0.87
53,2025-09-27 20:46:20.792000+00:00,74780792,0.0,0.0,0.001,0.0,0.0,0.0,0.0,0.05556648161764706,0.29370596323529413,-1.9961767647058823,-0.2884207205882353,-0.05588954558823529,0.9501044632352941,0.00782150669117647,-0.16064971323529412,0.06980191838235295,,0.062,0.04021323529411765,2071.79,2083.1,81.2,28.9,31.8,0.87
54,2025-09-27 20:46:20.892000+00:00,74780892,0.0,0.0,0.001,0.0,0.0,0.0,0.0,0.055574349264705884,0.29348169852941175,-1.9964414705882352,-0.28731630882352943,-0.052657633823529414,0.9499301985294119,0.01681832286764706,-0.15960044852941177,0.17234405073529413,,0.062,0.04094852941176471,2071.79,2083.1,81.2,28.9,31.8,0.87
55,2025-09-27 20:46:20.992000+00:00,74780992,0.0,0.0,0.001,0.0,0.0,0.0,0.0,0.056334048453608246,0.293446824742268,-1.9966038144329896,-0.2880328556701031,-0.059486936082474226,0.9500196288659793,-0.1889870680412371,0.17551844329896907,0.1268303092783505,,0.061041237113402064,0.040041237113402066,2071.79,2083.1,81.2,28.9,31.8,0.87
56,2025-09-27 20:46:21.092000+00:00,74781092,0.0,0.0,0.001,0.0,0.0,0.0,0.0,0.05635377894736842,0.29352443157894736,-1.9969149473684211,-0.2883014947368421,-0.05329658947368421,0.9500746421052632,-0.052284,-0.032734056842105265,0.18434185263157896,,0.062,0.041,2071.79,2083.1,81.2,28.9,31.8,0.87
57,2025-09-27 20:46:21.192000+00:00,74781192,0.0,0.0,0.001,0.0,0.0,0.0,0.0,0.05635120923076923,0.29340200769230773,-1.9971906923076923,-0.2898818615384615,-0.05858826538461539,0.9499563538461538,-0.05336638,-0.08959417,0.17258633076923077,,0.062,0.04082307692307693,2071.79,2083.1,81.2,28.9,31.8,0.87
58,2025-09-27 20:46:21.292000+00:00,74781292,0.0,0.0,0.001,0.0,0.0,0.0,0.0,0.05646690153846154,0.29321508461538465,-1.9973676153846154,-0.2879464769230769,-0.055579419230769235,0.9498578923076924,-0.05807238,-0.09014317,0.11894863846153847,,0.062,0.040053846153846155,2071.79,2083.1,81.2,28.9,31.8,0.87
59,2025-09-27 20:46:21.392000+00:00,74781392,0.0,0.0,0.001,0.0,0.0,0.0,0.0,0.05652052365591398,0.2928844193548387,-1.9977366666666667,-0.2818880967741936,-0.051541540860215056,0.949895559139785,0.020315775268817206,-0.09406452258064517,0.1770885698924731,,0.062021505376344085,0.041,2071.79,2083.1,81.2,28.9,31.8,0.87
60,2025-09-27 20:46:21.492000+00:00,74781492,0.0,0.0,0.001,0.0,0.0,0.0,0.0,0.05627796,0.2926655,-1.998077,-0.2814001,-0.0576058,0.9499355,0.13746031,-0.26527599,0.1068292,,0.063,0.041,2071.79,2083.1,81.2,28.9,31.8,0.87
61,2025-09-27 20:46:21.592000+00:00,74781592,0.0,0.0,0.001,0.0,0.0,0.0,0.0,0.05591113563218391,0.2925605172413793,-1.9984929885057472,-0.2864321724137931,-0.056111925287356326,0.9500867471264368,0.05057796321839081,0.004886756321839082,0.2056264367816092,,0.0627816091954023,0.0407816091954023,2071.79,2083.1,81.2,28.9,31.8,0.87
62,2025-09-27 20:46:21.692000+00:00,74781692,0.0,0.0,0.001,0.0,0.0,0.0,0.0,0.05569341333333334,0.29243624444444444,-1.9988788888888889,-0.2881696222222222,-0.054667059999999996,0.9501393111111112,0.06344773333333333,-0.10912192444444443,0.2405576888888889,,0.062,0.040355555555555554,2071.79,2083.1,81.2,28.9,31.8,0.87
63,2025-09-27 20:46:21.792000+00:00,74781792,0.0,0.0,0.001,0.0,0.0,0.0,0.0,0.055817606666666665,0.2921642,-1.9991286666666666,-0.2854064,-0.05356213333333333,0.9500818,-0.19892733333333334,-0.08605998666666667,0.061893578666666664,,0.062,0.04053333333333334,2071.79,2083.1,81.2,28.9,31.8,0.87
64,2025-09-27 20:46:21.892000+00:00,74781892,0.0,0.0,0.001,0.0,0.0,0.0,0.0,0.056043523357664236,0.29189749635036494,-1.9993552554744527,-0.28584586861313865,-0.05256426569343066,0.950061,-0.19810882627737228,-0.2674894087591241,0.015394277372262776,,0.06237956204379562,0.04037956204379562,2071.79,2083.1,81.2,28.9,31.8,0.87
65,2025-09-27 20:46:21.992000+00:00,74781992,0.0,0.0,0.001,0.0,0.0,0.0,0.0,0.056149395454545455,0.29155872727272725,-1.9996060227272727,-0.2862211477272727,-0.051762932954545454,0.9500373068181819,-0.0645196,-0.3931522840909091,0.048559345454545454,,0.06282954545454546,0.04082954545454546,2071.79,2083.1,81.2,28.9,31.8,0.87
66,2025-09-27 20:46:22.092000+00:00,74782092,0.0,0.0,0.001,0.0,0.0,0.0,0.0,0.05620726931818182,0.2908744772727273,-1.9999067045454546,-0.28237886363636366,-0.05702447045454545,0.9499713977272728,-0.10167847272727272,-0.22462488636363637,0.11477747954545453,,0.062,0.04030681818181818,2071.79,2083.1,81.2,28.9,31.8,0.87
67,2025-09-27 20:46:22.192000+00:00,74782192,0.0,0.0,0.001,0.0,0.0,0.0,0.0,0.05635462247191011,0.2904904831460674,-2.000176404494382,-0.28401865168539325,-0.05594284719101123,0.9502021910112359,-0.035527325842696605,-0.21570131011235957,0.22422366292134832,,0.062,0.041,2071.79,2083.1,81.2,28.9,31.8,0.87
68,2025-09-27 20:46:22.292000+00:00,74782292,0.0,0.0,0.001,0.0,0.0,0.0,0.0,0.056467709890109886,0.2903528241758242,-2.000442857142857,-0.283711978021978,-0.05702829230769231,0.9505918131868132,0.12195930769230769,-0.019232916483516483,0.20752762637362637,,0.062,0.041,2071.79,2083.1,81.2,28.9,31.8,0.87
69,2025-09-27 20:46:22.392000+00:00,74782392,0.0,0.0,0.001,0.0,0.0,0.0,0.0,0.05635700220588235,0.2905388529411765,-2.000703161764706,-0.2832004705882353,-0.05453757352941176,0.9509799191176471,0.1262035713235294,0.07249747499999999,0.2683636617647059,,0.062,0.04056617647058824,2071.79,2083.1,81.2,28.9,31.8,0.87
70,2025-09-27 20:46:22.492000+00:00,74782492,0.0,0.0,0.001,0.0,0.0,0.0,0.0,0.05619574555555556,0.2908644,-2.0010126666666666,-0.28363228888888886,-0.05301250666666667,0.9512902444444444,0.13194368555555555,0.19160647777777778,0.2884690888888889,,0.062,0.04025555555555556,2071.79,2083.1,81.2,28.874444444444443,31.8,0.87
71,2025-09-27 20:46:22.592000+00:00,74782592,0.0,0.0,0.001,0.0,0.0,0.0,0.0,0.05616738804347826,0.29126742391304344,-2.001477608695652,-0.2852930869565217,-0.058129277173913044,0.9514196956521739,0.019177007608695652,0.1655488804347826,0.1959025652173913,,0.062,0.04064130434782609,2071.79,2083.1,81.2,28.83586956521739,31.8,0.87
72,2025-09-27 20:46:22.692000+00:00,74782692,0.0,0.0,0.001,0.0,0.0,0.0,0.0,0.056125243181818184,0.29159097727272726,-2.0018051136363635,-0.28571132954545453,-0.054796752272727275,0.9513418181818182,0.00847987534090909,0.15202411363636364,0.07410689431818182,,0.062,0.040465909090909094,2071.79,2083.1,81.2,28.9,31.8,0.869534090909091
73,2025-09-27 20:46:22.792000+00:00,74782792,0.0,0.0,0.001,0.0,0.0,0.0,0.0,0.056272397777777775,0.29198285555555553,-2.002060111111111,-0.2845541888888889,-0.05503392222222222,0.9512689333333334,-0.11437820099999997,0.23077804444444444,0.08793056555555556,,0.062,0.041,2071.79,2083.1,81.2,28.9,31.8,0.869
74,2025-09-27 20:46:22.892000+00:00,74782892,0.0,0.0,0.001,0.0,0.0,0.0,0.0,0.05652200224719101,0.2921989438202247,-2.0022644943820227,-0.28457470786516853,-0.058213058426966294,0.9509636741573034,-0.15283586516853934,-0.13700826966292134,0.07421538764044944,,0.062,0.04029213483146068,2071.79,2083.1,81.2,28.9,31.8,0.869
75,2025-09-27 20:46:22.992000+00:00,74782992,0.0,0.0,0.001,0.0,0.0,0.0,0.0,0.05649656483516484,0.2921534945054945,-2.002572087912088,-0.28826992307692306,-0.060839767032967035,0.9505419230769231,0.04083883076923078,0.04112630769230774,0.0920153021978022,,0.062,0.04,2071.79,2083.1,81.2,28.9,31.8,0.869
76,2025-09-27 20:46:23.092000+00:00,74783092,0.0,0.0,0.001,0.0,0.0,0.0,0.0,0.05660220661764706,0.2921856544117647,-2.0027520588235292,-0.2864675882352941,-0.057681007352941176,0.9503625882352941,-0.09663352058823527,0.07624553676470588,0.03107138602941177,,0.062,0.04,2071.79,2083.1,81.2,28.9,31.8,0.869
77,2025-09-27 20:46:23.192000+00:00,74783192,0.0,0.0,0.001,0.0,0.0,0.0,0.0,0.05718695,0.2922415,-2.002985,-0.28615199999999996,-0.05683915,0.9501545,-0.09632695000000001,0.2244765,0.08016525000000001,,0.062,0.0405,2071.79,2083.1,81.2,28.9,31.8,0.869
78,2025-09-27 20:46:23.292000+00:00,74783292,0.0,0.0,0.001,0.0,0.0,0.0,0.0,0.0576927,0.292265,-2.00314,-0.287495,-0.0583169,0.950015,0.0174481,0.400444,0.173791,,0.062,0.04039080459770115,2071.79,2083.1,81.2,28.839080459770116,31.8,0.869
79,2025-09-27 20:46:23.392000+00:00,74783392,0.0,0.0,0.001,0.0,0.0,0.0,0.0,0.05770164666666667,0.2922914,-2.003352666666667,-0.2838364,-0.05938272666666666,0.9499365333333333,0.11972162666666666,-0.16428500000000001,0.17059733333333332,,0.062,0.04073333333333334,2071.79,2083.1,81.2,28.87333333333333,31.8,0.869
80,2025-09-27 20:46:23.492000+00:00,74783492,0.0,0.0,0.001,0.0,0.0,0.0,0.0,0.05736665632183908,0.2922547011494253,-2.0037357471264365,-0.2869611724137931,-0.0598407091954023,0.9498608275862068,0.4112630344827586,0.059410448275862116,0.26550349425287356,,0.062,0.040126436781609195,2071.79,2083.1,81.2,28.9,31.8,0.869
81,2025-09-27 20:46:23.592000+00:00,74783592,0.0,0.0,0.001,0.0,0.0,0.0,0.0,0.05695317473684211,0.29218054736842103,-2.004117263157895,-0.28983568421052636,-0.05927905157894737,0.9497977894736842,0.1753013684210526,-0.14189440000000003,0.17436832631578947,,0.06106315789473684,0.04,2071.79,2083.1,81.2,28.806315789473686,31.8,0.869
82,2025-09-27 20:46:23.692000+00:00,74783692,0.0,0.0,0.001,0.0,0.0,0.0,0.0,0.05648789659090909,0.292139125,-2.0045302272727272,-0.2854761022727273,-0.0590462125,0.9498577386363636,0.3082098181818182,0.04110836136363637,0.3515953977272728,,0.062,0.04,2071.79,2083.1,81.2,28.9,31.8,0.869
83,2025-09-27 20:46:23.792000+00:00,74783792,0.0,0.0,0.001,0.0,0.0,0.0,0.0,0.05615024744525547,0.2919632554744525,-2.0049285401459853,-0.28259297080291973,-0.05571205474452554,0.9499308175182481,0.20459785620437956,-0.07917215839416059,0.24229731386861314,,0.062,0.04,2071.79,2083.1,81.2,28.88613138686131,31.8,0.869
84,2025-09-27 20:46:23.892000+00:00,74783892,0.0,0.0,0.001,0.0,0.0,0.0,0.0,0.05599944452554745,0.29194354744525547,-2.00518401459854,-0.2812980802919708,-0.05786497445255474,0.9500877518248175,0.0563655204379562,-0.027421939416058395,0.30606738686131385,,0.062,0.04,2071.79,2083.1,81.2,28.81313868613139,31.8,0.869
85,2025-09-27 20:46:23.992000+00:00,74783992,0.0,0.0,0.001,0.0,0.0,0.0,0.0,0.05577918539325843,0.2919197303370787,-2.005524831460674,-0.28380693258426964,-0.05415747528089888,0.9501924719101124,0.21678954943820225,-0.01893749550561798,0.23639271910112358,,0.062,0.04,2071.79,2083.1,81.2,28.892134831460673,31.8,0.869
86,2025-09-27 20:46:24.092000+00:00,74784092,0.0,0.0,0.001,0.0,0.0,0.0,0.0,0.05576066363636364,0.29195974242424244,-2.0059416666666663,-0.2842301515151515,-0.050941484090909095,0.9503811590909091,-0.12254427272727272,0.12005419621212121,0.18894277272727272,,0.062,0.04099242424242425,2071.79,2083.1,81.2,28.9,31.8,0.869
87,2025-09-27 20:46:24.192000+00:00,74784192,0.0,0.0,0.001,0.0,0.0,0.0,0.0,0.055927027272727275,0.29203398484848486,-2.006108333333333,-0.286045303030303,-0.05508989318181818,0.9504970681818181,-0.17537154545454545,0.06707381742424243,0.19412004545454548,,0.062,0.040234848484848484,2071.79,2083.1,81.2,28.9,31.8,0.869
88,2025-09-27 20:46:24.292000+00:00,74784292,0.0,0.0,0.001,0.0,0.0,0.0,0.0,0.05625087941176471,0.2921780882352941,-2.0062547058823528,-0.2868792647058824,-0.058349435294117645,0.9506520588235294,-0.1056817294117647,0.1916507911764706,0.09165595294117647,,0.062,0.04067647058823529,2071.79,2083.1,81.2,28.9,31.8,0.869
89,2025-09-27 20:46:24.392000+00:00,74784392,0.0,0.0,0.001,0.0,0.0,0.0,0.0,0.05668361772151899,0.29220037974683544,-2.0065120253164554,-0.28674184810126585,-0.053930501265822786,0.9506267341772152,-0.05414257215189873,0.08220489746835444,0.1619801974683544,,0.062,0.041,2071.79,2083.1,81.2,28.9,31.8,0.869
90,2025-09-27 20:46:24.492000+00:00,74784492,0.0,0.0,0.001,0.0,0.0,0.0,0.0,0.05683352444444445,0.29205319999999996,-2.006755333333333,-0.2872190666666667,-0.05471631111111111,0.9504555555555555,0.01589849777777777,0.05046349111111111,0.17750893333333334,,0.06297777777777777,0.041,2071.79,2083.1,81.2,28.9,31.8,0.869
91,2025-09-27 20:46:24.592000+00:00,74784592,0.0,0.0,0.001,0.0,0.0,0.0,0.0,0.05685222549019608,0.2922969215686274,-2.0069809803921568,-0.287017705882353,-0.05020745490196078,0.9505653725490196,0.0174481,0.11771306274509805,0.17668411764705882,,0.06203921568627451,0.04003921568627451,2071.79,2083.1,81.2,28.9,31.8,0.869
92,2025-09-27 20:46:24.692000+00:00,74784692,0.0,0.0,0.001,0.0,0.0,0.0,0.0,0.056767218,0.29137674,-2.0073924,-0.2897607,-0.038622658000000004,0.94982448,-0.08350535599999999,-0.6837276800000001,0.12347190000000001,,0.06182,0.04,2071.79,2083.1,81.2,28.8,31.8,0.869
93,2025-09-27 20:46:24.792000+00:00,74784792,0.0,0.0,0.001,0.0,0.0,0.0,0.0,0.05683531294117647,0.29088856470588237,-2.0076162352941176,-0.2835251882352941,-0.05824888,0.9498182,-0.1066741882352941,0.19426939999999998,0.14628070588235295,,0.061,0.04021176470588236,2071.79,2083.1,81.2,28.821176470588235,31.8,0.869
94,2025-09-27 20:46:24.892000+00:00,74784892,0.0,0.0,0.001,0.0,0.0,0.0,0.0,0.05671775842696629,0.2919137078651685,-2.0079370786516852,-0.28865664044943823,-0.05140382808988764,0.9508328764044944,0.051771831460674156,0.6268505842696629,0.23873417977528089,,0.06137078651685393,0.041,2071.79,2083.1,81.2,28.9,31.8,0.869
95,2025-09-27 20:46:24.992000+00:00,74784992,0.0,0.0,0.001,0.0,0.0,0.0,0.0,0.05709905824175824,0.2928836923076923,-2.0080531868131866,-0.28762794505494504,-0.05654993076923077,0.9513245054945055,-0.18792937362637363,0.7897884175824176,0.25809725274725276,,0.062,0.04148351648351649,2071.79,2083.1,81.2,28.85164835164835,31.8,0.869
96,2025-09-27 20:46:25.092000+00:00,74785092,0.0,0.0,0.001,0.0,0.0,0.0,0.0,0.057092698876404495,0.29388439325842697,-2.0083660674157304,-0.2876147078651686,-0.06019089550561798,0.9512728876404494,-0.12682791011235955,-0.11198776404494382,0.1364229415730337,,0.062,0.041404494382022476,2071.79,2083.1,81.2,28.8,31.8,0.869
97,2025-09-27 20:46:25.192000+00:00,74785192,0.0,0.0,0.001,0.0,0.0,0.0,0.0,0.0560956989010989,0.29513390109890114,-2.008976043956044,-0.2909173076923077,-0.054147554945054945,0.9511524505494505,0.5738545494505495,0.3848815714285714,0.2316994087912088,,0.062,0.041,2071.79,2083.1,81.2,28.8,31.8,0.869
98,2025-09-27 20:46:25.292000+00:00,74785292,0.0,0.0,0.001,0.0,0.0,0.0,0.0,0.0557563,0.295395,-2.00916,-0.291206,-0.0521203,0.951067,0.872587,0.821811,0.305268,,0.062,0.040231578947368424,2071.79,2083.1,81.2,28.8,31.8,0.869
99,2025-09-27 20:46:25.392000+00:00,74785392,0.0,0.0,0.001,0.0,0.0,0.0,0.0,0.0550867,0.29594785714285715,-2.009562857142857,-0.28783485714285717,-0.05145584285714286,0.9506538571428571,0.2591512857142857,0.3405381428571428,0.18331371428571427,,0.062,0.040857142857142856,2071.79,2083.1,81.2,28.8,31.8,0.869
100,2025-09-27 20:46:25.492000+00:00,74785492,0.0,0.0,0.001,0.0,0.0,0.0,0.0,0.054953608988764044,0.2964950337078652,-2.010016966292135,-0.28904140449438204,-0.058842921348314606,0.9497484157303371,-0.1541396404494382,-0.1467891573033708,0.19444586516853932,,0.062,0.041,2071.79,2083.1,81.2,28.891011235955055,31.8,0.869
101,2025-09-27 20:46:25.592000+00:00,74785592,0.0,0.0,0.001,0.0,0.0,0.0,0.0,0.0548303085106383,0.29616601063829784,-2.010352659574468,-0.2895855531914894,-0.04994035319148936,0.9489541489361701,0.140839585106383,-0.10467948936170213,0.1539298829787234,,0.062,0.041,2071.79,2083.1,81.2,28.820212765957447,31.8,0.869
102,2025-09-27 20:46:25.692000+00:00,74785692,0.0,0.0,0.001,0.0,0.0,0.0,0.0,0.054718444444444445,0.2958516666666667,-2.0106444444444445,-0.28625022222222224,-0.05093949444444444,0.9485038888888888,-0.17679655555555554,-0.3231966111111111,0.14748683333333332,,0.062,0.04072222222222222,2071.79,2083.1,81.2,28.87222222222222,31.8,0.869
103,2025-09-27 20:46:25.792000+00:00,74785792,0.0,0.0,0.001,0.0,0.0,0.0,0.0,0.05508136395348837,0.29550237209302327,-2.0108291860465117,-0.2908877790697674,-0.05354991744186047,0.9483348023255814,-0.1294856511627907,-0.16271487209302324,0.10664811627906977,,0.062,0.04040697674418605,2071.79,2083.1,81.2,28.840697674418603,31.8,0.869
104,2025-09-27 20:46:25.892000+00:00,74785892,0.0,0.0,0.001,0.0,0.0,0.0,0.0,0.05536756421052631,0.2951974210526316,-2.011043473684211,-0.291628,-0.06000079157894737,0.9483133789473683,-0.06212463368421052,-0.1903433589473684,0.04849240421052631,,0.062,0.041,2071.79,2083.1,81.2,28.9,31.8,0.869
105,2025-09-27 20:46:25.992000+00:00,74785992,0.0,0.0,0.001,0.0,0.0,0.0,0.0,0.05550523676470588,0.29509075,-2.011225441176471,-0.2905436617647059,-0.05808591176470588,0.9484492794117647,-0.044045291176470595,0.03538714852941178,0.11264942647058823,,0.062,0.041,2071.79,2083.1,81.2,28.9,31.8,0.869
106,2025-09-27 20:46:26.092000+00:00,74786092,0.0,0.0,0.001,0.0,0.0,0.0,0.0,0.05570178705882353,0.2952815529411765,-2.011401411764706,-0.2891236588235294,-0.05604508705882353,0.9487724705882353,-0.15637197647058823,0.07557939058823529,0.13697495294117648,,0.062,0.041,2071.79,2083.1,81.2,28.9,31.8,0.869
107,2025-09-27 20:46:26.192000+00:00,74786192,0.0,0.0,0.001,0.0,0.0,0.0,0.0,0.0561257,0.295801,-2.01163,-0.286327,-0.0553099,0.949273,-0.26148,-0.0892801,0.203275,,0.06234375,0.041,2071.79,2083.1,81.2,28.9,31.8,0.869
108,2025-09-27 20:46:26.292000+00:00,74786292,0.0,0.0,0.001,0.0,0.0,0.0,0.0,0.05626202444444445,0.2956398444444444,-2.011712222222222,-0.28582215555555557,-0.05309125666666667,0.9491759777777778,-0.26399517777777776,-0.20467853666666666,0.1757868777777778,,0.063,0.041,2071.79,2083.1,81.2,28.858888888888888,31.8,0.869
109,2025-09-27 20:46:26.392000+00:00,74786392,0.0,0.0,0.001,0.0,0.0,0.0,0.0,0.05689991034482759,0.2949476436781609,-2.0118678160919536,-0.2873517586206896,-0.05338698620689655,0.948829551724138,-0.39052731034482757,-0.5222908735632183,0.034866663218390825,,0.062459770114942526,0.041,2071.79,2083.1,81.2,28.854022988505747,31.8,0.869
110,2025-09-27 20:46:26.492000+00:00,74786492,0.0,0.0,0.001,0.0,0.0,0.0,0.0,0.05772275217391304,0.29403847826086954,-2.0119326086956524,-0.2858926956521739,-0.054768269565217395,0.9485916956521739,-0.495148,-0.5149686521739131,-0.05295661739130435,,0.062,0.041,2071.79,2083.1,81.2,28.83478260869565,31.8,0.869
111,2025-09-27 20:46:26.592000+00:00,74786592,0.0,0.0,0.001,0.0,0.0,0.0,0.0,0.05873972988505747,0.29299858620689656,-2.011965632183908,-0.2847383908045977,-0.05907533103448276,0.9484870919540229,-0.32685659770114944,-0.44151787356321837,-0.013548206896551729,,0.062,0.041,2071.79,2083.1,81.2,28.8,31.8,0.869
112,2025-09-27 20:46:26.692000+00:00,74786692,0.0,0.0,0.001,0.0,0.0,0.0,0.0,0.058698288043478264,0.29330621739130436,-2.012286956521739,-0.28407906521739135,-0.057280191304347826,0.949423152173913,0.4332107608695652,0.6716787499999999,0.35681189510869565,,0.062,0.041,2071.79,2083.1,81.2,28.8,31.8,0.869
113,2025-09-27 20:46:26.792000+00:00,74786792,0.0,0.0,0.001,0.0,0.0,0.0,0.0,0.05819408854166667,0.29387484375,-2.0127286458333336,-0.28457316666666665,-0.05866875208333333,0.9500666041666667,-0.004150872916666715,-0.022284028124999966,0.26565653125,,0.062,0.040072916666666666,2071.79,2083.1,81.2,28.8,31.8,0.869
114,2025-09-27 20:46:26.892000+00:00,74786892,0.0,0.0,0.001,0.0,0.0,0.0,0.0,0.05747251264367816,0.2935347126436782,-2.0133655172413794,-0.28876848275862066,-0.058776501149425286,0.9498755287356322,0.6681025632183908,-0.3432523563218391,0.3892504482758621,,0.062,0.041,2071.79,2083.1,81.2,28.8,31.8,0.869
115,2025-09-27 20:46:26.992000+00:00,74786992,0.0,0.0,0.001,0.0,0.0,0.0,0.0,0.056203909999999996,0.29303463333333335,-2.013995222222222,-0.288469,-0.05721765111111111,0.9496849555555555,0.513146081111111,-0.1766053,0.2587914888888889,,0.062,0.040744444444444444,2071.79,2083.1,81.2,28.8,31.8,0.869
116,2025-09-27 20:46:27.092000+00:00,74787092,0.0,0.0,0.001,0.0,0.0,0.0,0.0,0.05558526875,0.29274375,-2.014415,-0.28939954166666665,-0.05552853541666667,0.9497627291666666,0.11068036875,-0.18060035624999998,0.25793404166666667,,0.062,0.04022916666666667,2071.79,2083.1,81.2,28.8,31.8,0.869
117,2025-09-27 20:46:27.192000+00:00,74787192,0.0,0.0,0.001,0.0,0.0,0.0,0.0,0.05564547708333334,0.29251875,-2.014581666666667,-0.28633148611111114,-0.05891652152777778,0.9498134236111111,0.16335391041666664,-0.03432264791666667,0.3006159861111111,,0.062,0.04092361111111111,2071.79,2083.1,81.2,28.8,31.8,0.869
118,2025-09-27 20:46:27.292000+00:00,74787292,0.0,0.0,0.001,0.0,0.0,0.0,0.0,0.05577452421052631,0.29199244210526315,-2.0149217894736844,-0.2861169578947368,-0.05833299894736842,0.9498450842105263,-0.2034688,-0.4524807578947368,0.06727532210526316,,0.062,0.04,2071.79,2083.1,81.2,28.8,31.8,0.869
119,2025-09-27 20:46:27.392000+00:00,74787392,0.0,0.0,0.001,0.0,0.0,0.0,0.0,0.055992228235294116,0.2912673294117647,-2.0151004705882354,-0.2867332588235294,-0.05441514470588236,0.949705188235294,-0.09907471764705882,-0.4834417952941176,0.15503035294117648,,0.062,0.04015294117647059,2071.79,2083.1,81.2,28.8,31.8,0.869
120,2025-09-27 20:46:27.492000+00:00,74787492,0.0,0.0,0.001,0.0,0.0,0.0,0.0,0.05554485333333333,0.2909163777777778,-2.0155324444444442,-0.2815878,-0.05271212222222222,0.9499910444444444,0.2216158,0.05059844888888889,0.19068983155555552,,0.062,0.041,2071.79,2083.1,81.2,28.83111111111111,31.8,0.869
121,2025-09-27 20:46:27.592000+00:00,74787592,0.0,0.0,0.001,0.0,0.0,0.0,0.0,0.055067542222222224,0.2910343777777778,-2.015984,-0.2828625777777778,-0.04074012444444445,0.9505108666666666,-0.06598773333333338,0.16750670222222222,0.061689084,,0.062,0.041,2071.79,2083.1,81.2,28.857777777777777,31.8,0.869
122,2025-09-27 20:46:27.692000+00:00,74787692,0.0,0.0,0.001,0.0,0.0,0.0,0.0,0.05500322666666667,0.291421,-2.016284,-0.28171826666666666,-0.04391410666666667,0.9509834,0.15552618666666668,0.18138170666666664,0.20139666666666667,,0.062,0.041,2071.79,2083.1,81.2,28.8,31.8,0.869
123,2025-09-27 20:46:27.792000+00:00,74787792,0.0,0.0,0.001,0.0,0.0,0.0,0.0,0.054860855319148936,0.2915815106382979,-2.016576595744681,-0.2817049574468085,-0.04586855744680851,0.9510598085106383,0.14009910212765958,-0.07805292340425532,0.28155931914893617,,0.062,0.04038297872340425,2071.79,2083.1,81.2,28.861702127659573,31.8,0.869
124,2025-09-27 20:46:27.892000+00:00,74787892,0.0,0.0,0.001,0.0,0.0,0.0,0.0,0.05445912173913044,0.2916408260869565,-2.0169165217391303,-0.28392534782608697,-0.04848272173913043,0.9509994347826087,0.31042034782608696,-0.20754534782608697,0.24596834782608695,,0.06269565217391304,0.04,2071.79,2083.1,81.2,28.830434782608695,31.8,0.869
125,2025-09-27 20:46:27.992000+00:00,74787992,0.0,0.0,0.001,0.0,0.0,0.0,0.0,0.05387507272727273,0.29169918181818183,-2.01729,-0.2832399090909091,-0.0604202,0.950933,0.5533986363636364,0.05824045454545454,0.3155341818181818,,0.06218181818181818,0.04081818181818182,2071.79,2083.1,81.2,28.8,31.8,0.869
126,2025-09-27 20:46:28.092000+00:00,74788092,0.0,0.0,0.001,0.0,0.0,0.0,0.0,0.05267158723404255,0.2923374255319149,-2.0179487234042552,-0.2877299787234043,-0.051781046808510645,0.9512735106382979,0.7237535531914894,0.6855736808510638,0.38251668085106383,,0.062,0.0418936170212766,2071.79,2083.1,81.2,28.8,31.8,0.869
127,2025-09-27 20:46:28.192000+00:00,74788192,0.0,0.0,0.001,0.0,0.0,0.0,0.0,0.051680829323308274,0.29300775939849627,-2.0185435338345865,-0.28822390977443607,-0.0516082969924812,0.9512555338345865,0.22793398496240602,-0.07254660150375938,0.2954255639097744,,0.062,0.041,2071.79,2083.1,81.2,28.80375939849624,31.8,0.869
128,2025-09-27 20:46:28.292000+00:00,74788292,0.0,0.0,0.001,0.0,0.0,0.0,0.0,0.05139541578947369,0.29318294736842104,-2.018814210526316,-0.2859021052631579,-0.04462423684210526,0.9511262105263157,0.009013684210526313,0.24234136842105264,0.20573684210526316,,0.062,0.041,2071.79,2083.1,81.2,28.878947368421052,31.8,0.869
129,2025-09-27 20:46:28.392000+00:00,74788392,0.0,0.0,0.001,0.0,0.0,0.0,0.0,0.05174240337078652,0.2932053033707865,-2.0189547191011235,-0.285900808988764,-0.05212626404494382,0.9505892359550562,-0.4768671910112359,0.10089552808988766,-0.12087155056179777,,0.062,0.04019101123595506,2071.79,2083.1,81.2,28.819101123595505,31.8,0.869
130,2025-09-27 20:46:28.492000+00:00,74788492,0.0,0.0,0.001,0.0,0.0,0.0,0.0,0.05207901222222222,0.2930422222222222,-2.019099111111111,-0.2842602777777778,-0.05121074111111111,0.9501131777777778,-0.16305482222222223,0.04962537888888889,0.09561723333333333,,0.062,0.04092222222222222,2071.79,2083.1,81.2,28.8,31.8,0.869
131,2025-09-27 20:46:28.592000+00:00,74788592,0.0,0.0,0.001,0.0,0.0,0.0,0.0,0.05220245789473684,0.29346581052631576,-2.0193591578947365,-0.2876106736842105,-0.047004031578947364,0.9502301157894737,-0.41585852631578946,0.6742525368421052,0.07141918210526316,,0.062,0.041,2071.79,2083.1,81.2,28.8,31.8,0.869
132,2025-09-27 20:46:28.692000+00:00,74788692,0.0,0.0,0.001,0.0,0.0,0.0,0.0,0.05293905172413793,0.2955581724137931,-2.019354482758621,-0.2882437586206896,-0.04386507965517241,0.951377275862069,-0.45452103448275866,1.8315300689655172,0.1375496551724138,,0.062,0.04089655172413793,2071.79,2083.1,81.2,28.8,31.8,0.869
133,2025-09-27 20:46:28.792000+00:00,74788792,0.0,0.0,0.001,0.0,0.0,0.0,0.0,0.05356425483870968,0.29600063440860214,-2.0195036559139785,-0.29024848387096774,-0.0005241792473118286,0.9504634301075269,-0.1688706451612903,-1.391759741935484,0.32484578494623656,,0.062236559139784944,0.04,2071.79,2083.1,81.2,28.8,31.8,0.869
134,2025-09-27 20:46:28.892000+00:00,74788892,0.0,0.0,0.001,0.0,0.0,0.0,0.0,0.054242727777777784,0.293392,-2.0196573333333334,-0.2846401111111111,-0.03704283888888889,0.9481048,0.37913787777777774,-1.6890603333333334,0.6779934777777777,,0.06267777777777778,0.04064444444444445,2071.79,2083.1,81.2,28.8,31.8,0.869
135,2025-09-27 20:46:28.992000+00:00,74788992,0.0,0.0,0.001,0.0,0.0,0.0,0.0,0.05394771603053435,0.29352192366412216,-2.019927175572519,-0.29017170992366415,-0.056669752671755724,0.9487858015267175,0.6394860145038168,0.6571950305343511,0.5114001297709924,,0.062,0.04170229007633588,2071.79,2083.1,81.2,28.829770992366413,31.8,0.869
136,2025-09-27 20:46:29.092000+00:00,74789092,0.0,0.0,0.001,0.0,0.0,0.0,0.0,0.053488416842105264,0.29448787368421053,-2.0202195789473683,-0.2903555578947369,-0.05942554105263158,0.9488946105263159,-0.09456268736842105,0.2151609789473684,0.18224043157894737,,0.06208421052631579,0.04091578947368421,2071.79,2083.1,81.2,28.89157894736842,31.8,0.869
137,2025-09-27 20:46:29.192000+00:00,74789192,0.0,0.0,0.001,0.0,0.0,0.0,0.0,0.053355675,0.2952804565217391,-2.020628804347826,-0.29284817391304346,-0.0381100554347826,0.9419540000000001,-1.2267196195652175,-0.1819051847826087,0.21580994021739128,,0.06285869565217392,0.04,2071.79,2083.1,81.2,28.8,31.8,0.869
138,2025-09-27 20:46:29.292000+00:00,74789292,0.0,0.0,0.001,0.0,0.0,0.0,0.0,0.054543316470588236,0.29528257647058825,-2.0205271764705883,-0.2893227529411765,-0.06901730705882353,0.9498358823529411,-0.42416349411764703,0.9345858823529413,-0.021936299999999995,,0.062,0.040494117647058826,2071.79,2083.1,81.2,28.8,31.8,0.869
139,2025-09-27 20:46:29.392000+00:00,74789392,0.0,0.0,0.001,0.0,0.0,0.0,0.0,0.05434545862068966,0.2984311379310345,-2.020651379310345,-0.2957397931034483,-0.05970304482758621,0.951546275862069,0.13105003448275865,1.2359742068965518,-0.03131405172413793,,0.061586206896551726,0.04117241379310345,2071.79,2083.1,81.2,28.8,31.8,0.869
140,2025-09-27 20:46:29.492000+00:00,74789492,0.0,0.0,0.001,0.0,0.0,0.0,0.0,0.055342051041666666,0.29801109375,-2.0206997916666665,-0.2937986145833333,-0.04709885208333334,0.9497883020833333,-0.7547729166666667,-1.29549534375,-0.0924618625,,0.061510416666666665,0.039489583333333335,2071.79,2083.1,81.2,28.8,31.8,0.869
141,2025-09-27 20:46:29.592000+00:00,74789592,0.0,0.0,0.001,0.0,0.0,0.0,0.0,0.056196516853932586,0.29661319101123595,-2.0207078651685393,-0.291959797752809,-0.0714544808988764,0.9484449887640449,-0.27044625842696624,-0.11868202247191006,0.02039080112359551,,0.06140449438202247,0.040786516853932586,2071.79,2083.1,81.2,28.8,31.8,0.869
142,2025-09-27 20:46:29.692000+00:00,74789692,0.0,0.0,0.001,0.0,0.0,0.0,0.0,0.05619642666666667,0.29639364444444444,-2.0210257777777776,-0.2903364888888889,-0.08032181333333334,0.9483872000000001,-0.39687015555555555,-0.2454036444444445,-0.0034353488888888978,,0.06171111111111111,0.04057777777777778,2071.79,2083.1,81.2,28.8,31.8,0.869
143,2025-09-27 20:46:29.792000+00:00,74789792,0.0,0.0,0.001,0.0,0.0,0.0,0.0,0.0571830202247191,0.2937241460674157,-2.0212165168539324,-0.29103426966292134,-0.07499507191011237,0.9468072247191012,-0.30866117977528085,-2.306450449438202,-0.16784096629213485,,0.062,0.03833707865168539,2071.79,2083.1,81.2,28.8,31.8,0.869
144,2025-09-27 20:46:29.892000+00:00,74789892,0.0,0.0,0.001,0.0,0.0,0.0,0.0,0.05594372197802198,0.29040726373626374,-2.0219025274725273,-0.2827252747252747,-0.07387455054945054,0.9462311758241758,-0.481003076923077,0.6490762087912083,-0.8630484945054945,,0.062,0.04080219780219781,2071.79,2083.1,81.2,28.8,31.8,0.869
145,2025-09-27 20:46:29.992000+00:00,74789992,0.0,0.0,0.001,0.0,0.0,0.0,0.0,0.05475056629213484,0.29067052808988764,-2.0225175280898875,-0.28441955056179774,-0.043938726966292134,0.9484488314606742,0.6508112921348315,0.018327033707865162,0.1884561011235955,,0.062,0.040887640449438205,2071.79,2083.1,81.2,28.8,31.8,0.869
146,2025-09-27 20:46:30.092000+00:00,74790092,0.0,0.0,0.001,0.0,0.0,0.0,0.0,0.05365353758865248,0.28882993617021274,-2.0230526241134754,-0.28210011347517727,-0.05353731843971631,0.9485283546099291,0.70389804964539,-1.493140780141844,0.17281439007092197,,0.062,0.039,2071.79,2083.1,81.2,28.8,31.8,0.869
147,2025-09-27 20:46:30.192000+00:00,74790192,0.0,0.0,0.001,0.0,0.0,0.0,0.0,0.0526281475177305,0.28861078723404254,-2.0235065248226953,-0.2834008226950354,-0.053056183687943265,0.9495680709219858,1.0717796099290782,-0.20020815602836883,0.3764980780141844,,0.062,0.039,2071.79,2083.1,81.2,28.8,31.8,0.869
148,2025-09-27 20:46:30.292000+00:00,74790292,0.0,0.0,0.001,0.0,0.0,0.0,0.0,0.05129438928571428,0.2825711785714286,-2.024387857142857,-0.2803304642857143,-0.04579625714285714,0.9474726428571428,-0.21473660714285714,-5.258800892857143,-0.2122176071428572,,0.06110714285714285,0.028285714285714286,2071.79,2083.1,81.2,28.8,31.8,0.869
149,2025-09-27 20:46:30.392000+00:00,74790392,0.0,0.0,0.0019891304347826088,0.0,0.0,0.0,0.0,0.05141386630434783,0.2648409456521739,-2.0247470652173916,-0.2674451195652174,-0.12408526630434782,0.9389238369565218,2.0436349456521743,-16.075136086956523,0.5060761847826087,,0.05902173913043478,0.017108695652173912,2071.79,2083.1,81.2,28.8,31.8,0.869
150,2025-09-27 20:46:30.492000+00:00,74790492,0.0,0.0,0.00362962962962963,0.0,0.0,0.0,0.0,0.03644375925925926,0.2348628148148148,-2.0325703703703706,-0.3455279074074074,-0.0473499,0.9303432962962963,15.050855555555556,-30.013974074074074,6.34169,,0.05648148148148148,0.1761111111111111,2071.79,2083.1,81.2,28.8,31.8,0.869
151,2025-09-27 20:46:30.592000+00:00,74790592,0.0,0.0,-0.0037777777777777775,0.0,0.0,0.0,0.0,0.019710944444444444,0.1859591111111111,-2.041377777777778,-0.13744605555555559,0.004416100000000006,0.9213092222222222,11.513966666666667,-48.75545555555556,4.18909,,0.06611111111111112,0.03833333333333333,2071.79,2083.1,81.2,28.8,31.8,0.869
152,2025-09-27 20:46:30.692000+00:00,74790692,0.0,-42.345679012345684,0.029432098765432103,0.19012345679012346,8.495061728395061,-0.034567901234567905,8.892592592592592,-0.01766134444444445,0.040065913580246915,-2.047908888888889,0.026899796296296297,0.05700934444444444,0.913559,12.678295061728395,-55.61145555555556,1.235148148148148,,0.034432098765432094,0.3184814814814815,2071.79,2083.1,81.11358024691357,28.8,31.8,0.869
153,2025-09-27 20:46:30.792000+00:00,74790792,-0.024520408163265305,88.13265306122449,0.07132653061224489,1.827448979591837,33.89632653061225,0.041734693877551014,34.05663265306123,-0.029546716326530612,-0.03108835510204082,-2.0419085714285714,-0.19778177551020407,-0.04959501428571429,0.9236595102040817,0.39453536734693984,-33.21210510204081,-2.972968744897959,,-0.049102040816326534,2.339714285714286,2071.780918367347,2083.109081632653,80.73673469387755,28.8,31.8,0.869
154,2025-09-27 20:46:30.892000+00:00,74790892,0.1406236559139785,426.2903225806452,0.1005483870967742,2.953440860215054,40.48129032258065,0.1288172043010753,40.44387096774193,-0.02228398817204301,-0.061292901075268816,-2.0540854838709675,-0.27115767741935487,0.00140855376344086,0.9463451182795698,-0.8005459677419355,-13.613774193548387,15.255,,-0.39467741935483874,3.666956989247312,2071.807741935484,2083.137741935484,80.59139784946235,28.8,31.8,0.8687419354838709
155,2025-09-27 20:46:30.992000+00:00,74790992,0.551,640.0,0.117,3.046043956043956,36.574395604395605,-0.0031868131868131866,36.56274725274725,-0.01954805274725275,-0.07639440219780219,-2.0756335164835167,-0.20410810989010988,-0.05604126703296703,0.9690552417582418,-1.9512717582417582,-13.072307692307692,10.869269230769232,,-0.2988461538461538,4.233065934065935,2071.89,2083.22,80.48351648351648,28.8,31.8,0.866
156,2025-09-27 20:46:31.092000+00:00,74791092,0.6042747252747254,847.1208791208791,0.1199010989010989,3.3563736263736264,35.44384615384616,-0.04626373626373627,35.41857142857143,-0.01653249230769231,-0.09122294725274725,-2.094662967032967,-0.1528641098901099,-0.08171393076923077,0.9847545824175824,-4.261180417582418,-12.151481318681318,12.44948901098901,,-0.40618681318681316,4.875307692307692,2071.9084615384613,2083.2384615384613,80.4,28.8,31.8,0.8657362637362638
157,2025-09-27 20:46:31.192000+00:00,74791192,0.8023740458015267,1052.8931297709923,0.1310229007633588,3.4753435114503817,33.35030534351145,0.030076335877862594,33.31534351145038,0.00023649923664122077,-0.10097934961832061,-2.114145190839695,-0.054559992366412215,-0.07144104045801526,0.9963503053435115,-13.02925038167939,-9.070813129770993,11.670404351145038,,-0.5334274809160305,5.400259541984733,2071.9851908396945,2083.3151908396944,80.4,28.8,31.8,0.8644961832061069
158,2025-09-27 20:46:31.292000+00:00,74791292,0.9568085106382979,1211.212765957447,0.14040425531914896,3.6259574468085107,32.54234042553192,0.05957446808510638,32.52276595744681,0.013985048936170212,-0.10529274468085106,-2.1274370212765956,-0.07475862978723405,0.07435269361702128,1.0045882978723404,-10.374601702127661,-1.5578478723404257,9.518877446808512,,-0.6058085106382979,5.810744680851064,2072.0659574468086,2083.3959574468086,80.39574468085107,28.8,31.8,0.8629148936170212
159,2025-09-27 20:46:31.392000+00:00,74791392,1.316,1417.2666666666667,0.15935555555555556,4.4382222222222225,35.24066666666667,0.037333333333333336,35.238,0.035923024444444444,-0.10492988888888889,-2.1505657777777776,-0.05527658666666667,-0.08283121777777779,1.0177855555555555,-4.762446222222222,0.3486068888888889,10.764440444444444,,-0.7581111111111111,6.550244444444444,2072.34,2083.67,80.19111111111111,28.80888888888889,31.8,0.859
160,2025-09-27 20:46:31.492000+00:00,74791492,1.3407741935483872,1564.483870967742,0.16435483870967743,5.152903225806452,37.47290322580645,0.01,37.44290322580645,0.03688481612903226,-0.1042033870967742,-2.163885161290323,0.06876740967741936,-0.10102285806451614,1.0226548387096774,3.4566416129032262,-1.1975116129032257,4.22716064516129,,-1.0135806451612903,7.2052903225806455,2072.3651612903227,2083.6951612903226,80.08064516129032,28.9,31.8,0.8586129032258064
161,2025-09-27 20:46:31.592000+00:00,74791592,1.4773333333333334,1676.6190476190477,0.17,4.831666666666667,34.34809523809524,0.004047619047619048,34.31809523809524,0.026140270238095238,-0.09884553571428571,-2.173567380952381,0.08762122976190476,-0.021999171428571426,1.0263922619047618,3.3983269047619054,3.9005054761904763,7.409035357142857,,-1.121952380952381,7.388642857142857,2072.5146428571425,2083.844642857143,80.0297619047619,28.9,31.8,0.8564047619047619
162,2025-09-27 20:46:31.692000+00:00,74791692,1.5883444444444446,1745.0333333333333,0.18321111111111113,5.504,36.989555555555555,0.09022222222222223,37.01877777777778,0.03245642,-0.09007052888888889,-2.192955,0.17350267333333336,-0.001666577777777782,1.0271498888888888,-10.285634111111111,2.405283555555556,13.0567,,-1.3193666666666668,7.752988888888889,2072.683777777778,2084.0137777777777,79.82666666666667,28.9,31.8,0.8540888888888889
163,2025-09-27 20:46:31.792000+00:00,74791792,1.7207741935483871,1856.225806451613,0.22093548387096773,8.11483870967742,47.90129032258064,0.20451612903225808,47.97935483870968,0.050605690322580645,-0.08821184838709678,-2.210077741935484,-0.0116922,-0.06282121935483871,1.0213483870967743,-7.367701612903225,-7.234315483870969,4.823828387096775,,-1.9456451612903225,8.71641935483871,2072.9300000000003,2084.2709677419357,79.06129032258065,28.9,31.8,0.8497096774193548
164,2025-09-27 20:46:31.892000+00:00,74791892,1.798,2087.879120879121,0.24282417582417581,10.381978021978021,54.87824175824176,0.07252747252747255,54.82989010989011,0.04157047692307692,-0.10590574615384615,-2.2013765934065934,-0.022620268131868133,-0.03836277142857143,1.0104567032967033,5.681966483516484,-6.942126813186814,-12.666203076923077,,-2.752010989010989,9.878978021978023,2073.07,2084.42,78.8912087912088,28.9,31.8,0.847
165,2025-09-27 20:46:31.992000+00:00,74791992,1.987956043956044,2338.714285714286,0.256043956043956,10.416593406593407,51.902087912087914,0.02208791208791209,51.86571428571429,0.027865192307692306,-0.1163835934065934,-2.1861063736263735,-0.11395989010989012,0.04473551758241759,1.0056615384615386,-6.337225274725274,-6.872641978021978,-2.87156043956044,,-3.037802197802198,10.532318681318682,2073.2172527472526,2084.581978021978,78.92637362637363,28.973626373626374,31.8,0.8433186813186813
166,2025-09-27 20:46:32.092000+00:00,74792092,2.2469047619047617,2586.095238095238,0.2681428571428572,11.457142857142857,52.71857142857143,0.011904761904761904,52.699523809523804,0.0540999,-0.12481700000000001,-2.1949261904761905,-0.06657162380952382,0.21553526666666667,1.0056433333333332,-30.02962857142857,1.3613733333333329,7.4248247619047625,,-3.4314761904761903,11.379333333333333,2073.46,2084.8390476190475,78.9,29.0,31.8,0.8383809523809523
167,2025-09-27 20:46:32.192000+00:00,74792192,2.470641304347826,2776.336956521739,0.3048804347826087,13.162934782608696,56.4875,0.24608695652173912,56.555652173913046,0.06335280217391304,-0.12174198913043478,-2.180593260869565,-0.028972916304347826,0.28534026086956527,1.0121396739130435,5.958264673913043,-0.9070005760869566,-28.543185869565217,,-3.9413804347826087,12.160108695652173,2073.7027173913043,2085.1326086956524,78.00652173913043,29.0,31.8,0.832945652173913
168,2025-09-27 20:46:32.292000+00:00,74792292,2.6396451612903227,3008.1612903225805,0.2956451612903226,13.193870967741935,54.34451612903226,-0.10129032258064516,54.25032258064516,0.03572454838709677,-0.12156590322580645,-2.138408064516129,-0.15310648387096776,-0.14328644516129033,1.0158351612903225,8.876043225806452,-3.4042803225806453,-17.225922258064514,,-4.110193548387097,12.733806451612903,2073.974193548387,2085.3951612903224,78.60967741935484,29.0,31.8,0.827516129032258
169,2025-09-27 20:46:32.392000+00:00,74792392,2.8589529411764705,3219.0,0.311,10.854470588235294,44.24470588235294,-0.02188235294117647,44.20658823529412,0.027757395294117648,-0.11950476470588235,-2.122425294117647,0.01348189411764706,-0.0971666094117647,1.0167824705882351,2.2952044705882355,1.2246434117647058,-4.110296588235294,,-3.6442352941176472,12.95515294117647,2074.252705882353,2085.680823529412,78.71882352941176,29.018823529411765,31.8,0.8220588235294117
170,2025-09-27 20:46:32.492000+00:00,74792492,3.0880555555555556,3401.777777777778,0.3113444444444444,10.221777777777778,40.61922222222222,-0.03344444444444444,40.589222222222226,0.030859814444444446,-0.11148242222222222,-2.109852111111111,-0.11580677888888889,-0.05796223266666667,1.0170852222222222,-3.143929222222222,3.093395222222222,-7.944296444444444,,-3.5538333333333334,13.317688888888888,2074.6246666666666,2086.0515555555558,78.86888888888889,29.1,31.8,0.8162777777777778
171,2025-09-27 20:46:32.592000+00:00,74792592,3.256994623655914,3514.994623655914,0.3135430107526882,9.87209677419355,38.52532258064517,-0.03118279569892473,38.501935483870966,0.039938998924731184,-0.10489705752688172,-2.0981320430107524,0.017802126344086025,-0.010108318817204302,1.0156186559139786,-5.480668548387097,3.2346096774193547,-6.2474443010752685,,-3.484704301075269,13.586521505376345,2074.9683333333332,2086.412741935484,78.97795698924732,29.1,31.8,0.8123387096774193
172,2025-09-27 20:46:32.692000+00:00,74792692,3.325274193548387,3583.2741935483873,0.3173064516129032,9.243064516129033,35.928548387096775,-0.00967741935483871,35.921290322580646,0.04647265483870967,-0.10052646612903227,-2.094185806451613,0.12140755645161291,-0.028695340322580646,1.0136885483870968,-9.175104032258066,3.662706451612903,-4.86982064516129,,-3.34008064516129,13.663403225806452,2075.135,2086.5901612903226,78.9241935483871,29.1,31.8,0.810725806451613
173,2025-09-27 20:46:32.792000+00:00,74792792,3.5282527472527474,3771.747252747253,0.34075824175824176,10.682527472527473,39.32923076923077,0.07857142857142857,39.347362637362636,0.05467086043956044,-0.09231182087912088,-2.064656153846154,-0.026208846153846138,0.04616305494505494,1.0117502197802197,-2.8448851648351656,4.078535164835165,-19.648868571428572,,-3.810494505494505,14.298769230769231,2075.6935164835168,2087.1535164835163,78.41648351648351,29.16043956043956,31.8,0.803956043956044
174,2025-09-27 20:46:32.892000+00:00,74792892,3.641,4000.6867469879517,0.36271084337349396,13.082289156626507,44.68722891566265,-0.008795180722891566,44.63240963855422,0.04453856265060241,-0.08671806867469879,-2.0103030120481926,-0.16065148192771084,0.17310096385542167,1.0106567469879517,3.163068554216867,1.4200937349397589,-29.49672048192771,,-4.635216867469879,15.351277108433734,2076.01,2087.47,78.25421686746988,29.2,31.8,0.8
175,2025-09-27 20:46:32.992000+00:00,74792992,3.747578947368421,4150.06015037594,0.3601278195488722,11.961804511278196,40.2803007518797,-0.0743609022556391,40.2003007518797,0.03447892857142857,-0.08239702030075188,-1.9724097744360902,0.04551565413533837,0.17317945112781954,1.011008947368421,-0.00016729323308251054,3.855783007518797,-26.68143007518797,,-4.385007518796993,15.610338345864662,2076.229248120301,2087.689248120301,78.60451127819549,29.2,31.8,0.7969548872180452
176,2025-09-27 20:46:33.092000+00:00,74793092,3.8746666666666667,4277.822222222222,0.3634,10.815111111111111,36.19288888888889,-0.05444444444444444,36.141333333333336,0.029862371111111112,-0.07700061555555555,-1.9439364444444445,0.15070509333333332,0.06880335555555556,1.0115553333333334,-5.060503333333333,6.170882222222223,-20.74483111111111,,-4.080311111111111,15.728155555555556,2076.505111111111,2087.965111111111,78.69333333333333,29.235555555555557,31.8,0.7935777777777778
177,2025-09-27 20:46:33.192000+00:00,74793192,3.9952246376811593,4387.289855072464,0.37518840579710144,10.561014492753623,34.89014492753623,0.014710144927536231,34.89108695652173,0.02822177463768116,-0.07129645072463768,-1.920909275362319,0.0881590347826087,-0.07439902536231884,1.0115591304347826,-9.19086036231884,6.064550869565218,-13.019795652173913,,-4.014652173913044,15.912840579710146,2076.8178260869563,2088.278768115942,78.5,29.3,31.8,0.7904347826086957
178,2025-09-27 20:46:33.292000+00:00,74793292,4.104644927536231,4451.057971014493,0.3766376811594203,11.184202898550724,36.12202898550724,0.050942028985507246,36.13021739130434,0.025996194927536232,-0.06797761014492754,-1.8977498550724639,0.005184686956521731,0.08743539492753626,1.0081678260869564,-0.7859400724637666,2.2219421739130434,-11.782839130434782,,-4.2581304347826086,16.25776811594203,2077.3395652173913,2088.8077536231885,78.5,29.3,31.8,0.7860869565217392
179,2025-09-27 20:46:33.392000+00:00,74793392,4.2690300751879695,4604.0300751879695,0.3995563909774436,12.563684210526315,39.06345864661654,0.08819548872180451,39.07345864661654,0.023163465413533833,-0.06464177218045113,-1.875178045112782,0.051432960902255645,0.0008542631578947468,1.0062711278195489,1.0876255263157895,-0.005249661654135318,-11.797284210526316,,-4.7221954887218045,16.789488721804513,2078.016992481203,2089.4813533834586,78.04887218045113,29.35639097744361,31.8,0.7793609022556391
