sample_idx,ts_utc,ms_today,speed_meters_per_sec,erpm,duty_cycle,current_in,current_motor,d_axis_current,q_axis_current,roll,pitch,yaw,accX,accY,accZ,gyroX,gyroY,gyroZ,fault_code,d_axis_voltage,q_axis_voltage,tacho_meters,tacho_abs_meters,input_voltage,temp_mos_max,temp_motor,battery_level
0,2025-09-27 23:27:14.485000+00:00,84434485,0.0,0.0,-0.001,0.0,0.0,-0.01,-0.06,-0.00327637,0.29101,-2.25095,-0.291913,-0.0148883,0.948235,-1.72954,0.0434008,-0.512549,0.0,0.004,-0.049,8629.83,8779.72,77.0,34.8,58.5,0.56
1,2025-09-27 23:27:14.585000+00:00,84434585,0.0,0.0,-0.001,0.0,0.0,0.0,0.0,0.050325833333333334,0.35914976344086025,0.743493247311828,-0.3532704301075269,-0.0535320752688172,0.9289489032258065,0.16425656559139784,0.04777595376344086,0.4297411935483871,,-0.061,-0.0410752688172043,8629.83,8779.72,77.0,34.70752688172043,58.5,0.56
2,2025-09-27 23:27:14.685000+00:00,84434685,0.0,0.0,-0.001,0.0,0.0,0.0,0.0,0.05036159638554217,0.3593934698795181,0.7430899036144578,-0.3497125301204819,-0.052874048192771084,0.9288537590361445,-0.06969021445783133,0.02848972168674698,0.2555153132530121,,-0.06116867469879518,-0.04183132530120482,8629.83,8779.72,77.0,34.78313253012048,58.5,0.56
3,2025-09-27 23:27:14.785000+00:00,84434785,0.0,0.0,-0.001,0.0,0.0,0.0,0.0,0.05069286179775281,0.3595733370786517,0.7427291011235955,-0.3489891685393258,-0.05382614719101123,0.9287250898876405,-0.16134132584269661,0.1881888202247191,0.26192188764044944,,-0.062,-0.041,8629.83,8779.72,77.0,34.7,58.5,0.56
4,2025-09-27 23:27:14.885000+00:00,84434885,0.0,0.0,-0.001,0.0,0.0,0.0,0.0,0.05093182134831461,0.35956362921348317,0.7423588539325843,-0.350104606741573,-0.05665202584269663,0.9285379213483146,-0.052970626966292136,-0.048190865168539335,0.22167096629213484,,-0.062,-0.04147191011235955,8629.83,8779.72,77.0,34.7,58.5,0.56
5,2025-09-27 23:27:14.985000+00:00,84434985,0.0,0.0,-0.001,0.0,0.0,0.0,0.0,0.05103463541666667,0.35935563541666665,0.74195775,-0.35057261458333333,-0.0549024125,0.928329375,0.024203170833333332,-0.15873917708333332,0.25651388541666664,,-0.062,-0.04144791666666667,8629.83,8779.72,77.0,34.755208333333336,58.5,0.56
6,2025-09-27 23:27:15.085000+00:00,84435085,0.0,0.0,-0.001,0.0,0.0,0.0,0.0,0.05108540597014925,0.3592318507462686,0.7416146343283582,-0.34835944029850746,-0.051380443283582086,0.9282775970149254,0.0296837,-0.009227059701492513,0.31745531343283584,,-0.06157462686567164,-0.04142537313432836,8629.83,8779.72,77.0,34.757462686567166,58.5,0.56
7,2025-09-27 23:27:15.185000+00:00,84435185,0.0,0.0,-0.001,0.0,0.0,0.0,0.0,0.05159541648351648,0.35897023076923074,0.7413623626373627,-0.34438164835164836,-0.0608002065934066,0.9281708901098902,-0.17501091648351644,0.17310212087912089,0.20922015384615383,,-0.061,-0.04174725274725275,8629.83,8779.72,77.0,34.7,58.5,0.56
8,2025-09-27 23:27:15.285000+00:00,84435285,0.0,0.0,-0.001,0.0,0.0,0.0,0.0,0.05290814,0.358901,0.7410503176470589,-0.34366849411764705,-0.07866155764705883,0.9283350705882354,-0.5301067176470589,0.22438521176470588,0.031004070588235302,,-0.061376470588235296,-0.041,8629.83,8779.72,77.0,34.7,58.5,0.56
9,2025-09-27 23:27:15.385000+00:00,84435385,0.0,0.0,-0.001,0.0,0.0,0.0,0.0,0.052989179347826085,0.35965921739130435,0.7405562717391305,-0.3482250652173913,-0.06902664456521738,0.9290375217391305,0.13347020652173913,0.36529990217391306,0.23424332608695653,,-0.062,-0.041,8629.83,8779.72,77.0,34.7,58.5,0.56
10,2025-09-27 23:27:15.485000+00:00,84435485,0.0,0.0,-0.001,0.0,0.0,0.0,0.0,0.05282559782608696,0.3597848152173913,0.7400696413043478,-0.3481663695652174,-0.06319394891304347,0.9289949130434783,0.33785379347826083,-0.0030265108695652354,0.30410267391304346,,-0.062,-0.04159782608695652,8629.83,8779.72,77.0,34.7,58.5,0.56
11,2025-09-27 23:27:15.585000+00:00,84435585,0.0,0.0,-0.001,0.0,0.0,0.0,0.0,0.052251603529411765,0.3596135764705882,0.7394368,-0.34835156470588235,-0.05667336588235294,0.9287300941176471,0.37094823529411763,-0.33090927058823527,0.4131623411764706,,-0.062,-0.042,8629.83,8779.72,77.0,34.7,58.5,0.56
12,2025-09-27 23:27:15.685000+00:00,84435685,0.0,0.0,-0.001,0.0,0.0,0.0,0.0,0.051855402173913046,0.3591607608695652,0.7389009130434783,-0.35261934782608695,-0.04882497826086957,0.928455652173913,0.20284417391304346,-0.18999115217391305,0.32549989130434787,,-0.06115217391304348,-0.04115217391304348,8629.83,8779.72,77.0,34.7,58.5,0.56
13,2025-09-27 23:27:15.785000+00:00,84435785,0.0,0.0,-0.001,0.0,0.0,0.0,0.0,0.05165951276595745,0.3587850212765958,0.7384311063829787,-0.3479290638297872,-0.049417168085106385,0.9282840212765957,0.09975341063829786,-0.22285948936170213,0.2492017659574468,,-0.06191489361702127,-0.041914893617021276,8629.83,8779.72,77.0,34.7,58.5,0.56
14,2025-09-27 23:27:15.885000+00:00,84435885,0.0,0.0,-0.001,0.0,0.0,0.0,0.0,0.05150055230769231,0.3584892,0.7379481538461539,-0.3492851076923077,-0.05070102,0.9282964769230769,0.1019573523076923,-0.07925438153846151,0.34102081538461543,,-0.061292307692307695,-0.042,8629.83,8779.72,77.0,34.7,58.5,0.56
15,2025-09-27 23:27:15.985000+00:00,84435985,0.0,0.0,-0.001,0.0,0.0,0.0,0.0,0.05124720227272727,0.3585544318181818,0.7374539999999999,-0.3510809318181818,-0.05149460227272727,0.9285352727272728,0.19086150000000002,0.12889435454545453,0.22364177272727273,,-0.061,-0.042,8629.83,8779.72,77.0,34.7,58.5,0.56
16,2025-09-27 23:27:16.085000+00:00,84436085,0.0,0.0,-0.001,0.0,0.0,0.0,0.0,0.050952086138613864,0.3585730495049505,0.736954,-0.35061227722772276,-0.04982950297029703,0.9286537128712871,0.18451821782178218,-0.11634797029702967,0.26739494059405944,,-0.06173267326732673,-0.042,8629.83,8779.72,77.0,34.7,58.5,0.56
17,2025-09-27 23:27:16.185000+00:00,84436185,0.0,0.0,-0.001,0.0,0.0,0.0,0.0,0.05081036048387097,0.35846881451612905,0.7365782177419354,-0.3496611451612903,-0.047440518548387094,0.9286932016129031,-0.0022630645161290375,-0.10529135483870967,0.23850090322580647,,-0.06141129032258064,-0.041411290322580646,8629.83,8779.72,77.0,34.7,58.5,0.56
18,2025-09-27 23:27:16.285000+00:00,84436285,0.0,0.0,-0.001,0.0,0.0,0.0,0.0,0.050839161805555554,0.35841374305555557,0.7362456458333333,-0.34985279166666666,-0.04740972291666667,0.9287412013888888,0.0028707083333333328,-0.16169615277777777,0.25255944444444445,,-0.06134027777777778,-0.04134027777777778,8629.83,8779.72,77.0,34.7,58.5,0.56
19,2025-09-27 23:27:16.385000+00:00,84436385,0.0,0.0,-0.001,0.0,0.0,0.0,0.0,0.05095467647058823,0.3583704705882353,0.7358857647058824,-0.35073488235294115,-0.04995171764705882,0.9287749411764705,0.24089611764705882,-0.4128507294117647,0.373327,,-0.062,-0.042,8629.83,8779.72,77.0,34.7,58.5,0.5600588235294118
20,2025-09-27 23:27:16.485000+00:00,84436485,0.0,0.0,-0.001,0.0,0.0,0.0,0.0,0.05048448181818182,0.35755745454545457,0.7351319090909091,-0.34611636363636367,-0.052893913636363636,0.9285663181818182,0.18833327272727274,-0.017857036363636364,0.341954,,-0.06177272727272727,-0.041772727272727274,8629.83,8779.72,77.0,34.7,58.5,0.561
21,2025-09-27 23:27:16.585000+00:00,84436585,0.0,0.0,-0.001,0.0,0.0,0.0,0.0,0.05031550888888889,0.3576049333333334,0.7346733333333334,-0.34827722222222224,-0.05116226888888889,0.9289382444444444,0.15838116444444444,0.10549627555555555,0.23471655555555557,,-0.061,-0.041,8629.83,8779.72,77.0,34.7,58.5,0.561
22,2025-09-27 23:27:16.685000+00:00,84436685,0.0,0.0,-0.001,0.0,0.0,0.0,0.0,0.0502496,0.35787064210526315,0.734248252631579,-0.34741033684210526,-0.052087797894736845,0.9294016842105264,0.08792851263157894,0.2695297578947368,0.27028693684210525,,-0.061,-0.041,8629.83,8779.72,77.0,34.7,58.5,0.561
23,2025-09-27 23:27:16.785000+00:00,84436785,0.0,0.0,-0.001,0.0,0.0,0.0,0.0,0.05012744285714286,0.3581330595238095,0.7337967976190476,-0.3457847142857143,-0.049709116666666664,0.9296852380952381,0.2081647142857143,-0.004100952380952372,0.30174304761904763,,-0.061,-0.04155952380952381,8629.83,8779.72,77.0,34.7,58.5,0.561
24,2025-09-27 23:27:16.885000+00:00,84436885,0.0,0.0,-0.001,0.0,0.0,0.0,0.0,0.04984786153846154,0.3581010769230769,0.7332983076923076,-0.3470626923076923,-0.055901784615384614,0.9296561538461539,0.23888,0.035548769230769245,0.2986425384615385,,-0.06169230769230769,-0.04130769230769231,8629.83,8779.72,77.0,34.7,58.5,0.561
25,2025-09-27 23:27:16.985000+00:00,84436985,0.0,0.0,-0.001,0.0,0.0,0.0,0.0,0.0494474,0.35814999999999997,0.7327532,-0.3500838,-0.05364704,0.9296804,0.3044544,0.06679264,0.40500499999999995,,-0.0612,-0.041,8629.83,8779.72,77.0,34.7,58.5,0.561
26,2025-09-27 23:27:17.085000+00:00,84437085,0.0,0.0,-0.001,0.0,0.0,0.0,0.0,0.04914756593406593,0.3583053626373627,0.7322176703296703,-0.348148010989011,-0.05219978461538462,0.9297273406593406,0.12131577802197802,-0.011124201098901096,0.3233345054945055,,-0.061,-0.0419010989010989,8629.83,8779.72,77.0,34.7,58.5,0.561
27,2025-09-27 23:27:17.185000+00:00,84437185,0.0,0.0,-0.001,0.0,0.0,0.0,0.0,0.04895077446808511,0.3583267765957447,0.7317159680851064,-0.3470115957446808,-0.04591739042553191,0.9296690425531915,0.0994159,0.04959287553191488,0.31073485106382975,,-0.06196808510638298,-0.04103191489361702,8629.83,8779.72,77.0,34.7,58.5,0.561
28,2025-09-27 23:27:17.285000+00:00,84437285,0.0,0.0,-0.001,0.0,0.0,0.0,0.0,0.049154297826086955,0.35856660869565216,0.7312889782608696,-0.34536436956521743,-0.04624232826086956,0.9297175217391305,-0.23932621739130433,0.15883973695652176,0.20948595652173913,,-0.062,-0.04115217391304348,8629.83,8779.72,77.0,34.7,58.5,0.561
29,2025-09-27 23:27:17.385000+00:00,84437385,0.0,0.0,-0.001,0.0,0.0,0.0,0.0,0.049783958823529414,0.3587976911764706,0.7310885147058823,-0.34828482352941176,-0.05134787794117647,0.92972925,-0.08205745441176471,-0.018725695588235294,0.2570832941176471,,-0.062,-0.042,8629.83,8779.72,77.0,34.7,58.5,0.561
30,2025-09-27 23:27:17.485000+00:00,84437485,0.0,0.0,-0.001,0.0,0.0,0.0,0.0,0.04984013529411765,0.35876901470588235,0.7308363088235295,-0.35071129411764707,-0.04994368676470588,0.92956675,0.07176320735294117,-0.018863857352941178,0.24358917647058823,,-0.062,-0.042,8629.83,8779.72,77.0,34.7,58.5,0.561
31,2025-09-27 23:27:17.585000+00:00,84437585,0.0,0.0,-0.001,0.0,0.0,0.0,0.0,0.049848,0.358765,0.730801,-0.351051,-0.0497471,0.929544,0.0932981,-0.0188832,0.2417,,-0.062,-0.04112244897959184,8629.83,8779.72,77.0,34.7,58.5,0.561
32,2025-09-27 23:27:17.685000+00:00,84437685,0.0,0.0,-0.001,0.0,0.0,0.0,0.0,0.049498176923076925,0.35898053846153843,0.7299325384615384,-0.3510862307692308,-0.052842415384615385,0.9294183076923077,0.10016996153846154,0.063314,0.3808003846153846,,-0.06107692307692308,-0.041923076923076924,8629.83,8779.72,77.0,34.7,58.5,0.561
33,2025-09-27 23:27:17.785000+00:00,84437785,0.0,0.0,-0.001,0.0,0.0,0.0,0.0,0.04936487391304348,0.3591383043478261,0.7294831739130434,-0.3492258695652174,-0.05023733043478261,0.9293442608695652,0.06005619565217391,0.1682276347826087,0.38324639130434784,,-0.062,-0.04117391304347826,8629.83,8779.72,77.0,34.7,58.5,0.561
34,2025-09-27 23:27:17.885000+00:00,84437885,0.0,0.0,-0.001,0.0,0.0,0.0,0.0,0.0493251347826087,0.3592435652173913,0.729049652173913,-0.34998591304347826,-0.05638659565217391,0.9292213913043478,0.13728800869565216,0.03406447391304348,0.3595116086956522,,-0.062,-0.042,8629.83,8779.72,77.0,34.7,58.5,0.561
35,2025-09-27 23:27:17.985000+00:00,84437985,0.0,0.0,-0.001,0.0,0.0,0.0,0.0,0.04941790476190476,0.3592633333333333,0.7286455238095239,-0.3482102380952381,-0.054033085714285715,0.9290651428571429,0.025022519047619048,-0.045315928571428576,0.2646922857142857,,-0.061619047619047615,-0.04161904761904762,8629.83,8779.72,77.0,34.7,58.5,0.561
36,2025-09-27 23:27:18.085000+00:00,84438085,0.0,0.0,-0.001,0.0,0.0,0.0,0.0,0.049490346153846156,0.3591739230769231,0.7282209450549451,-0.3475229340659341,-0.051930575824175824,0.9288945824175824,0.06068386263736264,-0.12573177802197802,0.24951585714285715,,-0.061,-0.041,8629.83,8779.72,77.0,34.7,58.5,0.561
37,2025-09-27 23:27:18.185000+00:00,84438185,0.0,0.0,-0.001,0.0,0.0,0.0,0.0,0.049516304000000004,0.35904348,0.72782456,-0.34743661,-0.050328682,0.92874901,0.142650457,-0.077995148,0.34830246,,-0.06157,-0.04157,8629.83,8779.72,77.0,34.7,58.5,0.561
38,2025-09-27 23:27:18.285000+00:00,84438285,0.0,0.0,-0.001,0.0,0.0,0.0,0.0,0.04938483846153846,0.3589988846153846,0.7273425,-0.34989173076923075,-0.05199721153846154,0.928722,0.16185346153846153,-0.0702341923076923,0.2226962692307692,,-0.06126923076923077,-0.042,8629.83,8779.72,77.0,34.7,58.5,0.561
39,2025-09-27 23:27:18.385000+00:00,84438385,0.0,0.0,-0.001,0.0,0.0,0.0,0.0,0.04928726555555556,0.3589171,0.7268995888888888,-0.3495846777777778,-0.05602134444444445,0.9287193444444445,0.10107313222222222,-0.21185668666666668,0.2344037888888889,,-0.061877777777777775,-0.04112222222222223,8629.83,8779.72,77.0,34.7,58.5,0.561
40,2025-09-27 23:27:18.485000+00:00,84438485,0.0,0.0,-0.001,0.0,0.0,0.0,0.0,0.04931284795918367,0.3588132755102041,0.7265043571428572,-0.34957729591836734,-0.05524871224489796,0.9288133571428571,0.08774213877551021,-0.038815951020408135,0.17857204081632655,,-0.062,-0.04190816326530612,8629.83,8779.72,77.0,34.7,58.5,0.561
41,2025-09-27 23:27:18.585000+00:00,84438585,0.0,0.0,-0.001,0.0,0.0,0.0,0.0,0.049383269892473124,0.3587251182795699,0.7260383225806452,-0.3511502365591398,-0.056413284946236555,0.9289516129032258,-0.04050887956989247,0.04136129569892473,0.31780644086021503,,-0.062,-0.0410752688172043,8629.83,8779.72,77.0,34.7,58.5,0.561
42,2025-09-27 23:27:18.685000+00:00,84438685,0.0,0.0,-0.001,0.0,0.0,0.0,0.0,0.04951758913043478,0.35879028260869567,0.7256443043478261,-0.3537630434782609,-0.05442947173913043,0.9290867173913043,-0.05770856086956522,-0.07820175434782609,0.2448621086956522,,-0.062,-0.042,8629.83,8779.72,77.0,34.7,58.5,0.561
43,2025-09-27 23:27:18.785000+00:00,84438785,0.0,0.0,-0.001,0.0,0.0,0.0,0.0,0.049969832608695655,0.3587738260869565,0.7253139565217391,-0.35171956521739134,-0.05473054565217392,0.9290866956521739,-0.10241505217391304,-0.03582090434782609,0.22238086956521738,,-0.062,-0.042,8629.83,8779.72,77.0,34.7,58.5,0.561
44,2025-09-27 23:27:18.885000+00:00,84438885,0.0,0.0,-0.001,0.0,0.0,0.0,0.0,0.0501777065934066,0.3586486923076923,0.7248816703296703,-0.3472513186813187,-0.05594513296703296,0.9289944285714286,-0.15700837802197803,-0.04202122637362637,0.31100395604395603,,-0.062,-0.042,8629.83,8779.72,77.0,34.7,58.5,0.561
45,2025-09-27 23:27:18.985000+00:00,84438985,0.0,0.0,-0.001,0.0,0.0,0.0,0.0,0.050544533333333336,0.35855699999999996,0.7245103703703704,-0.34802422222222223,-0.05590087777777778,0.928964,-0.12622918518518517,-0.01609356666666667,0.2609322592592593,,-0.06151851851851852,-0.041518518518518524,8629.83,8779.72,77.0,34.7,58.5,0.561
46,2025-09-27 23:27:19.085000+00:00,84439085,0.0,0.0,-0.001,0.0,0.0,0.0,0.0,0.05069816483516484,0.35833906593406595,0.7240941978021977,-0.3504309230769231,-0.056750805494505493,0.9288161538461539,0.07804005054945055,-0.1776335967032967,0.2894524945054945,,-0.061637362637362636,-0.04163736263736264,8629.83,8779.72,77.0,34.7,58.5,0.561
47,2025-09-27 23:27:19.185000+00:00,84439185,0.0,0.0,-0.001,0.0,0.0,0.0,0.0,0.05059097113402062,0.35815778350515465,0.723644206185567,-0.3476576288659794,-0.049526298969072166,0.9287731546391752,0.12601471134020617,-0.03479050103092782,0.3092651030927835,,-0.061309278350515466,-0.042,8629.83,8779.72,77.0,34.7,58.5,0.561
48,2025-09-27 23:27:19.285000+00:00,84439285,0.0,0.0,-0.001,0.0,0.0,0.0,0.0,0.0506161234375,0.35818570312500003,0.723244390625,-0.344313203125,-0.052298765625,0.9289389375,0.0928784609375,0.090112059375,0.31089390624999996,,-0.061546875,-0.042,8629.83,8779.72,77.0,34.7,58.5,0.561
49,2025-09-27 23:27:19.385000+00:00,84439385,0.0,0.0,-0.001,0.0,0.0,0.0,0.0,0.050554415909090905,0.3582889772727273,0.7227174545454546,-0.34604054545454543,-0.05370471363636364,0.9291284318181818,0.16572852500000002,0.08869965227272728,0.3380556136363636,,-0.062,-0.041522727272727274,8629.83,8779.72,77.0,34.7,58.5,0.561
50,2025-09-27 23:27:19.485000+00:00,84439485,0.0,0.0,-0.001,0.0,0.0,0.0,0.0,0.050250684536082474,0.3584622371134021,0.7220231443298969,-0.3483010618556701,-0.054485274226804124,0.9292630206185567,0.307918206185567,0.012591052577319586,0.28485074226804125,,-0.062,-0.041,8629.83,8779.72,77.0,34.7,58.5,0.561
51,2025-09-27 23:27:19.585000+00:00,84439585,0.0,0.0,-0.001,0.0,0.0,0.0,0.0,0.0501071,0.358554,0.721735,-0.346906,-0.0575283,0.929314,0.302494,-0.019071,0.223347,,-0.06135227272727273,-0.041,8629.83,8779.72,77.0,34.7,58.5,0.561
52,2025-09-27 23:27:19.685000+00:00,84439685,0.0,0.0,-0.001,0.0,0.0,0.0,0.0,0.04993801208791209,0.3585994945054945,0.7214157802197803,-0.34871668131868133,-0.053082804395604394,0.9292768461538462,0.2013854945054945,-0.01843491098901099,0.2854955274725275,,-0.06175824175824176,-0.041,8629.83,8779.72,77.0,34.7,58.5,0.561
53,2025-09-27 23:27:19.785000+00:00,84439785,0.0,0.0,-0.001,0.0,0.0,0.0,0.0,0.04990235360824742,0.3586791340206185,0.720838762886598,-0.34793663917525774,-0.05404520412371134,0.9293285257731958,0.0009282144329896824,-0.01808108556701031,0.32006827835051543,,-0.062,-0.041,8629.83,8779.72,77.0,34.7,58.5,0.561
54,2025-09-27 23:27:19.885000+00:00,84439885,0.0,0.0,-0.001,0.0,0.0,0.0,0.0,0.0499905,0.3587451428571428,0.7203835714285715,-0.3499492142857143,-0.05179954285714286,0.9293150714285714,0.02719326785714285,0.04939186428571428,0.3170740357142857,,-0.062,-0.04196428571428572,8629.83,8779.72,77.0,34.7,58.5,0.561
55,2025-09-27 23:27:19.985000+00:00,84439985,0.0,0.0,-0.001,0.0,0.0,0.0,0.0,0.05012501397849463,0.3587845376344086,0.7199728064516129,-0.34976254838709675,-0.055020245161290324,0.9291419139784947,-0.122016,-0.08187881612903225,0.19096301075268815,,-0.062,-0.04189247311827957,8629.83,8779.72,77.0,34.7,58.5,0.561
56,2025-09-27 23:27:20.085000+00:00,84440085,0.0,0.0,-0.001,0.0,0.0,0.0,0.0,0.050367445977011496,0.3587534367816092,0.7196305747126437,-0.3476276321839081,-0.04998921149425287,0.9289837701149425,-0.14926758620689654,-0.03306197356321839,0.1928546551724138,,-0.062,-0.041195402298850575,8629.83,8779.72,77.0,34.7,58.5,0.561
57,2025-09-27 23:27:20.185000+00:00,84440185,0.0,0.0,-0.001,0.0,0.0,0.0,0.0,0.050632425210084035,0.35859338655462186,0.7193257142857142,-0.35009922689075634,-0.05092700672268908,0.9288026554621849,-0.2056569075630252,-0.08896762100840336,0.23380567226890758,,-0.06174789915966387,-0.04174789915966387,8629.83,8779.72,77.0,34.7,58.5,0.561
58,2025-09-27 23:27:20.285000+00:00,84440285,0.0,0.0,-0.001,0.0,0.0,0.0,0.0,0.05090517258064516,0.35857340322580644,0.7190679354838709,-0.3512248064516129,-0.05586412419354839,0.9287773387096774,-0.02876199193548387,-0.08817833064516128,0.31092345161290325,,-0.06117741935483871,-0.041177419354838714,8629.83,8779.72,77.0,34.7,58.48225806451613,0.561
59,2025-09-27 23:27:20.385000+00:00,84440385,0.0,0.0,-0.001,0.0,0.0,0.0,0.0,0.050951365217391305,0.35865148913043476,0.7185514130434782,-0.35109144565217393,-0.056701842391304345,0.9287622065217391,0.21578230108695656,-0.013662084782608691,0.30575588043478263,,-0.062,-0.042,8629.83,8779.72,77.0,34.7,58.4,0.561
60,2025-09-27 23:27:20.485000+00:00,84440485,0.0,0.0,-0.001,0.0,0.0,0.0,0.0,0.0508964,0.358637,0.718371,-0.351793,-0.058072,0.928715,0.384462,0.0522901,0.355971,,-0.06133720930232558,-0.04133720930232558,8629.83,8779.72,77.0,34.7,58.4,0.561
61,2025-09-27 23:27:20.585000+00:00,84440585,0.0,0.0,-0.001,0.0,0.0,0.0,0.0,0.050610905263157896,0.3587573263157895,0.7178358842105264,-0.34696798947368424,-0.05068501052631579,0.9288151473684211,0.11473965157894733,0.15608305684210524,0.2735340210526316,,-0.061747368421052634,-0.04174736842105264,8629.83,8779.72,77.0,34.7,58.4,0.561
62,2025-09-27 23:27:20.685000+00:00,84440685,0.0,0.0,-0.001,0.0,0.0,0.0,0.0,0.05064334945054945,0.35901597802197804,0.7173560109890109,-0.35196152747252746,-0.05191275164835164,0.9289734395604395,-0.034671897802197794,0.1912206153846154,0.2507775384615385,,-0.062,-0.042,8629.83,8779.72,77.0,34.61648351648352,58.48351648351648,0.561
63,2025-09-27 23:27:20.785000+00:00,84440785,0.0,0.0,-0.001,0.0,0.0,0.0,0.0,0.050926437931034484,0.35932767816091954,0.7168221724137931,-0.35058514942528735,-0.054100129885057475,0.9289823678160919,0.015985702298850574,0.05369816666666666,0.17908364367816093,,-0.062,-0.042,8629.83,8779.72,77.0,34.69770114942529,58.40229885057471,0.561
64,2025-09-27 23:27:20.885000+00:00,84440885,0.0,0.0,-0.001,0.0,0.0,0.0,0.0,0.05092511162790698,0.359230976744186,0.7163729069767442,-0.3465443023255814,-0.0511862,0.9287851395348837,-0.03967948837209302,-0.09527140232558139,0.25414858139534885,,-0.062,-0.04104651162790698,8629.83,8779.72,77.0,34.7,58.4,0.561
65,2025-09-27 23:27:20.985000+00:00,84440985,0.0,0.0,-0.001,0.0,0.0,0.0,0.0,0.05092796,0.35898070000000004,0.71588432,-0.3490723,-0.051741324000000005,0.9285411,0.05674386199999999,-0.21611036,0.2595747,,-0.062,-0.042,8629.83,8779.72,77.0,34.7,58.4,0.561
66,2025-09-27 23:27:21.085000+00:00,84441085,0.0,0.0,-0.001,0.0,0.0,0.0,0.0,0.051192,0.35887,0.715535,-0.352996,-0.0546251,0.928537,-0.109781,-0.157974,0.331214,,-0.062,-0.042,8629.83,8779.72,77.0,34.7,58.4,0.561
67,2025-09-27 23:27:21.185000+00:00,84441185,0.0,0.0,-0.001,0.0,0.0,0.0,0.0,0.051192,0.35887,0.715535,-0.352996,-0.0546251,0.928537,-0.109781,-0.157974,0.331214,,-0.062,-0.042,8629.83,8779.72,77.0,34.7,58.4,0.561
68,2025-09-27 23:27:21.285000+00:00,84441285,0.0,0.0,-0.001,0.0,0.0,0.0,0.0,0.05150126352941177,0.35865937647058826,0.7150932941176471,-0.3463166117647059,-0.05561401294117647,0.9286237529411765,0.10105665529411764,-0.1548695317647059,0.3126833529411765,,-0.062,-0.04102352941176471,8629.83,8779.72,77.0,34.7,58.4,0.561
69,2025-09-27 23:27:21.385000+00:00,84441385,0.0,0.0,-0.001,0.0,0.0,0.0,0.0,0.05145978913043479,0.3586829456521739,0.7146433043478261,-0.34905420652173913,-0.0569096152173913,0.9287586956521738,0.1702785,-0.018100220652173912,0.31819552173913046,,-0.062,-0.04181521739130435,8629.83,8779.72,77.0,34.7,58.4,0.561
70,2025-09-27 23:27:21.485000+00:00,84441485,0.0,0.0,-0.001,0.0,0.0,0.0,0.0,0.0512778,0.3587195789473684,0.7141391052631579,-0.34966994736842105,-0.052677826315789475,0.9288847368421053,0.11699436842105262,-0.017844584210526315,0.3431695263157895,,-0.062,-0.04126315789473684,8629.83,8779.72,77.0,34.7,58.4,0.561
71,2025-09-27 23:27:21.585000+00:00,84441585,0.0,0.0,-0.001,0.0,0.0,0.0,0.0,0.05122390534351145,0.3587560610687023,0.7136881145038168,-0.3514925572519084,-0.05387867251908397,0.929030320610687,-0.025993925190839692,0.01377742061068702,0.3001109541984733,,-0.062,-0.04177099236641221,8629.83,8779.72,77.0,34.7,58.4,0.5612290076335879
72,2025-09-27 23:27:21.685000+00:00,84441685,0.0,0.0,-0.001,0.0,0.0,0.0,0.0,0.051268256488549616,0.35886293129770996,0.7132384961832061,-0.35071774809160305,-0.05313058091603053,0.9291913893129772,0.041246990839694665,0.12222848931297708,0.45403080152671754,,-0.062,-0.04100763358778626,8629.83,8779.72,77.0,34.7,58.4,0.5619923664122138
73,2025-09-27 23:27:21.785000+00:00,84441785,0.0,0.0,-0.001,0.0,0.0,0.0,0.0,0.05099636376811594,0.3584655362318841,0.7125379130434782,-0.3484678695652174,-0.05257206231884058,0.9288848260869564,0.23448289855072466,-0.3601982608695652,0.29900439130434786,,-0.062,-0.042,8629.83,8779.72,77.0,34.69420289855073,58.4,0.562
74,2025-09-27 23:27:21.885000+00:00,84441885,0.0,0.0,-0.001,0.0,0.0,0.0,0.0,0.05088216086956522,0.3582597391304348,0.7122118260869565,-0.3452787391304348,-0.05182409130434783,0.9288326521739131,0.17951913043478263,-0.2592265217391304,0.25187178260869564,,-0.062,-0.042,8629.83,8779.72,77.0,34.62173913043478,58.4,0.562
75,2025-09-27 23:27:21.985000+00:00,84441985,0.0,0.0,-0.001,0.0,0.0,0.0,0.0,0.05073749842519685,0.35807177952755903,0.7118577007874016,-0.34707184251968504,-0.05429514094488189,0.9288081811023622,0.28170700787401576,-0.15148374803149606,0.2652596377952756,,-0.062,-0.042,8629.83,8779.72,77.0,34.655118110236224,58.4,0.562
76,2025-09-27 23:27:22.085000+00:00,84442085,0.0,0.0,-0.001,0.0,0.0,0.0,0.0,0.05033315106382979,0.35786058510638297,0.7112963085106383,-0.34938144680851063,-0.05384568297872341,0.9288138085106383,0.3811426595744681,-0.08808982021276596,0.3195718510638298,,-0.062,-0.04154255319148936,8629.83,8779.72,77.0,34.7,58.4,0.562
77,2025-09-27 23:27:22.185000+00:00,84442185,0.0,0.0,-0.001,0.0,0.0,0.0,0.0,0.04985332555555556,0.3577418,0.7106428,-0.3495346888888889,-0.05098320111111111,0.9289248222222222,0.22593943222222224,-0.012125108888888902,0.2940193222222222,,-0.062,-0.041544444444444446,8629.83,8779.72,77.0,34.64555555555556,58.4,0.562
78,2025-09-27 23:27:22.285000+00:00,84442285,0.0,0.0,-0.001,0.0,0.0,0.0,0.0,0.049754486516853935,0.35770293258426966,0.7101841460674158,-0.34895991011235955,-0.051823314606741576,0.9290699662921348,-0.003211382022471912,-0.04208101235955057,0.20381996629213484,,-0.062,-0.04133707865168539,8629.83,8779.72,77.0,34.6,58.4,0.562
79,2025-09-27 23:27:22.385000+00:00,84442385,0.0,0.0,-0.001,0.0,0.0,0.0,0.0,0.04976975263157895,0.35769426315789477,0.7098536315789473,-0.3489158947368421,-0.0513658947368421,0.9292098421052631,-0.012362999999999999,-0.05228511052631579,0.2180251052631579,,-0.062,-0.041,8629.83,8779.72,77.0,34.6,58.4,0.562
80,2025-09-27 23:27:22.485000+00:00,84442485,0.0,0.0,-0.001,0.0,0.0,0.0,0.0,0.049801019791666665,0.3576817916666667,0.7094655625,-0.3480683333333333,-0.05220528229166667,0.9293588020833333,0.025923802083333333,0.008432251041666668,0.27441576041666665,,-0.062,-0.04138541666666667,8629.83,8779.72,77.0,34.6,58.4,0.562
81,2025-09-27 23:27:22.585000+00:00,84442585,0.0,0.0,-0.001,0.0,0.0,0.0,0.0,0.049865559999999996,0.3576199555555556,0.7089614444444444,-0.3463448777777778,-0.05395634333333334,0.9294562111111111,-0.0020831455555555475,0.05191801777777778,0.31961663333333334,,-0.06154444444444444,-0.042,8629.83,8779.72,77.0,34.6,58.4,0.562
82,2025-09-27 23:27:22.685000+00:00,84442685,0.0,0.0,-0.001,0.0,0.0,0.0,0.0,0.04996890568181818,0.3575612272727273,0.7085397727272728,-0.3465850568181818,-0.05227467840909091,0.9294743181818181,-0.0031810215909090916,0.010936103409090916,0.27940575,,-0.061579545454545456,-0.041420454545454545,8629.83,8779.72,77.0,34.6,58.4,0.562
83,2025-09-27 23:27:22.785000+00:00,84442785,0.0,0.0,-0.001,0.0,0.0,0.0,0.0,0.049969077419354836,0.3575380322580645,0.7080799032258065,-0.34738293548387095,-0.05069780967741935,0.929513935483871,0.07080384193548386,-0.06627985483870968,0.24415825806451613,,-0.062,-0.041677419354838714,8629.83,8779.72,77.0,34.667741935483875,58.4,0.562
84,2025-09-27 23:27:22.885000+00:00,84442885,0.0,0.0,-0.001,0.0,0.0,0.0,0.0,0.04995721927710843,0.3575946626506024,0.7076283253012048,-0.347935578313253,-0.05552531686746988,0.929567421686747,0.15726789518072287,0.029735668674698804,0.2948561204819277,,-0.061156626506024096,-0.0411566265060241,8629.83,8779.72,77.0,34.61566265060241,58.4,0.562
85,2025-09-27 23:27:22.985000+00:00,84442985,0.0,0.0,-0.001,0.0,0.0,0.0,0.0,0.049826235955056176,0.3577946404494382,0.707152617977528,-0.3513906179775281,-0.05746701460674158,0.9295984382022472,0.23133247191011236,0.05100544269662921,0.23045242696629215,,-0.06197752808988764,-0.041,8629.83,8779.72,77.0,34.6,58.4,0.562
86,2025-09-27 23:27:23.085000+00:00,84443085,0.0,0.0,-0.001,0.0,0.0,0.0,0.0,0.04966823152173913,0.3579541195652174,0.7066736304347826,-0.3505988913043478,-0.05186496195652174,0.9295819565217391,0.09457567391304347,-0.023436246739130435,0.3172534456521739,,-0.06192391304347826,-0.04192391304347826,8629.83,8779.72,77.0,34.6,58.4,0.562
87,2025-09-27 23:27:23.185000+00:00,84443185,0.0,0.0,-0.001,0.0,0.0,0.0,0.0,0.04970270303030303,0.3577485151515152,0.7062588181818181,-0.3481306666666667,-0.053590727272727276,0.9294730303030303,0.010962787878787877,-0.0771976303030303,0.3474764545454545,,-0.06115151515151515,-0.041151515151515154,8629.83,8779.72,77.0,34.6,58.4,0.562
88,2025-09-27 23:27:23.285000+00:00,84443285,0.0,0.0,-0.001,0.0,0.0,0.0,0.0,0.04972051056910569,0.3578062357723577,0.7058829186991871,-0.3465778861788618,-0.054186,0.929532081300813,-0.1060132325203252,-0.001464310569105693,0.1641689837398374,,-0.062,-0.042,8629.83,8779.72,77.0,34.6,58.4,0.562
89,2025-09-27 23:27:23.385000+00:00,84443385,0.0,0.0,-0.001,0.0,0.0,0.0,0.0,0.04978620162601626,0.3577639593495935,0.7055699105691057,-0.347139674796748,-0.057286,0.9294450894308943,0.032241564227642266,0.11514999837398372,0.43650638211382115,,-0.062,-0.042,8629.83,8779.72,77.0,34.6,58.4,0.562
90,2025-09-27 23:27:23.485000+00:00,84443485,0.0,0.0,-0.001,0.0,0.0,0.0,0.0,0.04984451224489796,0.35788626530612244,0.7051845408163265,-0.35036757142857144,-0.049623053061224484,0.9294930918367347,0.018696635714285714,0.054178982653061245,0.1915667244897959,,-0.062,-0.042,8629.83,8779.72,77.0,34.6,58.4,0.562
91,2025-09-27 23:27:23.585000+00:00,84443585,0.0,0.0,-0.001,0.0,0.0,0.0,0.0,0.05060210689655172,0.35931809195402303,0.7046890229885057,-0.3456515977011494,-0.052246831034482764,0.930219275862069,-0.968140459770115,1.802010459770115,-0.0731348275862069,,-0.061,-0.04111494252873563,8629.83,8779.72,77.0,34.6,58.4,0.562
92,2025-09-27 23:27:23.685000+00:00,84443685,0.0,0.0,-0.001,0.0,0.0,0.0,0.0,0.050994899999999996,0.3600381758241758,0.7045037362637363,-0.3483772087912088,-0.04117213736263736,0.9298933406593406,-0.14854974725274725,-1.2102523516483517,0.48979182417582423,,-0.06125274725274725,-0.042,8629.83,8779.72,77.0,34.6,58.4,0.562
93,2025-09-27 23:27:23.785000+00:00,84443785,0.0,0.0,-0.001,0.0,0.0,0.0,0.0,0.05093501914893617,0.3581075319148936,0.7039122553191489,-0.34850336170212765,-0.021246691489361702,0.9282247234042553,0.1959177234042553,-1.3441011063829786,1.152328595744681,,-0.06165957446808511,-0.04165957446808511,8629.83,8779.72,77.0,34.6,58.4,0.562
94,2025-09-27 23:27:23.885000+00:00,84443885,0.0,0.0,-0.001,0.0,0.0,0.0,0.0,0.05149577692307692,0.35790665934065935,0.7034976043956044,-0.34647235164835166,-0.03299529340659341,0.928498945054945,-0.4479978901098902,0.7231568021978023,0.28700249230769226,,-0.061,-0.04141758241758242,8629.83,8779.72,77.0,34.6,58.4,0.562
95,2025-09-27 23:27:23.985000+00:00,84443985,0.0,0.0,-0.001,0.0,0.0,0.0,0.0,0.05296233488372093,0.35900803488372096,0.703421941860465,-0.344924011627907,-0.06078955697674419,0.9293814651162791,-0.3296172906976744,0.10255929069767444,0.4957340686046512,,-0.061,-0.042,8629.83,8779.72,77.0,34.6,58.4,0.562
96,2025-09-27 23:27:24.085000+00:00,84444085,0.0,0.0,-0.001,0.0,0.0,0.0,0.0,0.053704495505617976,0.35861020224719103,0.7031049550561798,-0.3505549775280899,-0.045901960674157305,0.9287467415730337,0.8399630561797753,-1.8854807191011238,0.924075202247191,,-0.061,-0.042,8629.83,8779.72,77.0,34.6,58.4,0.562
97,2025-09-27 23:27:24.185000+00:00,84444185,0.0,0.0,-0.001,0.0,0.0,0.0,0.0,0.054098658659217876,0.3580327374301676,0.7029296703910615,-0.34879045251396645,-0.05487110558659218,0.9283915530726258,0.3837497430167599,-1.3241135865921787,0.7199126648044692,,-0.06140223463687151,-0.041597765363128494,8629.83,8779.72,77.0,34.6,58.4,0.562
98,2025-09-27 23:27:24.285000+00:00,84444285,0.0,0.0,-0.001,0.0,0.0,0.0,0.0,0.05448832346368715,0.35781709497206704,0.7028972681564246,-0.34265358100558657,-0.08093250223463688,0.9284798212290503,-0.4685145027932959,0.15858976536312852,0.38692886592178766,,-0.0619608938547486,-0.0410391061452514,8629.83,8779.72,77.0,34.6,58.4,0.562
99,2025-09-27 23:27:24.385000+00:00,84444385,0.0,0.0,-0.001,0.0,0.0,0.0,0.0,0.054189209574468086,0.359460170212766,0.7023172127659575,-0.3530159574468085,-0.025603452127659576,0.9297227021276596,0.6240930425531914,0.40554062765957444,0.8172571808510638,,-0.06101063829787234,-0.041,8629.83,8779.72,77.0,34.6,58.4,0.562
100,2025-09-27 23:27:24.485000+00:00,84444485,0.0,0.0,-0.001,0.0,0.0,0.0,0.0,0.052922564516129034,0.35987018279569893,0.7014159677419355,-0.34792872043010753,-0.08250018279569893,0.9104155268817204,0.4320918322580646,0.1306231182795699,0.14017253763440862,,-0.0613010752688172,-0.042,8629.83,8779.72,77.0,34.6,58.4,0.562
101,2025-09-27 23:27:24.585000+00:00,84444585,0.0,0.0,-0.001,0.0,0.0,0.0,0.0,0.05257287419354839,0.359612,0.7008352258064516,-0.3491553548387097,-0.06356610645161291,0.9290536129032257,-0.12841001935483873,-0.1892351612903226,0.14501928387096774,,-0.06277419354838709,-0.042225806451612904,8629.83,8779.72,77.0,34.6,58.4,0.562
102,2025-09-27 23:27:24.685000+00:00,84444685,0.0,0.0,-0.001,0.0,0.0,0.0,0.0,0.05393467777777778,0.3575018222222222,0.7006564444444444,-0.3523471111111111,-0.03746037111111111,0.9275324444444445,-1.2880863333333334,-2.539297111111111,-0.2421959244444444,,-0.06231111111111111,-0.04362222222222222,8629.83,8779.72,77.0,34.6,58.4,0.562
103,2025-09-27 23:27:24.785000+00:00,84444785,0.0,0.0,-0.001,0.0,0.0,0.0,0.0,0.060391927586206894,0.3475010229885057,0.7024796091954023,-0.34921885057471264,-0.003122810574712644,0.9218711609195402,-8.257207931034483,-10.757291264367815,-3.4212575172413793,,-0.0625632183908046,-0.04674712643678161,8629.83,8779.72,77.0,34.6,58.4,0.562
104,2025-09-27 23:27:24.885000+00:00,84444885,0.0,0.0,-0.0015483870967741937,0.0,0.0,0.0,0.0,0.09642863870967741,0.3151777096774193,0.7132516774193548,-0.3787557741935484,-0.10666039548387098,0.9089911935483871,-31.02628387096774,-30.05265806451613,-12.545450967741935,,-0.06090322580645161,-0.04132258064516129,8629.83,8779.72,77.0,34.6,58.4,0.562
105,2025-09-27 23:27:24.985000+00:00,84444985,0.0,-59.364705882352936,-0.0006352941176470588,0.0,-0.4094117647058823,0.0,0.43670588235294117,0.15712989411764708,0.2334383176470588,0.7248382588235294,-0.13914926823529417,-0.32686234117647056,0.8898335411764706,-9.863776941176468,-54.22664941176471,-10.402691294117647,,-0.06545882352941176,-0.12302352941176471,8629.83,8779.72,77.0,34.6,58.4,0.562
106,2025-09-27 23:27:25.085000+00:00,84445085,-0.00768421052631579,-111.58947368421053,-0.009221052631578948,-0.01536842105263158,-4.557368421052632,-0.146,4.589684210526316,0.1482645157894737,0.11776147368421053,0.7160661263157895,0.06131716210526317,-0.1625839747368421,0.8785391578947368,21.509385684210528,-71.4085452631579,0.5380182105263156,,-0.05801052631578947,-0.22624210526315788,8629.822315789474,8779.727684210526,77.0,34.6,58.4,0.562
107,2025-09-27 23:27:25.185000+00:00,84445185,-0.003953488372093023,-42.209302325581405,0.05693023255813953,1.6246511627906979,22.922558139534885,-0.15372093023255815,27.7953488372093,0.11391106976744186,0.022828390697674422,0.6995805116279069,-0.2115774790697674,0.021922065116279074,0.8788587906976745,29.27293023255814,-66.4837023255814,0.6807951627906976,,0.1046279069767442,1.4456046511627907,8629.807906976743,8779.742093023257,76.51627906976745,34.6,58.4,0.562
108,2025-09-27 23:27:25.285000+00:00,84445285,0.1464731182795699,235.61290322580646,0.11253763440860215,4.306989247311828,50.0052688172043,-0.008817204301075257,50.230215053763445,0.07887556666666666,-0.050358239784946246,0.7037092795698925,-0.26721959139784945,0.041641675483870974,0.9006350215053763,8.026447311827955,-35.629932258064514,-5.815194322580645,,-0.06550537634408601,3.7154086021505375,8629.815806451612,8779.760537634409,76.14731182795698,34.6,58.347311827956986,0.5604193548387097
109,2025-09-27 23:27:25.385000+00:00,84445385,0.42323076923076924,555.0769230769231,0.13676923076923075,5.996153846153846,55.268461538461544,0.050769230769230775,55.27769230769231,0.0726965923076923,-0.08315143846153847,0.7229574615384615,-0.15624723076923078,-0.014534776923076923,0.9379674615384616,-12.331015384615386,-10.649724615384613,-7.754315384615385,,-0.37046153846153845,5.189923076923077,8629.860769230769,8779.806923076923,75.91538461538461,34.6,58.3,0.5577692307692308
110,2025-09-27 23:27:25.485000+00:00,84445485,0.6216344086021506,744.4193548387096,0.1466989247311828,6.506451612903226,53.90096774193548,0.08290322580645161,53.84311827956989,0.10003583010752688,-0.09761418494623655,0.7263144301075268,-0.04612570215053763,0.08375583870967741,0.9694379784946237,-15.302125806451613,-10.553104516129032,-4.591012365591398,,-0.533505376344086,5.842408602150538,8629.921935483871,8779.87193548387,76.00967741935483,34.6,58.3,0.5556021505376345
111,2025-09-27 23:27:25.585000+00:00,84445585,0.8175384615384615,907.3516483516484,0.1382967032967033,5.44945054945055,45.48362637362637,-0.008681318681318675,45.41527472527473,0.12112889010989011,-0.10066408791208792,0.7349104395604396,0.18425930351648354,-0.25025906593406594,0.995456923076923,-4.607016043956044,6.800002197802197,-2.2312321978021976,,-0.5872087912087912,5.847384615384615,8630.003296703297,8779.953296703296,76.17912087912087,34.6,58.3,0.5534175824175824
112,2025-09-27 23:27:25.685000+00:00,84445685,0.9023956043956044,948.5714285714286,0.1529120879120879,5.913296703296703,47.71054945054945,0.04010989010989011,47.74846153846154,0.0914774978021978,-0.08814773956043956,0.7527632527472528,-0.1439251758241758,-0.23371103296703297,1.0155512087912089,25.80770879120879,1.9177160439560428,-13.704887912087912,,-0.603912087912088,6.0355384615384615,8630.10010989011,8780.05010989011,76.02197802197803,34.6,58.3,0.5512197802197802
113,2025-09-27 23:27:25.785000+00:00,84445785,0.9792777777777778,1089.4444444444443,0.18783333333333332,7.192777777777778,51.94111111111111,0.11222222222222222,51.94111111111111,0.05376422777777778,-0.08772421111111112,0.7686824444444444,-0.13324887777777777,-0.18675094444444443,1.0221822222222223,18.257716666666667,-6.321611666666667,-3.032595555555556,,-0.8576111111111111,6.772055555555556,8630.196111111112,8780.146111111111,75.78888888888889,34.6,58.3,0.548888888888889
114,2025-09-27 23:27:25.885000+00:00,84445885,1.0897692307692308,1219.6043956043957,0.1896153846153846,8.657472527472528,56.473296703296704,-0.001868131868131867,56.481538461538456,0.03282571098901099,-0.09302826043956045,0.7645591098901099,0.051977656043956044,-0.34045167032967033,1.0235682417582417,13.803987912087912,-5.296631208791209,11.612857802197803,,-1.102142857142857,7.508978021978022,8630.316483516483,8780.266483516483,75.51758241758242,34.61648351648352,58.3,0.5465054945054946
115,2025-09-27 23:27:25.985000+00:00,84445985,1.238148936170213,1380.4255319148936,0.21836170212765957,10.25936170212766,60.57170212765958,0.06702127659574468,60.59361702127659,0.03406031702127659,-0.09282693829787234,0.7353484042553191,-0.015024563829787244,0.13811995744680852,1.0243010638297871,-2.681207234042554,-6.539910638297872,17.388839574468086,,-1.4359787234042554,8.283340425531915,8630.430638297872,8780.380638297873,75.07446808510637,34.7,58.3,0.5429787234042553
116,2025-09-27 23:27:26.085000+00:00,84446085,1.4379024390243904,1618.5365853658536,0.24021951219512197,11.866341463414635,63.61365853658536,0.06585365853658535,63.53536585365853,0.02003521219512195,-0.10629938536585366,0.732285731707317,-0.13991368292682926,0.10757486585365852,1.02215,27.26576780487805,-11.955698780487804,-13.63570536585366,,-1.9050731707317072,9.198073170731707,8630.574878048781,8780.52487804878,75.07317073170732,34.7,58.3,0.5385365853658537
117,2025-09-27 23:27:26.185000+00:00,84446185,1.6310666666666667,1803.6,0.2558,13.585333333333335,66.95333333333333,0.148,66.96066666666667,-0.03458746,-0.11788226666666667,0.7535822,0.003569906666666671,-0.02512704666666668,1.0208819999999998,30.207881333333336,-4.982755333333333,3.1456733333333347,,-2.542,9.9626,8630.755333333333,8780.7,74.72,34.75333333333333,58.3,0.5338666666666667
118,2025-09-27 23:27:26.285000+00:00,84446285,1.7527737226277371,1958.14598540146,0.2743941605839416,15.85080291970803,72.50328467153285,0.16233576642335767,72.56248175182482,-0.03581953430656934,-0.11807221897810219,0.7242726788321168,-0.05116582700729927,-0.031153820437956205,1.0217943795620439,-12.672855036496353,-3.180202627737226,41.68801459854015,,-3.2525255474452552,10.709328467153284,8630.90197080292,8780.84197080292,74.13065693430657,34.8,58.3,0.5298832116788321
119,2025-09-27 23:27:26.385000+00:00,84446385,1.9122173913043479,2158.891304347826,0.2892065217391304,16.74445652173913,73.0313043478261,0.12184782608695652,72.98478260869565,0.004281219565217391,-0.11683579347826087,0.6655440217391305,-0.08205508913043477,-0.07585980494565217,1.0226040217391306,-28.007149347826086,0.009065652173913197,44.01108260869565,,-3.7986521739130437,11.272586956521739,8631.06847826087,8781.010760869565,74.19673913043479,34.8,58.3,0.5254021739130434
120,2025-09-27 23:27:26.485000+00:00,84446485,2.1966629213483144,2397.752808988764,0.27593258426966294,13.756629213483146,60.56224719101123,-0.1187640449438202,60.45741573033708,0.07500243595505618,-0.09813842921348315,0.5808208651685394,-0.036848764044943805,-0.05352891348314607,1.0272583146067416,-5.07976213483146,2.1987986516853932,19.721447191011237,,-3.551078651685393,11.22491011235955,8631.365168539325,8781.31191011236,75.13483146067416,34.83258426966292,58.3,0.5186966292134831
121,2025-09-27 23:27:26.585000+00:00,84446585,2.330913043478261,2532.608695652174,0.282,12.386086956521739,54.09913043478261,0.030869565217391308,54.098695652173916,0.0981472,-0.0933538,0.548133,0.25518,-0.163292,1.02231,4.76433,-3.09548,14.2692,,-3.400521739130435,11.389086956521739,8631.595652173914,8781.548695652175,75.0,34.9,58.3,0.5146956521739131
122,2025-09-27 23:27:26.685000+00:00,84446685,2.441161290322581,2650.548387096774,0.2804516129032258,11.718387096774194,50.68193548387097,-0.004516129032258065,50.65741935483871,0.09434121290322581,-0.09207963225806451,0.5424313225806451,0.1434677935483871,-0.29970129032258064,1.0180364516129032,0.5173312903225815,-1.9990707096774192,8.428498064516129,,-3.338225806451613,11.555741935483871,8631.833548387096,8781.80870967742,75.0,34.95161290322581,58.3,0.5114516129032258
123,2025-09-27 23:27:26.785000+00:00,84446785,2.56725,2781.375,0.298375,12.251249999999999,50.8525,0.06625,50.8425,0.087556475,-0.0926727875,0.534352875,0.0652691,-0.41992562499999997,1.008555,-7.83396125,-5.343382625,3.24922125,,-3.53125,12.019874999999999,8632.09,8782.07625,74.875,35.0,58.3,0.508125
124,2025-09-27 23:27:26.885000+00:00,84446885,2.7030777777777777,2929.5222222222224,0.32861111111111113,12.994555555555555,51.61566666666667,0.13722222222222222,51.64288888888889,0.08702694888888889,-0.09623072777777777,0.5352798444444444,-0.05676127777777777,-0.20113323333333336,1.0004705666666667,-8.879386777777777,-4.002347222222222,-1.303157444444445,,-3.7926333333333333,12.543666666666667,8632.36611111111,8782.363555555556,74.42777777777778,35.0,58.3,0.5047666666666667
125,2025-09-27 23:27:26.985000+00:00,84446985,2.8722499999999997,3121.375,0.33587500000000003,15.23875,56.46875,0.01874999999999999,56.4475,0.1051120875,-0.0969956125,0.5333015,-0.21067275000000002,-0.3465035,0.99646225,-3.7008962500000004,-4.19167,7.19657125,,-4.418875,13.416625,8632.657500000001,8782.66625,74.2125,35.0875,58.3,0.5005
126,2025-09-27 23:27:27.085000+00:00,84447085,3.0172916666666665,3277.0416666666665,0.37322916666666667,18.539791666666666,63.79270833333333,0.25104166666666666,63.946041666666666,0.12558114583333332,-0.09851672291666666,0.5064408541666666,-0.11235125,-0.02598492708333333,0.9934611041666667,-2.8592125,-0.6071233333333333,14.584739375,,-5.249145833333333,14.300354166666667,8632.975833333332,8782.97625,73.31666666666666,35.1,58.3,0.495875
127,2025-09-27 23:27:27.185000+00:00,84447185,3.1864578313253014,3478.3493975903616,0.33931325301204823,20.12734939759036,66.31433734939759,-0.16060240963855424,66.16301204819277,0.14729395180722893,-0.0920434843373494,0.4990456626506024,-0.2983958192771084,-0.747244156626506,1.004998313253012,12.177427469879518,-8.846634939759035,0.8482950602409639,,-5.7620963855421685,15.018963855421687,8633.272409638554,8783.292409638554,74.10722891566265,35.10722891566265,58.3,0.48963855421686747
128,2025-09-27 23:27:27.285000+00:00,84447285,3.397663157894737,3657.6526315789474,0.38013684210526316,17.44421052631579,56.98684210526316,0.0423157894736842,56.980736842105266,0.1468422105263158,-0.08840586210526316,0.5097971789473684,0.3321856631578948,-0.40221318947368423,1.008071052631579,32.01600736842105,-5.23288747368421,-8.382030315789473,,-5.272484210526316,15.181431578947368,8633.642315789473,8783.662315789474,73.93368421052632,35.2,58.3,0.4840315789473684
129,2025-09-27 23:27:27.385000+00:00,84447385,3.5072923076923077,3805.4307692307693,0.4117692307692308,20.19323076923077,62.84815384615385,0.20307692307692307,62.907230769230765,0.13079052307692307,-0.08901039846153846,0.5345393230769231,0.007513723076923079,-0.09265770769230769,1.0114204615384617,-6.738386153846154,-0.676823230769231,-10.797966769230769,,-6.0545846153846155,15.888030769230769,8633.964615384615,8783.984615384616,73.22923076923077,35.221538461538465,58.3,0.4799230769230769
130,2025-09-27 23:27:27.485000+00:00,84447485,3.611907692307692,3956.9692307692308,0.4002307692307693,19.454769230769234,59.555846153846154,-0.14307692307692305,59.468769230769226,0.1313066769230769,-0.08765932153846154,0.5485654769230769,0.6309698769230769,-0.9396530923076922,1.0117435384615383,21.621306153846156,-7.58058476923077,-6.6207052307692305,,-6.013815384615384,16.15956923076923,8634.195384615385,8784.215384615383,73.69076923076923,35.29846153846154,58.3,0.47607692307692306
131,2025-09-27 23:27:27.585000+00:00,84447585,3.931,4187.494252873563,0.4226436781609195,19.676436781609194,58.43586206896551,0.04758620689655172,58.391724137931035,0.11061466666666667,-0.0841804011494253,0.5407885977011494,0.13132772413793103,0.18012557701149426,1.0128881609195404,5.543945632183908,-3.8278065977011493,8.441939655172414,,-6.172068965517242,16.60606896551724,8634.91,8784.95,73.72758620689656,35.304597701149426,58.3,0.466
132,2025-09-27 23:27:27.685000+00:00,84447685,3.961778947368421,4361.073684210526,0.43492631578947366,16.829684210526317,49.52894736842106,-0.16705263157894737,49.42578947368421,0.1152733894736842,-0.08091334421052632,0.5326093789473684,0.13475706315789474,-0.0028568694736842114,1.012671052631579,-11.241462105263158,1.7686609684210524,1.7408666315789474,,-5.589231578947368,16.796747368421055,8634.978,8785.019789473685,74.2642105263158,35.4,58.3,0.46546315789473686
133,2025-09-27 23:27:27.785000+00:00,84447785,4.125530120481927,4473.421686746988,0.4360963855421687,15.38843373493976,45.14566265060241,0.06710843373493977,45.16036144578313,0.11565751325301205,-0.07788599156626506,0.5344917228915662,0.13377838072289155,0.016019530120481927,1.011688313253012,-4.875138554216866,7.686297590361446,-0.36389674698795194,,-5.247915662650603,16.882108433734942,8635.390722891567,8785.438072289156,74.02048192771083,35.42650602409638,58.3,0.46220481927710844
134,2025-09-27 23:27:27.885000+00:00,84447885,4.2341632653061225,4650.908163265306,0.43509183673469387,16.84204081632653,47.53357142857143,-0.02102040816326528,47.48581632653061,0.08639221632653062,-0.07267383163265305,0.5395310816326531,0.0720878642857143,0.18386157653061225,1.005380051020408,18.661480612244898,-5.079056224489795,-1.0057920408163268,,-5.781744897959183,17.520530612244897,8635.82918367347,8785.877142857142,74.11836734693877,35.5,58.3,0.45840816326530615
135,2025-09-27 23:27:27.985000+00:00,84447985,4.4156385542168675,4865.650602409639,0.419855421686747,14.340963855421688,39.87457831325301,-0.10746987951807227,39.81879518072289,0.0692501578313253,-0.07730960963855421,0.5469729036144578,0.17317932891566265,0.40783318072289154,0.9930996506024097,7.591493493975904,-0.7485628915662641,-8.670387951807228,,-5.17077108433735,17.797746987951808,8636.267590361445,8786.327590361445,74.5012048192771,35.5,58.3,0.4550120481927711
136,2025-09-27 23:27:28.085000+00:00,84448085,4.6157111111111115,5072.333333333333,0.4216888888888889,12.536,34.46088888888889,-0.1964444444444444,34.367777777777775,0.060307455555555556,-0.07546216222222223,0.5600207333333334,0.03181062444444444,0.12606708888888887,0.9885131777777778,-1.3847531111111113,2.098831993333333,0.4418420000000012,,-4.7274666666666665,18.0568,8636.74711111111,8786.807111111111,75.04444444444445,35.56444444444445,58.364444444444445,0.4527111111111111
137,2025-09-27 23:27:28.185000+00:00,84448185,4.8108260869565225,5147.0,0.31621739130434784,1.7178260869565225,2.4447826086956503,-1.0843478260869566,2.1543478260869584,0.07051142173913044,-0.05096087391304348,0.538059,0.7643139217391306,-0.29693600000000003,1.002560347826087,6.775469565217392,33.72131286086957,20.902067826086956,,-0.9425652173913046,15.844956521739132,8637.225217391304,8787.285217391303,77.24782608695652,35.6,58.326086956521735,0.4505217391304348
138,2025-09-27 23:27:28.285000+00:00,84448285,4.839681818181819,4623.636363636364,0.23781818181818182,-5.205454545454545,-22.66772727272727,0.05909090909090908,-22.653636363636362,0.05593369545454545,0.017989231818181822,0.5206125454545455,0.880333,0.12424336363636362,1.0346754545454544,24.660104545454544,47.183054545454546,-3.1379018181818203,,2.1321363636363637,12.277681818181819,8637.711363636365,8787.771363636364,77.46818181818182,35.6,58.3,0.4525909090909091
139,2025-09-27 23:27:28.385000+00:00,84448385,4.3107216494845355,4450.278350515464,0.4786701030927835,2.0376288659793813,3.677319587628869,1.414020618556701,4.0920618556701065,0.05939039793814433,0.070876593814433,0.5554120103092783,0.45117327835051546,-0.480443793814433,1.063306907216495,16.622078350515462,9.426296907216496,-35.25111896907217,,-0.6901443298969072,13.789164948453609,8638.132886597938,8788.192886597937,74.76907216494845,35.6,58.39072164948453,0.45753608247422684
140,2025-09-27 23:27:28.485000+00:00,84448485,4.276782608695652,5101.739130434783,0.3595869565217391,14.402826086956521,21.476521739130437,-2.258369565217391,21.23413043478261,-0.03088498260869566,0.04470400326086957,0.5934833260869565,-5.3143199565217385,2.320148076086957,0.9683854891304348,-136.46924239130433,-14.957954891304347,-38.210018478260864,,-4.921978260869565,18.912880434782608,8638.516195652175,8788.576195652175,75.78586956521738,35.698913043478264,58.4,0.4589891304347826
141,2025-09-27 23:27:28.585000+00:00,84448585,4.646139534883721,4563.3488372093025,0.4385813953488372,25.81139534883721,65.94441860465116,0.4858139534883721,66.05511627906978,0.10155181395348839,0.02297794418604651,0.6065245581395349,-1.5260785581395355,-0.986572325581395,0.9525033720930233,27.91193255813957,-73.91153488372093,23.969762790697686,,-7.36939534883721,17.75674418604651,8638.903720930233,8788.971395348837,73.1906976744186,35.7,58.4,0.4574651162790698
142,2025-09-27 23:27:28.685000+00:00,84448685,4.273568181818182,4615.159090909091,0.463,23.057272727272725,62.6575,0.12090909090909108,62.559318181818185,0.12187870454545455,-0.004374689772727276,0.5921508636363636,-0.4382137272727272,-0.510543522727273,0.9365103409090909,33.44637045454545,-31.472840909090912,3.1952250000000006,,-7.145840909090909,17.82511363636364,8639.306363636362,8789.36840909091,73.43409090909091,35.7,58.4,0.4514318181818182
143,2025-09-27 23:27:28.785000+00:00,84448785,4.3868901098901105,4830.494505494506,0.4837252747252747,14.225164835164835,39.3378021978022,-0.13593406593406593,39.283956043956046,0.07879615604395604,-0.029285342967032967,0.5932494505494506,0.12123797802197794,-0.2452016153846154,0.931119032967033,-21.4922945054945,-2.0763494945054948,-4.084497142857142,,-5.040230769230769,17.67297802197802,8639.902637362637,8789.962637362638,73.97032967032968,35.7,58.4,0.4436923076923077
144,2025-09-27 23:27:28.885000+00:00,84448885,4.579173913043479,4955.815217391304,0.46720652173913046,13.172826086956523,36.62684782608695,-0.06076086956521738,36.5275,0.07583837717391305,-0.025455260869565215,0.5851420652173912,-0.47271968478260873,0.14616294565217391,0.9414070108695652,-17.011808695652174,-7.21312795652174,8.211664239130435,,-4.869630434782609,17.816108695652176,8640.365543478261,8790.42554347826,74.39565217391305,35.79891304347826,58.4,0.4420108695652174
145,2025-09-27 23:27:28.985000+00:00,84448985,4.685604651162791,5010.546511627907,0.3942325581395349,9.458488372093022,26.983720930232558,-0.37,26.800348837209302,0.10802581976744186,-0.026221257209302323,0.5795502325581395,-0.25822211627906977,-0.36440520930232556,0.9491288488372093,-1.8329523255813962,-3.7296886046511633,-23.99635581395349,,-3.763046511627907,17.330162790697674,8640.852906976743,8790.912906976744,75.37441860465117,35.8,58.4,0.44
146,2025-09-27 23:27:29.085000+00:00,84449085,4.73466,5001.01,0.44682,14.004,38.1582,0.32180000000000003,38.2422,0.06398152559999999,-0.0027637720000000003,0.63407035,0.47488472000000004,0.13404298,0.96470856,44.536718,13.903436799999998,-27.873402,,-5.0767,18.02259,8641.413199999999,8791.4732,74.3,35.8,58.4,0.43885
147,2025-09-27 23:27:29.185000+00:00,84449185,4.767,5123.6543209876545,0.4744197530864197,18.342716049382716,47.53654320987654,-0.005308641975308656,47.45802469135802,0.004879402098765432,0.007339951111111111,0.6617397283950617,0.05865294074074075,0.6216493086419754,0.9748605802469136,35.04413456790123,-4.580123703703705,-0.24222962962962669,,-6.393765432098766,18.89637037037037,8642.06,8792.12,74.41358024691358,35.8,58.4,0.435
148,2025-09-27 23:27:29.285000+00:00,84449285,4.825554744525547,5286.686131386861,0.4654306569343066,15.246131386861313,39.465547445255474,-0.11788321167883212,39.3778102189781,0.006370480656934309,0.004334846277372262,0.6310662627737226,-0.049189420437956204,-0.6901971532846715,0.9769270729927007,16.97137927591241,-19.658052992700732,33.56008613138686,,-5.622912408759124,19.01797080291971,8642.20408759124,8792.264087591242,74.7,35.83065693430657,58.4,0.4343868613138686
149,2025-09-27 23:27:29.385000+00:00,84449385,4.961626373626374,5340.9670329670325,0.4399120879120879,13.53967032967033,35.447692307692314,0.03021978021978022,35.392637362637366,0.03681105604395604,0.0020208068131868135,0.5920668571428572,-0.061355096703296697,-0.963125054945055,0.9764575494505494,0.07932732307692306,-5.427171208791209,28.471415384615387,,-5.154857142857143,18.87847252747253,8642.567912087912,8792.627912087912,74.61208791208792,35.9,58.4,0.4328351648351648
150,2025-09-27 23:27:29.485000+00:00,84449485,5.034137931034483,5410.505747126437,0.4986896551724138,17.321954022988503,42.98551724137931,0.48241379310344834,43.01873563218391,0.07592292988505747,0.0044032383402298845,0.5581034022988506,0.12962120689655174,0.2510510344827586,0.9876473908045977,2.8990190804597704,-8.990721149425287,-3.231604137931034,,-6.18751724137931,19.56750574712644,8643.2908045977,8793.350804597701,73.01954022988505,35.9,58.4,0.4296781609195402
151,2025-09-27 23:27:29.585000+00:00,84449585,5.1206,5567.6,0.5359,21.212,50.426,-0.01100000000000001,50.413,0.057290560000000004,-0.00340981322,0.5878362,-0.008188,0.4343924,0.9905328999999999,10.326102,1.7138879999999999,-25.3887,,-7.4,20.4208,8643.801,8793.860999999999,72.96,35.9,58.4,0.4268
152,2025-09-27 23:27:29.685000+00:00,84449685,5.27421978021978,5766.736263736264,0.5198461538461538,20.385934065934066,47.55527472527473,-0.19769230769230772,47.4521978021978,0.016348819780219778,-0.017007124175824177,0.6215213516483516,-0.20073405164835165,-0.41717714285714286,0.991403010989011,15.668924175824175,-13.111406593406594,-12.036815824175825,,-7.287230769230769,20.8488021978022,8644.333296703297,8794.393296703298,73.8,35.9,58.4,0.42237362637362635
153,2025-09-27 23:27:29.785000+00:00,84449785,5.456876404494382,5908.887640449439,0.5214157303370787,17.55325842696629,40.96056179775281,-0.0003370786516853942,40.94056179775281,0.019464137078651685,-0.027593812359550565,0.632147202247191,0.019785837078651683,-0.17827446292134833,0.994224,-2.674864044943819,-6.234249438202246,-4.0598008988764045,,-6.5460224719101126,20.955808988764044,8644.888426966292,8794.948426966293,73.8,35.9,58.4,0.41896629213483144
154,2025-09-27 23:27:29.885000+00:00,84449885,5.567130434782609,6044.369565217391,0.5235434782608696,18.441739130434783,42.06413043478261,0.1015217391304348,42.05239130434783,0.03473268695652174,-0.02937584782608696,0.6370884347826087,-0.015439771739130435,-0.17554742173913046,0.997344152173913,-14.08951304347826,2.106,-1.9469576086956524,,-6.866478260869565,21.33508695652174,8645.33652173913,8795.39652173913,73.34565217391304,35.94130434782608,58.4,0.41717391304347823
155,2025-09-27 23:27:29.985000+00:00,84449985,5.661865979381443,6177.8247422680415,0.5362680412371135,20.008247422680412,44.59051546391753,0.165979381443299,44.57092783505155,0.053747265979381446,-0.027343131958762888,0.6360556494845361,0.13027708041237113,-0.17162184536082475,1.0002856701030927,-15.850368041237111,5.206520618556701,-0.35519505154639197,,-7.379876288659794,21.78842268041237,8645.782783505154,8795.844742268042,72.83711340206186,36.0,58.4,0.415020618556701
156,2025-09-27 23:27:30.085000+00:00,84450085,5.826204819277108,6280.421686746988,0.5513975903614459,17.87975903614458,39.77518072289157,-0.24120481927710843,39.66987951807229,0.08637989638554217,-0.022568636144578314,0.622394891566265,0.43704639759036146,0.12967690361445783,1.0035629156626507,-17.69203734939759,5.623678313253013,-3.952757349397591,,-6.812,21.92531325301205,8646.55048192771,8796.6178313253,73.5855421686747,36.0,58.4,0.4104698795180723
157,2025-09-27 23:27:30.185000+00:00,84450185,5.952241379310345,6430.137931034483,0.5583103448275862,19.935862068965516,42.76379310344827,0.17965517241379314,42.75586206896552,0.08244756551724138,-0.027967006896551724,0.6289508275862069,0.414533448275862,-0.5813732758620689,0.9977128275862068,13.475275862068965,-7.796704827586208,-7.087675172413794,,-7.518206896551725,22.592275862068966,8647.298620689655,8797.363103448275,73.20344827586206,36.0,58.4,0.40720689655172415
158,2025-09-27 23:27:30.285000+00:00,84450285,6.1124347826086955,6572.782608695652,0.5945217391304347,22.987391304347824,47.6095652173913,0.1878260869565217,47.598260869565216,0.07625198260869566,-0.02827558695652174,0.6555571739130435,-0.42705565217391295,0.013166043478260836,0.9980639130434782,-38.19114347826087,4.532520434782609,-15.999991304347827,,-8.450608695652175,23.192304347826088,8648.05652173913,8798.120869565217,71.93043478260869,36.0,58.4,0.40273913043478266
159,2025-09-27 23:27:30.385000+00:00,84450385,6.212677966101695,6700.033898305085,0.6127457627118644,23.41915254237288,47.911186440677966,-0.2633898305084746,47.79796610169492,0.07391462372881356,-0.028303042372881355,0.6761414406779661,-0.6348030508474577,0.45733096610169494,0.9989059322033899,-33.15412711864407,2.6967713898305083,-12.650579661016948,,-8.639525423728813,23.438118644067796,8648.489830508473,8798.553220338983,72.00338983050847,36.0,58.4,0.3996440677966102
160,2025-09-27 23:27:30.485000+00:00,84450485,6.280474576271186,6836.757062146893,0.6539887005649718,22.334406779661016,45.36316384180791,-0.2690395480225989,45.261242937853105,0.07464699661016949,-0.02622727966101695,0.6952188418079096,0.32722519774011305,0.8314275762711865,1.0021658192090397,1.5841610169491602,0.4659070395480227,-10.355545762711863,,-8.392067796610169,23.68331638418079,8648.806214689266,8798.875254237288,72.34237288135594,36.0,58.4,0.3973841807909605
161,2025-09-27 23:27:30.585000+00:00,84450585,6.503516129032258,6944.784946236559,0.6226236559139785,24.10451612903226,47.42892473118279,-0.9750537634408603,47.35569892473118,0.038022402150537635,-0.024364424731182794,0.7583701505376345,-0.37320734408602135,-0.1693813870967742,1.0084675268817205,24.015443010752687,-3.829976118279569,-20.280960215053767,,-8.984548387096774,24.1837311827957,8649.91311827957,8799.974193548387,72.13225806451612,36.08924731182796,58.4,0.3916451612903226
162,2025-09-27 23:27:30.685000+00:00,84450685,6.636802197802198,7120.1648351648355,0.5428351648351649,21.916923076923077,42.87395604395604,-2.414945054945055,42.536923076923074,0.01680188791208791,-0.015859774725274726,0.7875252527472528,-0.2392638571428571,0.5843166703296703,1.015014945054945,26.212313186813187,-0.8333371428571432,-7.32979120879121,,-8.55067032967033,24.214274725274723,8650.633406593406,8800.693406593407,73.97912087912088,36.1,58.4,0.38704395604395603
