sample_idx,ts_utc,ms_today,speed_meters_per_sec,erpm,duty_cycle,current_in,current_motor,d_axis_current,q_axis_current,roll,pitch,yaw,accX,accY,accZ,gyroX,gyroY,gyroZ,fault_code,d_axis_voltage,q_axis_voltage,tacho_meters,tacho_abs_meters,input_voltage,temp_mos_max,temp_motor,battery_level
0,2025-09-27 22:54:54.302000+00:00,82494302,0.0,0.0,0.001,0.09,0.27,-0.05,0.2,0.747444,0.0991167,2.4987,-0.365453,-0.28886,0.355127,-153.832,-86.9611,55.1838,0.0,-0.027,0.548,2279.66,2301.44,80.8,32.2,42.5,0.844
1,2025-09-27 22:54:54.402000+00:00,82494402,0.0,0.0,0.001,0.0,0.0,0.0,0.0,-0.007582919405940594,0.3353549702970297,2.194870396039604,-0.3296590693069307,0.0015785786138613862,0.9391004059405941,0.6986392574257426,0.3858478415841584,0.3729989405940594,,0.061,0.04207920792079208,2279.66,2301.44,80.8,32.19207920792079,42.5,0.844
2,2025-09-27 22:54:54.502000+00:00,82494502,0.0,0.0,0.001,0.0,0.0,0.0,0.0,-0.008312112409638554,0.33563363855421685,2.1943846987951807,-0.3263342168674699,0.002416287590361446,0.9389343493975904,0.20951693132530122,0.17853641686746988,0.16513637349397592,,0.061,0.042915662650602406,2279.66,2301.44,80.8,32.10843373493976,42.5,0.844
3,2025-09-27 22:54:54.602000+00:00,82494602,0.0,0.0,0.001,0.0,0.0,0.0,0.0,-0.008313513555555556,0.33570062222222224,2.1940619999999997,-0.32511644444444443,0.0018275282222222223,0.9386257111111111,-0.01579977111111111,-0.07348247555555557,0.226845,,0.061,0.042,2279.66,2301.44,80.8,32.18222222222222,42.5,0.844
4,2025-09-27 22:54:54.702000+00:00,82494702,0.0,0.0,0.001,0.0,0.0,0.0,0.0,-0.008094861703703703,0.3354532148148148,2.1938619999999998,-0.32586829629629627,0.004716187481481482,0.9382286740740741,-0.17982340074074074,-0.5928919570370371,0.142445,,0.061,0.042,2279.66,2301.44,80.8,32.10814814814815,42.5,0.844
5,2025-09-27 22:54:54.802000+00:00,82494802,0.0,0.0,0.001,0.0,0.0,0.0,0.0,-0.008332704494382023,0.3351628651685393,2.193330786516854,-0.32754019101123594,0.006248750674157304,0.9378523033707865,0.23432901123595506,0.11626374606741573,0.22794283146067418,,0.061,0.042,2279.66,2301.44,80.8,32.19775280898877,42.5,0.844
6,2025-09-27 22:54:54.902000+00:00,82494902,0.0,0.0,0.001,0.0,0.0,0.0,0.0,-0.008743224285714286,0.335055,2.1928685714285714,-0.3265627142857143,2.1291428571428668e-05,0.9377361428571428,0.25355937142857143,-0.06892167142857143,0.23819014285714288,,0.061142857142857145,0.042,2279.66,2301.44,80.8,32.1,42.5,0.844
7,2025-09-27 22:54:55.002000+00:00,82495002,0.0,0.0,0.001,0.0,0.0,0.0,0.0,-0.009061552666666667,0.3349569333333333,2.1924217777777777,-0.3267988888888889,0.008211399333333333,0.9377679333333333,-0.024498237777777775,0.0175419,0.30475715555555555,,0.06175555555555556,0.042,2279.66,2301.44,80.8,32.1,42.5,0.844
8,2025-09-27 22:54:55.102000+00:00,82495102,0.0,0.0,0.001,0.0,0.0,0.0,0.0,-0.009114511720430108,0.33484563440860216,2.191987311827957,-0.3259852903225806,0.005170775290322581,0.9378745913978495,0.07365866559139785,-0.11269925698924732,0.26856324731182796,,0.061,0.042,2279.66,2301.44,80.8,32.134408602150536,42.5,0.844
9,2025-09-27 22:54:55.202000+00:00,82495202,0.0,0.0,0.001,0.0,0.0,0.0,0.0,-0.0092356,0.334681,2.19162,-0.323563,0.000635016,0.937931,0.169148,-0.158225,0.306744,,0.061,0.042,2279.66,2301.44,80.8,32.2,42.5,0.844
10,2025-09-27 22:54:55.302000+00:00,82495302,0.0,0.0,0.001,0.0,0.0,0.0,0.0,-0.009410426744186047,0.3346210930232558,2.1914060465116276,-0.32294253488372093,0.0008766946511627907,0.9380048139534883,0.20644651162790698,-0.12081844186046511,0.30308860465116283,,0.061,0.042534883720930235,2279.66,2301.44,80.8,32.14651162790698,42.5,0.844
11,2025-09-27 22:54:55.402000+00:00,82495402,0.0,0.0,0.001,0.0,0.0,0.0,0.0,-0.010011514516129033,0.33444448387096776,2.190929677419355,-0.32533009677419356,0.0036695145161290323,0.9380631935483871,0.6556174193548387,-0.13243229032258064,0.39980935483870966,,0.061,0.043,2279.66,2301.44,80.8,32.1,42.5,0.844
12,2025-09-27 22:54:55.502000+00:00,82495502,0.0,0.0,0.001,0.0,0.0,0.0,0.0,-0.01128900843373494,0.33429124096385543,2.1902453012048193,-0.32788365060240965,0.006207798313253012,0.9382044939759037,0.7011380602409638,-0.045280443373493975,0.2995513253012048,,0.061,0.043,2279.66,2301.44,80.8,32.1,42.5,0.844
13,2025-09-27 22:54:55.602000+00:00,82495602,0.0,0.0,0.001,0.0,0.0,0.0,0.0,-0.01191401304347826,0.3343878695652174,2.1897730434782607,-0.3261003043478261,0.0060548586956521745,0.9384937391304348,-0.19276043478260874,0.23510492173913042,0.07782340434782609,,0.061,0.04208695652173913,2279.66,2301.44,80.8,32.1,42.5,0.844
14,2025-09-27 22:54:55.702000+00:00,82495702,0.0,0.0,0.001,0.0,0.0,0.0,0.0,-0.0116741,0.3346350882352941,2.1895979411764706,-0.3290302352941177,0.006290119117647059,0.9387026764705882,-0.12392376470588237,0.11806123823529413,0.14361380294117645,,0.06167647058823529,0.042,2279.66,2301.44,80.8,32.1,42.5,0.844
15,2025-09-27 22:54:55.802000+00:00,82495802,0.0,0.0,0.001,0.0,0.0,0.0,0.0,-0.011438824210526315,0.3348440842105263,2.1893826315789475,-0.3232830842105263,0.007287066105263158,0.9387385368421053,0.029926534736842106,0.009189921052631576,0.17669985263157895,,0.06141052631578947,0.042,2279.66,2301.44,80.8,32.1,42.5,0.844
16,2025-09-27 22:54:55.902000+00:00,82495902,0.0,0.0,0.001,0.0,0.0,0.0,0.0,-0.011246279761904761,0.33506713095238094,2.1890040476190475,-0.32432938095238095,0.009031058095238095,0.9386025119047618,0.036541440476190484,0.0821096619047619,0.1753732023809524,,0.061,0.042,2279.66,2301.44,80.8,32.17261904761905,42.5,0.844
17,2025-09-27 22:54:56.002000+00:00,82496002,0.0,0.0,0.001,0.0,0.0,0.0,0.0,-0.011154833333333333,0.33520125,2.1887425,-0.32576458333333336,0.009428469166666667,0.9385043333333333,-0.023228958333333327,0.07966357499999999,0.18064249999999998,,0.06158333333333333,0.042,2279.66,2301.44,80.8,32.141666666666666,42.5,0.844
18,2025-09-27 22:54:56.102000+00:00,82496102,0.0,0.0,0.001,0.0,0.0,0.0,0.0,-0.011045914893617021,0.3353284042553192,2.1885597872340425,-0.32579755319148934,0.008312164468085106,0.9384533404255319,-0.030029074468085108,0.05050472127659574,0.1815377659574468,,0.061680851063829784,0.042,2279.66,2301.44,80.8,32.1,42.5,0.844
19,2025-09-27 22:54:56.202000+00:00,82496202,0.0,0.0,0.001,0.0,0.0,0.0,0.0,-0.01088156,0.33549717777777777,2.188386888888889,-0.3273594444444444,0.005980180666666666,0.9384271333333333,0.02419031777777778,0.05051997111111112,0.18302731111111112,,0.061,0.042,2279.66,2301.44,80.8,32.1,42.5,0.844
20,2025-09-27 22:54:56.302000+00:00,82496302,0.0,0.0,0.001,0.0,0.0,0.0,0.0,-0.01082848202247191,0.3357777191011236,2.1878286516853933,-0.33021668539325844,0.0063686768539325846,0.9382063483146068,0.13335364943820224,0.06246756179775281,0.2744635393258427,,0.061157303370786516,0.042,2279.66,2301.44,80.8,32.1,42.5,0.844
21,2025-09-27 22:54:56.402000+00:00,82496402,0.0,0.0,0.001,0.0,0.0,0.0,0.0,-0.010746922580645161,0.33592208602150536,2.1873817204301074,-0.3259459139784946,0.008122595483870967,0.9381202150537634,-0.03801204193548387,0.08234968817204301,0.13052994623655914,,0.061731182795698926,0.042,2279.66,2301.44,80.8,32.1,42.5,0.844
22,2025-09-27 22:54:56.502000+00:00,82496502,0.0,0.0,0.001,0.0,0.0,0.0,0.0,-0.0106594,0.336042,2.18706,-0.329226,0.00700382,0.938012,0.0174481,-0.0195342,0.178089,,0.06135555555555555,0.042,2279.66,2301.44,80.8,32.1,42.5,0.844
23,2025-09-27 22:54:56.602000+00:00,82496602,0.0,0.0,0.001,0.0,0.0,0.0,0.0,-0.010596298795180722,0.33598178313253013,2.186882891566265,-0.3305421686746988,0.0069948532530120485,0.9379006746987951,-0.12369623975903615,-0.01940749156626506,0.19047140963855422,,0.06149397590361445,0.042,2279.66,2301.44,80.8,32.1,42.5,0.844
24,2025-09-27 22:54:56.702000+00:00,82496702,0.0,0.0,0.001,0.0,0.0,0.0,0.0,-0.010154287666666666,0.3360075666666667,2.186611666666667,-0.3285007111111111,0.005400075111111111,0.9379355666666667,-0.3152145777777778,0.20925388,0.11279928444444445,,0.061,0.042,2279.66,2301.44,80.8,32.1,42.5,0.844
25,2025-09-27 22:54:56.802000+00:00,82496802,0.0,0.0,0.001,0.0,0.0,0.0,0.0,-0.009867199111111112,0.33604484444444443,2.186422,-0.32589842222222226,0.009566970666666667,0.9380002666666667,-0.1589899933333333,0.07947122222222225,0.12384508444444443,,0.061,0.042,2279.66,2301.44,80.8,32.1,42.5,0.844
26,2025-09-27 22:54:56.902000+00:00,82496902,0.0,0.0,0.001,0.0,0.0,0.0,0.0,-0.009747511089108912,0.336024198019802,2.1861486138613864,-0.32592224752475246,0.010057629900990099,0.9379879801980198,-0.008085529702970294,-0.11261989306930692,0.157626,,0.061,0.041663366336633666,2279.66,2301.44,80.8,32.1,42.5,0.844
27,2025-09-27 22:54:57.002000+00:00,82497002,0.0,0.0,0.001,0.0,0.0,0.0,0.0,-0.009524945375,0.33602092499999997,2.1857751249999997,-0.3277912,0.0015749037500000001,0.9380000875000001,-0.139648295,-0.01951903,0.1795742125,,0.061,0.041412500000000005,2279.66,2301.44,80.8,32.1,42.5,0.844
28,2025-09-27 22:54:57.102000+00:00,82497102,0.0,0.0,0.001,0.0,0.0,0.0,0.0,-0.009046107032967033,0.3358389230769231,2.1855642857142854,-0.32669594505494504,0.0016028126373626374,0.9378599230769231,-0.1335231054945055,0.0220875978021978,0.2611808791208791,,0.061,0.042,2279.66,2301.44,80.8,32.1,42.5,0.844
29,2025-09-27 22:54:57.202000+00:00,82497202,0.0,0.0,0.001,0.0,0.0,0.0,0.0,-0.008733960681818182,0.3355374545454545,2.1853338636363637,-0.32755781818181817,0.0033509831818181817,0.9376655,-0.10822665000000001,-0.04885714772727272,0.11115718863636365,,0.061704545454545456,0.042,2279.66,2301.44,80.8,32.1,42.5,0.844
30,2025-09-27 22:54:57.302000+00:00,82497302,0.0,0.0,0.001,0.0,0.0,0.0,0.0,-0.008624084838709677,0.33549191397849465,2.1849417204301074,-0.3287257096774193,0.002512375376344086,0.9376576666666667,-0.12938391397849464,0.076823211827957,0.10535639462365592,,0.061204301075268815,0.042,2279.66,2301.44,80.8,32.1,42.5,0.844
31,2025-09-27 22:54:57.402000+00:00,82497402,0.0,0.0,0.001,0.0,0.0,0.0,0.0,-0.00860913,0.335496,2.18486,-0.328825,0.00211369,0.937664,-0.128134,0.11987,0.119163,,0.0618804347826087,0.042,2279.66,2301.44,80.8,32.1,42.5,0.844
32,2025-09-27 22:54:57.502000+00:00,82497502,0.0,0.0,0.001,0.0,0.0,0.0,0.0,-0.008613876666666666,0.33553184848484846,2.184550303030303,-0.32617194949494954,-0.0019084174747474745,0.9376082525252525,0.18002244444444443,0.12532271717171717,0.30643658585858585,,0.06194949494949495,0.042,2279.66,2301.44,80.8,32.1,42.5,0.844
33,2025-09-27 22:54:57.602000+00:00,82497602,0.0,0.0,0.001,0.0,0.0,0.0,0.0,-0.008951409101123596,0.33572219101123596,2.1841516853932585,-0.327291,0.005190597258426966,0.9377038314606742,0.3648329730337079,0.1874848202247191,0.3468343370786517,,0.061067415730337075,0.042,2279.66,2301.44,80.8,32.1,42.5,0.844
34,2025-09-27 22:54:57.702000+00:00,82497702,0.0,0.0,0.001,0.0,0.0,0.0,0.0,-0.009428599120879122,0.3357981098901099,2.18367967032967,-0.3296407032967033,0.0017754175164835166,0.9376321648351649,0.13237865274725275,0.06876980219780218,0.23737382417582417,,0.061813186813186816,0.042,2279.66,2301.44,80.8,32.1,42.5,0.844
35,2025-09-27 22:54:57.802000+00:00,82497802,0.0,0.0,0.001,0.0,0.0,0.0,0.0,-0.009823245714285713,0.33579835714285716,2.1832185714285717,-0.3271425238095238,0.00868853619047619,0.937499238095238,0.2593265714285714,-0.09402852857142859,0.22790185714285716,,0.061,0.042,2279.66,2301.44,80.8,32.1,42.5,0.844
36,2025-09-27 22:54:57.902000+00:00,82497902,0.0,0.0,0.001,0.0,0.0,0.0,0.0,-0.009921525531914895,0.3357768723404255,2.1828806382978723,-0.322472085106383,0.006026929787234042,0.9374813404255319,0.07812268085106383,0.03006263404255319,0.22159817021276595,,0.061595744680851064,0.042297872340425535,2279.66,2301.44,80.8,32.1,42.5,0.844
37,2025-09-27 22:54:58.002000+00:00,82498002,0.0,0.0,0.001,0.0,0.0,0.0,0.0,-0.009851765176470588,0.33581807058823526,2.1826663529411765,-0.3214257294117647,0.0015799076470588236,0.9375009529411765,-0.12037524588235295,-0.01858698705882353,0.19017163529411765,,0.0629764705882353,0.04298823529411765,2279.66,2301.44,80.8,32.1,42.5,0.844
38,2025-09-27 22:54:58.102000+00:00,82498102,0.0,0.0,0.001,0.0,0.0,0.0,0.0,-0.01000780989247312,0.3357537634408602,2.182279139784946,-0.32466846236559144,0.0013176594193548387,0.9375370860215054,0.029445037634408602,0.07453606129032259,0.17607390322580646,,0.061172043010752686,0.042,2279.66,2301.44,80.8,32.1,42.5,0.844
39,2025-09-27 22:54:58.202000+00:00,82498202,0.0,0.0,0.001,0.0,0.0,0.0,0.0,-0.010059231417910448,0.3358227462686567,2.1818385074626865,-0.3252458208955224,0.0010135937014925374,0.9377433880597015,0.0372043380597015,0.15414714104477611,0.15045435223880596,,0.06182835820895522,0.042,2279.66,2301.44,80.8,32.1,42.5,0.844
40,2025-09-27 22:54:58.302000+00:00,82498302,0.0,0.0,0.001,0.0,0.0,0.0,0.0,-0.009997194104477612,0.3358346865671642,2.1816146268656715,-0.3262189552238806,0.006897148925373134,0.9378015970149254,-0.18008245298507464,-0.0034392022388059773,0.06624718805970148,,0.0610820895522388,0.042,2279.66,2301.44,80.8,32.1,42.5,0.844
41,2025-09-27 22:54:58.402000+00:00,82498402,0.0,0.0,0.001,0.0,0.0,0.0,0.0,-0.00923489,0.335956,2.18132,-0.330011,0.00257766,0.937931,-0.267598,-0.0199974,0.13283,0.0,0.06,0.041,2279.66,2301.44,80.8,32.1,42.5,0.844
42,2025-09-27 22:54:58.502000+00:00,82498502,0.0,0.0,0.001,0.0,0.0,0.0,0.0,-0.009008811666666667,0.335779,2.181005,-0.3270895,0.004177946666666666,0.937808,-0.02903995,-0.171151,0.18371933333333332,,0.061,0.042,2279.66,2301.44,80.8,32.1,42.5,0.844
43,2025-09-27 22:54:58.602000+00:00,82498602,0.0,0.0,0.001,0.0,0.0,0.0,0.0,-0.008973096732673267,0.33546058415841584,2.1807181188118814,-0.32754333663366336,0.010316312673267327,0.9376717623762376,0.05417374059405941,-0.21205258415841585,0.19423164356435643,,0.061,0.042,2279.66,2301.44,80.8,32.1,42.5,0.844
44,2025-09-27 22:54:58.702000+00:00,82498702,0.0,0.0,0.001,0.0,0.0,0.0,0.0,-0.008889947419354838,0.3352344193548387,2.1804525806451616,-0.3222820322580645,0.011317352903225806,0.9376976129032257,-0.019173109677419357,-0.14522748387096773,0.25286116129032254,,0.06119354838709677,0.042193548387096776,2279.66,2301.44,80.8,32.1,42.5,0.844
45,2025-09-27 22:54:58.802000+00:00,82498802,0.0,0.0,0.001,0.0,0.0,0.0,0.0,-0.00883702,0.335032,2.18013,-0.326753,0.00456674,0.937821,0.0932981,-0.0888795,0.242416,0.0,0.062,0.043,2279.66,2301.44,80.8,32.1,42.5,0.844
46,2025-09-27 22:54:58.902000+00:00,82498902,0.0,0.0,0.001,0.0,0.0,0.0,0.0,-0.009009012068965516,0.3348829655172414,2.1797179310344825,-0.3221070689655173,0.0011350495172413795,0.9380044137931035,0.16830413793103446,-0.14384142068965516,0.29697806896551726,,0.061,0.042,2279.66,2301.44,80.8,32.1,42.5,0.845
47,2025-09-27 22:54:59.002000+00:00,82499002,0.0,0.0,0.001,0.0,0.0,0.0,0.0,-0.00908743275862069,0.33485262068965516,2.1794972413793103,-0.32724775862068967,0.0006717446896551724,0.938088551724138,0.15986551724137932,-5.627586206896629e-06,0.19931875862068965,,0.061,0.042,2279.66,2301.44,80.8,32.1,42.5,0.845
48,2025-09-27 22:54:59.102000+00:00,82499102,0.0,0.0,0.001,0.0,0.0,0.0,0.0,-0.00935775142857143,0.33469985714285716,2.17907,-0.32656771428571424,0.001251025142857143,0.9381115714285714,0.36488699999999996,-0.09881445714285716,0.24880657142857143,,0.061,0.042,2279.66,2301.44,80.8,32.1,42.5,0.845
49,2025-09-27 22:54:59.202000+00:00,82499202,0.0,0.0,0.001,0.0,0.0,0.0,0.0,-0.009948958823529412,0.33460904705882355,2.1785208235294116,-0.32575447058823526,0.0012014976470588233,0.9381081294117648,0.5854706235294118,0.026093710588235286,0.45186545882352946,,0.06012941176470588,0.042,2279.66,2301.44,80.8,32.1,42.5,0.845
50,2025-09-27 22:54:59.302000+00:00,82499302,0.0,0.0,0.001,0.0,0.0,0.0,0.0,-0.01066474387755102,0.33473931632653064,2.177978673469388,-0.32737664285714285,0.006437530918367347,0.9382215204081632,0.1403732336734695,0.1784714326530612,0.2613644285714286,,0.06090816326530612,0.042,2279.66,2301.44,80.8,32.1,42.409183673469386,0.845
51,2025-09-27 22:54:59.402000+00:00,82499402,0.0,0.0,0.001,0.0,0.0,0.0,0.0,-0.010761051798561152,0.3350328489208633,2.1776325179856113,-0.33028541007194245,0.0026680026618705033,0.9383242158273382,-0.049371743884892086,0.24166334892086327,0.11100537410071942,,0.061,0.042,2279.66,2301.44,80.8,32.1,42.4,0.845
52,2025-09-27 22:54:59.502000+00:00,82499502,0.0,0.0,0.001,0.0,0.0,0.0,0.0,-0.010691627338129495,0.3351645035971223,2.177438273381295,-0.3274566330935252,0.003722254460431655,0.9382932805755396,0.05096221294964028,0.04014500359712228,0.10426508633093526,,0.061,0.042,2279.66,2301.44,80.8,32.1,42.4,0.845
53,2025-09-27 22:54:59.602000+00:00,82499602,0.0,0.0,0.001,0.0,0.0,0.0,0.0,-0.01065989420289855,0.33525421739130434,2.177166956521739,-0.3267119855072464,0.007797261159420289,0.9381632753623189,0.010319689855072464,-0.020246992753623187,0.10844915942028985,,0.06150724637681159,0.042,2279.66,2301.44,80.8,32.1,42.4,0.845
54,2025-09-27 22:54:59.702000+00:00,82499702,0.0,0.0,0.001,0.0,0.0,0.0,0.0,-0.010581559740259741,0.3353782207792208,2.1767896103896103,-0.3279575194805195,0.004515014545454545,0.9380077662337662,-0.08483887012987013,0.06740547402597402,0.14510532467532467,,0.061168831168831164,0.042,2279.66,2301.44,80.8,32.1,42.4,0.845
55,2025-09-27 22:54:59.802000+00:00,82499802,0.0,0.0,0.001,0.0,0.0,0.0,0.0,-0.010546487943262411,0.33555694326241137,2.1764056737588655,-0.329044695035461,-0.000247737163120567,0.9379364468085106,-0.03564185460992908,0.16375989361702128,0.23569382978723405,,0.06078014184397163,0.042,2279.66,2301.44,80.8,32.1,42.4,0.845
56,2025-09-27 22:54:59.902000+00:00,82499902,0.0,0.0,0.001,0.0,0.0,0.0,0.0,-0.010634253333333333,0.3356912222222222,2.176147333333333,-0.3283368111111111,0.007699072666666667,0.9379055,0.09351645555555556,0.12177236666666667,0.30504847777777777,,0.06192222222222222,0.042,2279.66,2301.44,80.8,32.1,42.4,0.845
57,2025-09-27 22:55:00.002000+00:00,82500002,0.0,0.0,0.001,0.0,0.0,0.0,0.0,-0.01058892,0.33583566666666664,2.175914,-0.32911403333333333,0.008756306,0.9378805,0.051377566666666666,0.1214107,0.26970903333333335,,0.06136666666666667,0.042,2279.66,2301.44,80.8,32.1,42.4,0.845
58,2025-09-27 22:55:00.102000+00:00,82500102,0.0,0.0,0.001,0.0,0.0,0.0,0.0,-0.010464760869565218,0.33596647826086956,2.175545652173913,-0.3282496304347826,0.008406018913043479,0.9377594130434783,-0.030236106521739123,0.12095469565217391,0.22513721739130435,,0.061,0.0416304347826087,2279.66,2301.44,80.8,32.1,42.4,0.845
59,2025-09-27 22:55:00.202000+00:00,82500202,0.0,0.0,0.001,0.0,0.0,0.0,0.0,-0.01027525,0.33607200000000004,2.17498,-0.327077,0.00412669,0.9375089999999999,-0.0810322,0.0162717,0.2566355,,0.061,0.0415,2279.66,2301.44,80.8,32.1,42.4,0.845
60,2025-09-27 22:55:00.302000+00:00,82500302,0.0,0.0,0.001,0.0,0.0,0.0,0.0,-0.010328132835820895,0.3361477313432836,2.1746241791044776,-0.3272316417910448,0.0022397414925373134,0.9373945820895523,0.08332989253731343,-0.08784011044776119,0.34396928358208956,,0.061,0.042,2279.66,2301.44,80.8,32.1,42.4,0.845
61,2025-09-27 22:55:00.402000+00:00,82500402,0.0,0.0,0.001,0.0,0.0,0.0,0.0,-0.01045086,0.33615253333333334,2.174348,-0.3261442666666667,0.0026577506666666667,0.9373064666666667,0.14549613333333333,-0.06958945333333333,0.3032265333333334,,0.061,0.04173333333333334,2279.66,2301.44,80.8,32.1,42.4,0.845
62,2025-09-27 22:55:00.502000+00:00,82500502,0.0,0.0,0.001,0.0,0.0,0.0,0.0,-0.010442626966292135,0.336059202247191,2.1740506741573036,-0.3265056404494382,0.0012730532808988763,0.9372330449438202,-0.0748555415730337,-0.020170467415730337,0.11592095505617978,,0.06138202247191011,0.04138202247191011,2279.66,2301.44,80.8,32.1,42.4,0.845
63,2025-09-27 22:55:00.602000+00:00,82500602,0.0,0.0,0.001,0.0,0.0,0.0,0.0,-0.010339024175824177,0.3360744065934066,2.1737465934065936,-0.327676021978022,0.002569818659340659,0.9372832307692308,0.08332119999999998,-0.054570487912087906,0.13714516483516484,,0.0615054945054945,0.042,2279.66,2301.44,80.8,32.1,42.4,0.845
64,2025-09-27 22:55:00.702000+00:00,82500702,0.0,0.0,0.001,0.0,0.0,0.0,0.0,-0.01028232087912088,0.3360907142857143,2.173427912087912,-0.3278126813186813,0.004825581648351648,0.9373406373626374,0.11553274945054945,-0.006546061538461531,0.16935010989010987,,0.061,0.042,2279.66,2301.44,80.8,32.1,42.4,0.845
65,2025-09-27 22:55:00.802000+00:00,82500802,0.0,0.0,0.001,0.0,0.0,0.0,0.0,-0.009974276966292136,0.33620501123595503,2.173168426966292,-0.325170393258427,0.0064186991011235955,0.9374585617977528,-0.2713380471910113,0.1482898202247191,0.05247821898876405,,0.061,0.042,2279.66,2301.44,80.8,32.1,42.4,0.845
66,2025-09-27 22:55:00.902000+00:00,82500902,0.0,0.0,0.001,0.0,0.0,0.0,0.0,-0.00970565,0.3362279104477612,2.172994029850746,-0.32369228358208957,0.005667401940298507,0.9374516119402985,-0.1781098552238806,-0.003609388059701485,0.10068792388059701,,0.06155223880597015,0.042,2279.66,2301.44,80.8,32.1,42.4,0.845
67,2025-09-27 22:55:01.002000+00:00,82501002,0.0,0.0,0.001,0.0,0.0,0.0,0.0,-0.009687695161290323,0.33609774193548386,2.1727408602150535,-0.3256279247311828,0.006481838387096774,0.9373516344086021,0.044809089247311834,-0.12975487096774194,0.14659167741935483,,0.06156989247311828,0.042,2279.66,2301.44,80.8,32.1,42.4,0.845
68,2025-09-27 22:55:01.102000+00:00,82501102,0.0,0.0,0.001,0.0,0.0,0.0,0.0,-0.009947902417582416,0.33590974725274725,2.172251098901099,-0.32873697802197804,0.005706871868131868,0.9373764285714286,0.09054168021978022,-0.016897138461538466,0.21026,,0.06151648351648351,0.042,2279.66,2301.44,80.8,32.1,42.4,0.845
69,2025-09-27 22:55:01.202000+00:00,82501202,0.0,0.0,0.001,0.0,0.0,0.0,0.0,-0.010194587234042552,0.33582712765957445,2.1717755319148937,-0.3266254680851064,0.002329247234042553,0.9375330000000001,0.17885612978723403,-0.07377274042553192,0.26316323404255315,,0.06080851063829787,0.042,2279.66,2301.44,80.8,32.1,42.4,0.845
70,2025-09-27 22:55:01.302000+00:00,82501302,0.0,0.0,0.001,0.0,0.0,0.0,0.0,-0.010475392307692307,0.3357344769230769,2.1714344615384613,-0.3276106,0.003496997692307692,0.937565276923077,0.232762,-0.12561814923076925,0.23055604615384614,,0.06095384615384615,0.042,2279.66,2301.44,80.8,32.1,42.4,0.845
71,2025-09-27 22:55:01.402000+00:00,82501402,0.0,0.0,0.001,0.0,0.0,0.0,0.0,-0.01080969175257732,0.335686793814433,2.1710352577319587,-0.32883194845360825,0.005506031443298969,0.9376022164948454,0.16173061030927835,-0.0660865969072165,0.21299601030927834,,0.06167010309278351,0.04167010309278351,2279.66,2301.44,80.8,32.1,42.4,0.845
72,2025-09-27 22:55:01.502000+00:00,82501502,0.0,0.0,0.001,0.0,0.0,0.0,0.0,-0.010980842682926829,0.33577779268292685,2.170540487804878,-0.3265535243902439,0.006509107317073171,0.9377318292682927,-0.10944060121951221,0.0692882024390244,0.09832964695121951,,0.061,0.041426829268292685,2279.66,2301.44,80.8,32.1,42.4,0.845
73,2025-09-27 22:55:01.602000+00:00,82501602,0.0,0.0,0.001,0.0,0.0,0.0,0.0,-0.010722912121212121,0.3359279090909091,2.170256868686869,-0.328431696969697,0.0036327483838383837,0.9378019191919192,-0.07680122525252525,0.04041572323232323,0.1630302987878788,,0.06153535353535353,0.042,2279.66,2301.44,80.8,32.1,42.4,0.845
74,2025-09-27 22:55:01.702000+00:00,82501702,0.0,0.0,0.001,0.0,0.0,0.0,0.0,-0.010702644303797469,0.3360222405063291,2.1699175949367087,-0.328468,0.005101015569620253,0.9377292405063291,0.0910523253164557,-0.04129585063291139,0.21632986075949368,,0.06131645569620253,0.042,2279.66,2301.44,80.8,32.1,42.4,0.845
75,2025-09-27 22:55:01.802000+00:00,82501802,0.0,0.0,0.001,0.0,0.0,0.0,0.0,-0.010879181521739131,0.33607702173913045,2.1695654347826085,-0.32643077173913043,0.005768171630434782,0.9376419021739131,-0.026513422826086944,0.09462966739130435,0.18077779347826087,,0.061,0.042,2279.66,2301.44,80.8,32.1,42.4,0.845
76,2025-09-27 22:55:01.902000+00:00,82501902,0.0,0.0,0.001,0.0,0.0,0.0,0.0,-0.010841617000000001,0.33617747,2.1691863,-0.32750893000000003,0.0026473263000000003,0.9375538099999999,0.18430418000000004,0.06280860999999999,0.22093242000000002,,0.061,0.042,2279.66,2301.44,80.8,32.1,42.4,0.845
77,2025-09-27 22:55:02.002000+00:00,82502002,0.0,0.0,0.001,0.0,0.0,0.0,0.0,-0.0108228,0.336396,2.16878,-0.325781,0.00358992,0.937512,0.169148,-0.0182321,0.305311,0.0,0.062,0.042,2279.66,2301.44,80.8,32.1,42.4,0.845
78,2025-09-27 22:55:02.102000+00:00,82502102,0.0,0.0,0.001,0.0,0.0,0.0,0.0,-0.0109095,0.336433,2.16847,-0.329653,0.00695407,0.937367,0.0871803,0.190392,0.169822,,0.061,0.042,2279.66,2301.44,80.8,32.1,42.4,0.845
79,2025-09-27 22:55:02.202000+00:00,82502202,0.0,0.0,0.001,0.0,0.0,0.0,0.0,-0.010944251162790698,0.3365031744186046,2.1683454651162792,-0.32938989534883717,0.00598626,0.9373460465116279,0.11958619418604652,0.1909316511627907,0.22253761627906976,,0.06119767441860465,0.042197674418604655,2279.66,2301.44,80.8,32.1,42.4,0.845
80,2025-09-27 22:55:02.302000+00:00,82502302,0.0,0.0,0.001,0.0,0.0,0.0,0.0,-0.011258150549450549,0.3369075714285714,2.167662857142857,-0.3289610769230769,0.0025795645054945055,0.9372810989010989,0.24277972527472527,0.1444595967032967,0.3419745054945055,,0.062,0.042659340659340655,2279.66,2301.44,80.8,32.1,42.4,0.845
81,2025-09-27 22:55:02.402000+00:00,82502402,0.0,0.0,0.001,0.0,0.0,0.0,0.0,-0.011735955813953487,0.3371976046511628,2.167138604651163,-0.3299640465116279,0.005832660697674419,0.9372706976744186,0.1589321627906977,0.050000579069767445,0.13227906976744186,,0.062,0.042465116279069764,2279.66,2301.44,80.8,32.1,42.4,0.845
82,2025-09-27 22:55:02.502000+00:00,82502502,0.0,0.0,0.001,0.0,0.0,0.0,0.0,-0.011870140909090908,0.3372791136363636,2.166764318181818,-0.3280934090909091,0.009392985,0.937077159090909,0.08481656590909091,0.007171477272727274,0.14475400000000002,,0.062,0.043,2279.66,2301.44,80.8,32.1,42.4,0.845
83,2025-09-27 22:55:02.602000+00:00,82502602,0.0,0.0,0.001,0.0,0.0,0.0,0.0,-0.01182328775510204,0.3373135918367347,2.1664714285714286,-0.3278318775510204,0.008608314897959183,0.9369182653061224,0.04433794897959184,-0.01907405306122449,0.2230509591836735,,0.062,0.0423265306122449,2279.66,2301.44,80.8,32.1,42.4,0.845
84,2025-09-27 22:55:02.702000+00:00,82502702,0.0,0.0,0.001,0.0,0.0,0.0,0.0,-0.011581533333333333,0.3372895714285714,2.166177619047619,-0.32860119047619046,0.00402345380952381,0.9368230952380953,-0.08933344761904763,0.037944504761904765,0.2571419047619048,,0.062,0.042,2279.66,2301.44,80.8,32.1,42.4,0.845
85,2025-09-27 22:55:02.802000+00:00,82502802,0.0,0.0,0.001,0.0,0.0,0.0,0.0,-0.011436582222222222,0.33725611111111115,2.1659557777777776,-0.3272646444444444,0.003093923777777778,0.936781,-0.25748466666666664,-0.08057402222222222,0.14193274666666666,,0.061377777777777774,0.042,2279.66,2301.44,80.8,32.1,42.4,0.845
86,2025-09-27 22:55:02.902000+00:00,82502902,0.0,0.0,0.001,0.0,0.0,0.0,0.0,-0.010957432584269662,0.33711767415730337,2.165723370786517,-0.32805219101123595,0.0014079797146067416,0.9367645505617977,-0.1029922820224719,-0.044057226966292135,0.1644303820224719,,0.061,0.042,2279.66,2301.44,80.8,32.1,42.4,0.845
87,2025-09-27 22:55:03.002000+00:00,82503002,0.0,0.0,0.001,0.0,0.0,0.0,0.0,-0.010628717391304348,0.33701895652173913,2.1653917391304347,-0.327664347826087,0.0010457283999999998,0.9368302173913043,-0.1005815304347826,-0.1327191043478261,0.12238591304347828,,0.06034782608695652,0.04134782608695652,2279.66,2301.44,80.8,32.1,42.4,0.845
88,2025-09-27 22:55:03.102000+00:00,82503102,0.0,0.0,0.001,0.0,0.0,0.0,0.0,-0.010472227272727274,0.3368700909090909,2.1651,-0.3286933181818182,0.005013997727272727,0.936831,-0.03287737727272727,-0.12162887272727274,0.15160695454545453,,0.06154545454545454,0.041772727272727274,2279.66,2301.44,80.8,32.1,42.4,0.845
89,2025-09-27 22:55:03.202000+00:00,82503202,0.0,0.0,0.001,0.0,0.0,0.0,0.0,-0.010492601449275362,0.3367813623188406,2.1648702898550725,-0.33032697101449277,0.006814372463768116,0.9368546231884058,0.14581441884057972,-0.16996735362318838,0.24984152173913043,,0.06142028985507246,0.042,2279.66,2301.44,80.8,32.1,42.4,0.845
90,2025-09-27 22:55:03.302000+00:00,82503302,0.0,0.0,0.001,0.0,0.0,0.0,0.0,-0.010534163043478262,0.3366864565217392,2.1645391304347825,-0.33005815217391304,0.008321831739130436,0.936942,0.10316439565217395,-0.1971921304347826,0.21668926086956525,,0.061,0.042,2279.66,2301.44,80.8,32.1,42.4,0.845
91,2025-09-27 22:55:03.402000+00:00,82503402,0.0,0.0,0.001,0.0,0.0,0.0,0.0,-0.010483835164835165,0.33656364835164837,2.164157142857143,-0.329092032967033,0.009165430879120879,0.9370587582417582,0.06326402417582419,-0.08257789010989011,0.1816642967032967,,0.061549450549450546,0.04254945054945055,2279.66,2301.44,80.8,32.1,42.4,0.845
92,2025-09-27 22:55:03.502000+00:00,82503502,0.0,0.0,0.001,0.0,0.0,0.0,0.0,-0.010469148837209303,0.336387476744186,2.1638341860465116,-0.32974458139534885,0.002947757279069768,0.9370635,0.06735114069767442,-0.16292240232558142,0.24545077906976745,,0.06062790697674418,0.042313953488372094,2279.66,2301.44,80.8,32.1,42.4,0.845
93,2025-09-27 22:55:03.602000+00:00,82503602,0.0,0.0,0.001,0.0,0.0,0.0,0.0,-0.010823470786516855,0.3361519325842697,2.163403707865169,-0.328775,0.00045817597752808984,0.9370541011235954,0.3767777123595505,-0.1705346741573034,0.3336586292134831,,0.060820224719101125,0.042,2279.66,2301.44,80.8,32.1,42.4,0.845
94,2025-09-27 22:55:03.702000+00:00,82503702,0.0,0.0,0.001,0.0,0.0,0.0,0.0,-0.0114586,0.33583225,2.16290125,-0.32601125000000003,0.007488282000000001,0.93699375,0.1384100875,-0.0974898125,0.25611425,,0.061,0.042,2279.66,2301.44,80.8,32.1,42.4,0.845
95,2025-09-27 22:55:03.802000+00:00,82503802,0.0,0.0,0.001,0.0,0.0,0.0,0.0,-0.011427675342465754,0.33556283561643835,2.162585616438356,-0.3297439589041096,0.005676775890410959,0.9370911917808219,-0.13304534520547945,-0.16175938356164385,0.055091265753424656,,0.061986301369863016,0.042,2279.66,2301.44,80.8,32.1,42.4,0.845
96,2025-09-27 22:55:03.902000+00:00,82503902,0.0,0.0,0.001,0.0,0.0,0.0,0.0,-0.011416442465753424,0.33555461643835616,2.1623664383561643,-0.328341904109589,0.009989570410958905,0.9372507808219178,-0.07271260547945205,-0.20827856164383562,0.19466955342465753,,0.0613013698630137,0.042,2279.66,2301.44,80.8,32.1,42.4,0.845
97,2025-09-27 22:55:04.002000+00:00,82504002,0.0,0.0,0.001,0.0,0.0,0.0,0.0,-0.011595626315789474,0.3352735263157895,2.162025789473684,-0.3290071052631579,0.010649254736842105,0.9372506842105263,0.12999935789473685,-0.34679373684210524,0.241836,,0.061,0.042,2279.66,2301.44,80.8,32.1,42.4,0.845
98,2025-09-27 22:55:04.102000+00:00,82504102,0.0,0.0,0.001,0.0,0.0,0.0,0.0,-0.012020379999999999,0.33480431250000003,2.161554875,-0.3286908,0.009520792,0.9372037375000001,0.3574555375,-0.34748288875,0.2824966625,,0.061,0.042,2279.66,2301.44,80.8,32.1,42.4,0.845
99,2025-09-27 22:55:04.202000+00:00,82504202,0.0,0.0,0.001,0.0,0.0,0.0,0.0,-0.012572046875,0.33474869791666667,2.1610408333333333,-0.32476797916666666,0.011171261458333333,0.9375926145833333,0.15371595833333335,0.20869033229166667,0.31898220833333335,,0.061,0.042,2279.66,2301.44,80.8,32.1,42.4,0.845
100,2025-09-27 22:55:04.302000+00:00,82504302,0.0,0.0,0.001,0.0,0.0,0.0,0.0,-0.01269547,0.3350827333333333,2.1606894444444444,-0.3248275222222222,0.010679448666666667,0.9380865888888889,0.017352453333333337,0.25385346666666664,0.13860126666666667,,0.06152222222222222,0.042,2279.66,2301.44,80.8,32.1,42.4,0.845
101,2025-09-27 22:55:04.402000+00:00,82504402,0.0,0.0,0.001,0.0,0.0,0.0,0.0,-0.012917683,0.33526357,2.1603477,-0.32456945,0.0077188689,0.93824299,0.293747412,0.081232878,0.24276451,,0.06143,0.04143,2279.66,2301.44,80.8,32.043,42.4,0.845
102,2025-09-27 22:55:04.502000+00:00,82504502,0.0,0.0,0.001,0.0,0.0,0.0,0.0,-0.013608991891891891,0.3352184189189189,2.1598102702702704,-0.3254254459459459,0.013575522567567567,0.9380950270270271,0.054644335135135114,-0.0580157608108108,0.11539258918918918,,0.06177027027027027,0.041,2279.66,2301.44,80.8,32.07702702702703,42.4,0.845
103,2025-09-27 22:55:04.602000+00:00,82504602,0.0,0.0,0.001,0.0,0.0,0.0,0.0,-0.013606112,0.33519366,2.1594675999999997,-0.32749242,0.01906693,0.93803589,-0.270641302,0.086564759,0.353365256,,0.06117,0.04183,2279.66,2301.44,80.8,32.1,42.4,0.845
104,2025-09-27 22:55:04.702000+00:00,82504702,0.0,0.0,0.001,0.0,0.0,0.0,0.0,-0.012984900561797753,0.3354313426966292,2.1594293258426966,-0.3275231797752809,0.010112338376404495,0.9381658932584269,-0.35393280898876406,0.12194304494382022,0.3217399887640449,,0.061,0.042,2279.66,2301.44,80.8,32.1,42.353370786516855,0.845
105,2025-09-27 22:55:04.802000+00:00,82504802,0.0,0.0,0.001,0.0,0.0,0.0,0.0,-0.01227664117647059,0.3356841176470588,2.159409411764706,-0.3271041176470588,-0.0011794234117647059,0.9382748823529412,-0.3807954,0.10842131764705883,0.2075864705882353,,0.061,0.042,2279.66,2301.44,80.8,32.1,42.305882352941175,0.845
106,2025-09-27 22:55:04.902000+00:00,82504902,0.0,0.0,0.001,0.0,0.0,0.0,0.0,-0.011713095454545455,0.33534745454545456,2.158863181818182,-0.32778413636363635,-0.004400001840909091,0.9375570454545454,-0.008076390909090903,-0.12171646363636364,0.14304354545454545,,0.061,0.042,2279.66,2301.44,80.8,32.1,42.4,0.845
107,2025-09-27 22:55:05.002000+00:00,82505002,0.0,0.0,0.001,0.0,0.0,0.0,0.0,-0.011650512,0.33518072,2.1585452,-0.32753748,0.002898775212,0.93745048,0.16303,-0.161738456,0.237044,,0.061,0.042,2279.66,2301.44,80.8,32.1,42.367999999999995,0.845
108,2025-09-27 22:55:05.102000+00:00,82505102,0.0,0.0,0.001,0.0,0.0,0.0,0.0,-0.011840134146341464,0.3351103414634146,2.1580770731707317,-0.325158512195122,0.00969998780487805,0.9375145853658536,0.019805024390243897,0.11691909756097561,0.16448752195121952,,0.06139024390243902,0.042,2279.66,2301.44,80.8,32.1,42.3,0.845
109,2025-09-27 22:55:05.202000+00:00,82505202,0.0,0.0,0.001,0.0,0.0,0.0,0.0,-0.011723488505747127,0.33524445977011497,2.1576450574712647,-0.3228234827586207,0.008756810344827587,0.9377535747126436,-0.16039204597701148,0.16867104597701152,0.09160734252873563,,0.061425287356321835,0.042,2279.66,2301.44,80.8,32.1,42.3,0.845
110,2025-09-27 22:55:05.302000+00:00,82505302,0.0,0.0,0.001,0.0,0.0,0.0,0.0,-0.011484322,0.33556797,2.1573521,-0.32475169,0.0115891663,0.93802834,-0.128134,0.0498737,0.119879,,0.06163,0.042,2279.66,2301.44,80.8,32.037,42.363,0.845
111,2025-09-27 22:55:05.402000+00:00,82505402,0.0,0.0,0.001,0.0,0.0,0.0,0.0,-0.011359170731707318,0.3356523170731707,2.1570379268292683,-0.3287277804878049,0.011995615853658537,0.9380223048780487,0.04199066219512196,-0.056729368292682915,0.21402328048780486,,0.06123170731707317,0.042,2279.66,2301.44,80.8,32.0,42.323170731707314,0.845
112,2025-09-27 22:55:05.502000+00:00,82505502,0.0,0.0,0.001,0.0,0.0,0.0,0.0,-0.011242188775510205,0.33554173469387755,2.156798163265306,-0.32425398979591835,0.0053962416326530606,0.9378395306122449,0.030605753061224483,-0.031563486734693884,0.18924776530612245,,0.0601734693877551,0.0411734693877551,2279.66,2301.44,80.8,32.0,42.3,0.845
113,2025-09-27 22:55:05.602000+00:00,82505602,0.0,0.0,0.001,0.0,0.0,0.0,0.0,-0.0110987968,0.3356392,2.1565939999999997,-0.328196584,0.0050707187999999995,0.937862784,-0.08734311839999997,0.11856000480000001,0.045886732799999996,,0.060663999999999996,0.041664,2279.66,2301.44,80.8,32.0,42.3,0.845
114,2025-09-27 22:55:05.702000+00:00,82505702,0.0,0.0,0.001,0.0,0.0,0.0,0.0,-0.011077226470588236,0.33582423529411765,2.156365,-0.32914138235294116,0.01031273044117647,0.937931794117647,-0.10280391176470588,0.21917686764705885,0.06528629117647058,,0.061,0.04157352941176471,2279.66,2301.44,80.8,32.04264705882353,42.3,0.845
115,2025-09-27 22:55:05.802000+00:00,82505802,0.0,0.0,0.001,0.0,0.0,0.0,0.0,-0.011119437410071943,0.33599574100719426,2.1561209352517987,-0.3267511726618705,0.01534903381294964,0.9379642589928058,-0.052284,0.19404266187050362,0.18202125899280575,,0.06115827338129496,0.04115827338129496,2279.66,2301.44,80.8,32.084172661870504,42.3,0.845
116,2025-09-27 22:55:05.902000+00:00,82505902,0.0,0.0,0.001,0.0,0.0,0.0,0.0,-0.01106051654676259,0.336003654676259,2.155897913669065,-0.32557923021582735,0.009043278417266189,0.937856345323741,-0.052284,-0.10809978417266186,0.18511334532374102,,0.06187769784172662,0.041877697841726624,2279.66,2301.44,80.8,32.01223021582734,42.3,0.845
117,2025-09-27 22:55:06.002000+00:00,82506002,0.0,0.0,0.001,0.0,0.0,0.0,0.0,-0.010199613186813186,0.33534738461538466,2.155540769230769,-0.3273482857142857,0.0030543708791208792,0.9372788901098901,0.1441012967032967,-0.15898424175824175,0.23249842857142858,,0.06017582417582417,0.042,2279.66,2301.44,80.8,32.0,42.3,0.845
118,2025-09-27 22:55:06.102000+00:00,82506102,0.0,0.0,0.001,0.0,0.0,0.0,0.0,-0.010293761481481482,0.3349505259259259,2.1550966666666667,-0.3260840888888889,0.007166446888888889,0.9371705111111112,0.2374492985185185,-0.13219842962962963,0.3671137925925926,,0.062,0.042051851851851854,2279.66,2301.44,80.8,32.0,42.3,0.845
119,2025-09-27 22:55:06.202000+00:00,82506202,0.0,0.0,0.001,0.0,0.0,0.0,0.0,-0.010470354074074073,0.3352008962962963,2.1547633333333334,-0.32749964444444446,0.008170402444444445,0.9375349555555555,0.12961070592592594,0.2303097185185185,0.32081082962962965,,0.062,0.04279259259259259,2279.66,2301.44,80.8,32.0,42.3,0.845
120,2025-09-27 22:55:06.302000+00:00,82506302,0.0,0.0,0.001,0.0,0.0,0.0,0.0,-0.010687799999999999,0.33544281818181815,2.154451818181818,-0.32795654545454545,0.008945615454545456,0.9377842727272728,0.09607891818181818,0.33142254545454547,0.26981254545454547,,0.061454545454545456,0.04245454545454545,2279.66,2301.44,80.8,32.0,42.3,0.845
121,2025-09-27 22:55:06.402000+00:00,82506402,0.0,0.0,0.001,0.0,0.0,0.0,0.0,-0.01104641224489796,0.335615387755102,2.1539679591836736,-0.3270494489795918,0.010863259795918368,0.9378551632653062,0.00791193673469387,0.2454649387755102,0.24648616326530612,,0.061816326530612246,0.04240816326530612,2279.66,2301.44,80.8,32.0,42.3,0.845
122,2025-09-27 22:55:06.502000+00:00,82506502,0.0,0.0,0.001,0.0,0.0,0.0,0.0,-0.011305591011235955,0.3357736179775281,2.153397865168539,-0.3272631348314607,0.015040337078651687,0.9378064269662921,-0.11878514606741573,0.02186445393258428,0.2267283146067416,,0.06252808988764046,0.04252808988764045,2279.66,2301.44,80.8,32.0,42.3,0.845
123,2025-09-27 22:55:06.602000+00:00,82506602,0.0,0.0,0.001,0.0,0.0,0.0,0.0,-0.011092198863636363,0.3361475227272727,2.1530813636363635,-0.33042195454545453,0.01633334090909091,0.9379498295454546,0.015031159090909116,0.20686909659090905,0.3029531136363637,,0.06139772727272727,0.042,2279.66,2301.44,80.8,32.0,42.3,0.845
124,2025-09-27 22:55:06.702000+00:00,82506702,0.0,0.0,0.001,0.0,0.0,0.0,0.0,-0.01101615693430657,0.33640389051094893,2.1527849635036493,-0.3315223211678832,0.012735353649635036,0.9379728102189782,0.10263125182481753,0.20292384306569342,0.3458145693430657,,0.061,0.042,2279.66,2301.44,80.8,32.0,42.3,0.845
125,2025-09-27 22:55:06.802000+00:00,82506802,0.0,0.0,0.001,0.0,0.0,0.0,0.0,-0.011030717391304349,0.3365378115942029,2.1525028985507246,-0.3308750144927536,0.009543316086956521,0.9378865942028985,0.05572902173913044,-0.0040740362318840585,0.3008586086956522,,0.061,0.042,2279.66,2301.44,80.8,32.0,42.3,0.845
126,2025-09-27 22:55:06.902000+00:00,82506902,0.0,0.0,0.001,0.0,0.0,0.0,0.0,-0.010995065217391305,0.3366407101449275,2.152227536231884,-0.32777863768115945,0.009926837826086957,0.9377851449275363,-0.10029554347826086,0.04626690579710145,0.26311078260869564,,0.061,0.042,2279.66,2301.44,80.8,32.0,42.3,0.845
127,2025-09-27 22:55:07.002000+00:00,82507002,0.0,0.0,0.001,0.0,0.0,0.0,0.0,-0.0105203,0.336586,2.15185,-0.323597,0.00855293,0.937388,-0.343448,-0.0906448,0.0699358,0.0,0.061,0.042,2279.66,2301.44,80.8,32.0,42.3,0.845
128,2025-09-27 22:55:07.102000+00:00,82507102,0.0,0.0,0.001,0.0,0.0,0.0,0.0,-0.008985153333333334,0.3369689777777778,2.1515766666666667,-0.32872137777777777,0.011058281777777778,0.9373965333333334,-0.7528416222222223,-0.01821393333333332,0.15508522222222224,,0.061,0.042,2279.66,2301.44,80.8,32.08222222222222,42.3,0.845
129,2025-09-27 22:55:07.202000+00:00,82507202,0.0,0.0,0.001,0.0,0.0,0.0,0.0,-0.007529347083333334,0.3377145833333334,2.151653958333333,-0.3290953541666667,-0.0039628025,0.9377637916666667,-0.41587927083333337,0.7337796458333333,0.25378219375,,0.061,0.042,2279.66,2301.44,80.8,32.0,42.3,0.845
130,2025-09-27 22:55:07.302000+00:00,82507302,0.0,0.0,0.001,0.0,0.0,0.0,0.0,-0.006802134285714285,0.3384560714285714,2.1514907142857145,-0.3288597142857143,-0.0026410428571428573,0.9378461428571429,-0.3535839285714286,0.3699052857142857,0.1213255642857143,,0.061,0.042,2279.66,2301.44,80.8,32.0,42.3,0.845
131,2025-09-27 22:55:07.402000+00:00,82507402,0.0,0.0,0.001,0.0,0.0,0.0,0.0,-0.006251135,0.339786,2.15115,-0.331985,0.007484231,0.937964,0.1434585,0.36784934999999996,0.409022,,0.061,0.042,2279.66,2301.44,80.8,32.0,42.3,0.845
132,2025-09-27 22:55:07.502000+00:00,82507502,0.0,0.0,0.001,0.0,0.0,0.0,0.0,-0.006542901764705882,0.3404145411764706,2.1505750588235295,-0.3304871294117647,0.005897938964705883,0.9372511647058823,0.5008455764705882,-0.30688226235294114,0.6685552235294119,,0.06163529411764706,0.042,2279.66,2301.44,80.8,32.0,42.3,0.845
133,2025-09-27 22:55:07.602000+00:00,82507602,0.0,0.0,0.001,0.0,0.0,0.0,0.0,-0.0067114166315789476,0.33951986315789473,2.1502765263157895,-0.32790163157894736,-0.002171095810526316,0.9358973789473684,-0.2435145157894737,-1.0989433894736842,0.33408498947368426,,0.06272631578947369,0.042,2279.66,2301.44,80.8,32.0,42.3,0.845
134,2025-09-27 22:55:07.702000+00:00,82507702,0.0,0.0,0.001,0.0,0.0,0.0,0.0,-0.0070808564044943815,0.338400191011236,2.1497477528089886,-0.33103434831460676,0.03213812191011236,0.9352802359550562,0.23975293258426966,0.5672002022471909,-0.2098379550561798,,0.06133707865168539,0.0411685393258427,2279.66,2301.44,80.8,32.0,42.3,0.845
135,2025-09-27 22:55:07.802000+00:00,82507802,0.0,0.0,0.001,0.0,0.0,0.0,0.0,-0.007010784301075269,0.3378048817204301,2.149394086021505,-0.3294425698924731,0.011462973118279571,0.9356006129032258,-0.26279573118279576,-0.06264993548387099,0.23107627956989246,,0.061913978494623656,0.04191397849462366,2279.66,2301.44,80.8,32.0,42.3,0.845
136,2025-09-27 22:55:07.902000+00:00,82507902,0.0,0.0,0.001,0.0,0.0,0.0,0.0,-0.0069971,0.337766,2.14937,-0.329235,0.00884042,0.935637,-0.325095,-0.1585,0.279838,,0.062,0.042,2279.66,2301.44,80.8,32.0,42.3,0.845
137,2025-09-27 22:55:08.002000+00:00,82508002,0.0,0.0,0.001,0.0,0.0,0.0,0.0,-0.006340785,0.3377707142857143,2.149315,-0.33173435714285715,-0.002932707142857144,0.9362443571428571,-0.39911164285714285,0.6642630714285714,0.05705437142857142,,0.061214285714285714,0.042,2279.66,2301.44,80.8,32.0,42.3,0.845
138,2025-09-27 22:55:08.102000+00:00,82508102,0.0,0.0,0.001,0.0,0.0,0.0,0.0,-0.006190058877551021,0.3375574693877551,2.1489126530612244,-0.32936042857142855,0.001505685408163265,0.9365053469387755,-0.03746621122448984,-0.7258932142857143,0.18870219387755102,,0.061,0.042,2279.66,2301.44,80.8,32.0,42.3,0.845
139,2025-09-27 22:55:08.202000+00:00,82508202,0.0,0.0,0.001,0.0,0.0,0.0,0.0,-0.005936592272727272,0.3367740568181818,2.1485157954545455,-0.3263946818181818,-0.013043138977272727,0.9369513522727273,-0.29978550795454545,-0.1492917045454547,-0.1417169318181818,,0.06185227272727273,0.042,2279.66,2301.44,80.8,32.0,42.3,0.845
140,2025-09-27 22:55:08.302000+00:00,82508302,0.0,0.0,0.001,0.0,0.0,0.0,0.0,-0.005271220546875,0.3364858359375,2.1485311718749998,-0.3261544375,-0.006294880859374999,0.9372085546875,-0.35128668749999997,-0.04671778437499999,-0.01986278437499997,,0.060640625,0.041320312500000005,2279.66,2301.44,80.8,32.0,42.3,0.845
141,2025-09-27 22:55:08.402000+00:00,82508402,0.0,0.0,0.001,0.0,0.0,0.0,0.0,-0.004839624516129032,0.33629951612903225,2.1483506451612904,-0.32972087096774194,0.006215795698924732,0.9374228817204301,-0.2549708387096774,-0.2683491204301075,0.06399177204301075,,0.06063440860215054,0.04036559139784946,2279.66,2301.44,80.8,32.0,42.3,0.845
142,2025-09-27 22:55:08.502000+00:00,82508502,0.0,0.0,0.001,0.0,0.0,0.0,0.0,-0.0034584358620689654,0.3341902413793103,2.148396896551724,-0.33158941379310347,0.008365486206896552,0.9363656551724138,-0.8712713103448277,-2.816605,-0.2290259724137931,,0.05872413793103448,0.03620689655172414,2279.66,2301.44,80.8,32.0,42.3,0.845
143,2025-09-27 22:55:08.602000+00:00,82508602,0.0,0.0,0.001,0.0,0.0,0.0,0.0,-0.0013601665670103093,0.3264037525773196,2.149044536082474,-0.33335988659793814,-0.012809981443298969,0.9319998041237113,-0.07129947422680427,-9.35463855670103,-0.4654987422680412,,0.05637113402061856,0.03255670103092784,2279.66,2301.44,80.8,32.0,42.3,0.845
144,2025-09-27 22:55:08.702000+00:00,82508702,0.0,0.0,0.001,0.0,0.0,0.0,0.0,-0.0012821733308270677,0.30779536842105265,2.149371127819549,-0.3346091804511278,-0.010235995338345866,0.9228191804511278,-0.441046984962406,-17.015218045112782,-0.8573195789473684,,0.06524812030075187,0.05172932330827068,2279.66,2301.44,80.8,32.0,42.3,0.845
145,2025-09-27 22:55:08.802000+00:00,82508802,0.0,-33.978102189781026,-0.00043065693430656936,-0.003576642335766424,-0.3648175182481752,-0.025036496350364965,1.4342335766423358,-0.0036019035766423355,0.2788737372262774,2.150638102189781,-0.28325953284671535,-0.024642300145985403,0.9134358175182482,3.3480194744525535,-31.87408321167883,-0.5046765912408759,,0.011985401459854023,0.021080291970802925,2279.66,2301.44,80.8,32.0,42.3,0.845
146,2025-09-27 22:55:08.902000+00:00,82508902,-0.008048780487804878,-81.09756097560975,0.010024390243902438,0.18902439024390244,3.3819512195121955,-0.07439024390243903,7.917317073170731,-0.009924249999999999,0.21512317073170734,2.1542673170731708,-0.13314473170731708,-0.05931812682926829,0.904219487804878,9.64421463414634,-53.58914634146342,-0.4661989024390245,,-0.07658536585365854,0.16687804878048784,2279.6585365853657,2301.441463414634,80.71219512195121,32.0,42.3,0.845
147,2025-09-27 22:55:09.002000+00:00,82509002,0.015206185567010304,67.73195876288659,0.10177319587628866,2.6365979381443303,38.848659793814434,0.032989690721649506,40.03164948453608,-0.02413370824742268,0.01106635051546392,2.163988350515464,0.001992443298969082,-0.0059064783505154705,0.8985932268041237,2.239530412371134,-58.53545360824742,-4.4138419587628865,,-0.027577319587628858,2.3379278350515467,2279.653092783505,2301.4592783505154,79.92164948453609,32.0,42.3,0.844381443298969
148,2025-09-27 22:55:09.102000+00:00,82509102,0.172,340.7857142857143,0.13228571428571428,5.718214285714286,59.5,0.18464285714285716,59.52214285714286,-0.021930346428571428,-0.058789378571428574,2.1684660714285715,-0.41143142857142856,0.11789439285714286,0.9162462499999999,-3.716250357142857,-33.81561071428572,-2.9305975,,-0.2970357142857143,4.680178571428572,2279.66,2301.48,79.49642857142857,32.0,42.3,0.843
149,2025-09-27 22:55:09.202000+00:00,82509202,0.36530769230769233,672.2307692307693,0.11476923076923076,5.1461538461538465,49.68769230769231,-0.06692307692307692,49.53307692307692,-0.0072087492307692305,-0.09368361538461539,2.1838146153846156,-0.19329193076923076,-0.0004912923076923065,0.952499,-5.111602615384615,-13.84544076923077,-6.944160769230769,,-0.518,5.260076923076923,2279.686923076923,2301.512307692308,80.01538461538462,32.0,42.3,0.8413846153846154
150,2025-09-27 22:55:09.302000+00:00,82509302,0.6724945054945055,870.8461538461538,0.11556043956043956,3.5323076923076924,35.88175824175824,-0.03263736263736263,35.83373626373626,-0.008256638021978022,-0.0968372967032967,2.2067146153846156,0.006887748351648348,-0.23551952967032966,0.9883086263736264,14.658729164835163,-1.2016385714285711,-13.700988241758242,,-0.46393406593406594,5.01110989010989,2279.760989010989,2301.5846153846155,80.13626373626373,32.0,42.3,0.8393626373626373
151,2025-09-27 22:55:09.402000+00:00,82509402,0.833989010989011,1011.9230769230769,0.1371978021978022,3.7789010989010987,35.62549450549451,0.07362637362637363,35.65021978021978,-0.048589924175824174,-0.0958261021978022,2.2176197802197803,-0.009178167032967033,-0.11016339230769229,1.0049180439560441,25.880503296703296,-5.327401868131869,-1.0143276923076918,,-0.5312967032967033,5.4190549450549454,2279.848901098901,2301.6762637362635,79.95274725274726,32.0,42.3,0.8375274725274725
152,2025-09-27 22:55:09.502000+00:00,82509502,1.1204193548387096,1216.1612903225807,0.14626881720430107,5.159569892473119,41.25849462365591,0.05913978494623656,41.214946236559136,-0.09377813010752689,-0.1095831,2.210058494623656,0.010641247311827959,0.0907452935483871,1.011570430107527,14.168505376344086,-11.510246774193549,6.253645806451613,,-0.8091612903225807,6.436193548387097,2280.0334408602153,2301.863440860215,79.9,32.0,42.3,0.8345483870967741
153,2025-09-27 22:55:09.602000+00:00,82509602,1.178,1336.0879120879122,0.1479120879120879,2.901758241758242,25.39197802197802,-0.09593406593406593,25.331978021978024,-0.1184278131868132,-0.1046931098901099,2.184424835164835,0.20027853406593407,0.1361926813186813,1.0205728571428572,19.818353846153848,21.37046373626373,24.944735604395603,,-0.5009890109890109,5.905010989010989,2280.07,2301.9,80.17362637362638,32.0,42.3,0.834
154,2025-09-27 22:55:09.702000+00:00,82509702,1.2588709677419354,1322.1612903225807,0.1380967741935484,5.573225806451613,42.63161290322581,0.00903225806451613,42.597741935483874,-0.14484106451612902,-0.08336864193548388,2.099242903225807,-0.20471007741935482,-0.0013661612903225762,1.0351416129032258,22.94909677419355,16.73530967741935,57.8986129032258,,-0.8233548387096774,6.655451612903226,2280.2006451612906,2302.029677419355,80.01935483870967,32.0,42.3,0.8328064516129032
155,2025-09-27 22:55:09.802000+00:00,82509802,1.247969696969697,1420.878787878788,0.135969696969697,2.5681818181818183,22.567878787878787,-0.012121212121212121,22.48818181818182,-0.1598900303030303,-0.06312361515151516,2.0102506060606062,0.03329753939393938,-0.5295314242424243,1.0359057575757575,26.89294909090909,17.623387878787877,57.992975757575756,,-0.48278787878787877,5.887545454545454,2280.3145454545456,2302.1357575757575,80.26060606060607,32.012121212121215,42.3,0.8308787878787879
156,2025-09-27 22:55:09.902000+00:00,82509902,1.304030303030303,1620.121212121212,0.11703030303030304,3.4318181818181817,25.992121212121212,-0.08787878787878788,25.85181818181818,-0.1726839696969697,-0.07012058484848485,1.9263793939393938,-0.25417533939393944,0.24297842424242422,1.0260042424242426,-2.118619090909089,-13.191687878787878,57.71282424242424,,-0.7252121212121212,6.603454545454546,2280.4054545454546,2302.2342424242424,80.63939393939394,32.087878787878786,42.3,0.830121212121212
157,2025-09-27 22:55:10.002000+00:00,82510002,1.525258064516129,1540.0,0.1627741935483871,2.5403225806451615,20.524516129032257,0.2341935483870968,20.753870967741932,-0.15723009677419353,-0.05147733870967742,1.8450825806451612,-0.013968819354838735,-0.20081019354838714,1.0188832258064515,16.40652225806452,9.06761612903226,51.612232258064516,,-0.4993548387096774,6.120967741935484,2280.6096774193547,2302.43064516129,79.88709677419355,32.1,42.3,0.8281935483870967
158,2025-09-27 22:55:10.102000+00:00,82510102,1.438195652173913,1544.391304347826,0.21053260869565216,6.907173913043478,46.36054347826087,0.09782608695652174,46.48565217391304,-0.16050266304347827,-0.048893708695652176,1.756881847826087,-0.12691030434782608,-0.5308864456521739,1.0129522826086959,19.20474586956522,1.1211756521739131,58.995270652173915,,-1.1909782608695652,7.644130434782609,2280.7614130434786,2302.5914130434785,78.9108695652174,32.1,42.3,0.8269782608695652
159,2025-09-27 22:55:10.202000+00:00,82510202,1.479142857142857,1775.1785714285713,0.1715357142857143,9.041428571428572,52.73357142857143,-0.06892857142857142,52.46607142857143,-0.16524071428571427,-0.06313192499999999,1.6563678571428573,-0.27167182142857144,0.5791312857142857,1.0050340000000002,-7.096742857142857,5.950528571428571,49.49781428571429,,-1.7969642857142858,8.784464285714286,2280.9060714285715,2302.7360714285714,79.81428571428572,32.1,42.3,0.8245714285714285
160,2025-09-27 22:55:10.302000+00:00,82510302,1.6993936170212764,1902.287234042553,0.20445744680851063,6.0045744680851065,36.33691489361702,0.13946808510638298,36.45106382978724,-0.13694252659574468,-0.06228614042553191,1.5652675531914895,0.38686932978723404,0.16884598936170214,0.9995574042553191,-38.062674468085106,6.416831382978723,55.818323404255324,,-1.5589893617021275,8.306329787234043,2281.0825531914893,2302.9178723404257,79.12659574468084,32.1,42.3,0.8204680851063829
161,2025-09-27 22:55:10.402000+00:00,82510402,1.7971931818181819,1952.1136363636363,0.21893181818181817,6.900113636363637,40.94977272727273,0.04931818181818182,40.945,-0.04981235795454546,-0.05516864545454546,1.4727380681818183,-0.03796702727272727,0.008170431818181834,1.005168181818182,-54.766357954545455,0.7334744318181818,46.85865113636363,,-1.8933863636363637,8.627443181818181,2281.2598863636363,2303.116931818182,79.02386363636364,32.13522727272728,42.3,0.8182954545454545
162,2025-09-27 22:55:10.502000+00:00,82510502,1.8413076923076923,2009.3956043956043,0.23225274725274725,10.301538461538462,55.56230769230769,0.07857142857142858,55.59868131868132,0.06015578681318681,-0.05899734395604396,1.426405274725275,0.013395835164835168,-0.30155483516483517,1.006932967032967,-52.75003626373626,-0.8992400000000007,5.474748351648351,,-2.685043956043956,9.636637362637362,2281.4503296703297,2303.3203296703296,78.65274725274725,32.2,42.3,0.8155824175824176
163,2025-09-27 22:55:10.602000+00:00,82510602,1.902531914893617,2153.0851063829787,0.2569148936170213,12.754893617021276,62.65851063829787,0.12063829787234043,62.69063829787234,0.11831912765957446,-0.06405225744680851,1.4455859574468086,0.04405820851063831,-0.19299640723404254,1.0085348936170213,-1.5092417021276585,-2.1791059574468097,-28.041044680851066,,-3.3403617021276597,10.52595744680851,2281.6340425531916,2303.5040425531915,78.2127659574468,32.2,42.24468085106383,0.8117872340425532
164,2025-09-27 22:55:10.702000+00:00,82510702,2.051024096385542,2332.10843373494,0.2583253012048193,14.02120481927711,65.05686746987952,-0.041566265060241,64.97409638554217,0.1006867734939759,-0.06504878072289157,1.4995839759036145,0.026652949397590355,0.37987967168674697,1.0120590361445783,13.830176506024097,9.283148795180724,-48.54269277108434,,-3.749301204819277,11.181843373493976,2281.8497590361444,2303.7267469879516,78.38915662650602,32.2,42.26987951807229,0.8058072289156627
165,2025-09-27 22:55:10.802000+00:00,82510802,2.2170744680851064,2495.691489361702,0.2807234042553191,12.669468085106383,57.70170212765958,0.15319148936170215,57.7531914893617,0.059332389361702126,-0.057361844680851065,1.5814756382978725,0.03965216914893617,0.2221080319148936,1.0133744680851065,17.2746085106383,0.9960324468085116,-53.615696808510634,,-3.6040531914893617,11.422595744680851,2282.077553191489,2303.9735106382977,77.96170212765958,32.27978723404255,42.3,0.8000106382978723
166,2025-09-27 22:55:10.902000+00:00,82510902,2.4613,2637.5,0.2853,13.222,58.612,-0.08499999999999999,58.541000000000004,0.02917967,-0.05337757,1.675011,-0.035266399999999996,-0.3849137,1.018596,8.98767,2.0138739999999995,-38.4856,,-3.7824,11.758000000000001,2282.507,2304.4069999999997,78.25,32.3,42.21,0.7909
167,2025-09-27 22:55:11.002000+00:00,82511002,2.5923669064748203,2789.4460431654675,0.25684892086330935,9.012230215827339,41.164820143884896,-0.22474820143884894,41.028992805755394,-0.0036395899280575565,-0.05680621151079137,1.706439856115108,-0.026261675539568343,0.022044920863309336,1.0137392805755396,14.028841007194245,1.1460450863309353,-20.715720863309354,,-2.8452805755395683,11.263985611510792,2282.7005755395685,2304.607122302158,79.21654676258993,32.3,42.2,0.7880359712230216
168,2025-09-27 22:55:11.102000+00:00,82511102,2.6985238095238095,2895.809523809524,0.25376190476190474,7.08047619047619,33.035714285714285,0.023333333333333317,33.01190476190476,-0.03422662380952381,-0.05568088571428571,1.706357142857143,0.3784854571428572,0.31516514285714287,1.0034340952380951,4.280681904761904,1.4993217142857143,15.041009523809524,,-2.439523809523809,11.236095238095238,2282.9409523809522,2304.844761904762,79.32857142857142,32.36190476190476,42.2,0.7863809523809524
169,2025-09-27 22:55:11.202000+00:00,82511202,2.74328,3003.72,0.25352,6.3448,29.4788,-0.0348,29.4368,-0.0073402324000000005,-0.052155412,1.6522732,-0.002734200000000131,-0.22866728000000003,0.9944884399999999,-22.9549352,-2.3707336000000008,48.420476,,-2.2626399999999998,11.418560000000001,2283.1351999999997,2305.0488,79.372,32.4,42.2,0.78532
170,2025-09-27 22:55:11.302000+00:00,82511302,2.84945,3117.25,0.27635000000000004,6.7925,30.2805,0.1645,30.352,0.027070340499999998,-0.04599832,1.5811944999999998,0.12317919999999999,-0.17599509999999996,0.9829251999999999,13.84281,4.800481499999998,27.562335,,-2.44325,11.834900000000001,2283.3925,2305.321,78.905,32.4,42.2,0.78415
171,2025-09-27 22:55:11.402000+00:00,82511402,2.9540112359550563,3220.9662921348313,0.31165168539325844,9.273595505617978,38.442921348314606,0.2002247191011236,38.513258426966296,0.014429595505617978,-0.04876961011235955,1.5407608988764045,-0.18107252808988764,0.1920610337078652,0.9747429101123596,2.487232584269666,-3.953648426966291,14.727359550561797,,-3.192078651685393,12.676247191011237,2283.6969662921347,2305.6170786516855,78.30561797752809,32.49887640449438,42.2,0.7820224719101124
172,2025-09-27 22:55:11.502000+00:00,82511502,3.048,3389.0,0.3068461538461538,10.937692307692307,42.58307692307692,-0.20846153846153848,42.44461538461538,0.017790907692307692,-0.05998332307692308,1.5268253846153845,0.23869489230769228,0.13982009230769232,0.9807611538461538,-14.764353846153847,-11.21496923076923,0.6814546153846154,,-3.675692307692308,13.343153846153845,2283.9923076923073,2305.913076923077,78.98461538461538,32.5,42.2,0.7796923076923077
173,2025-09-27 22:55:11.602000+00:00,82511602,3.2077333333333335,3436.3777777777777,0.3049111111111111,10.364222222222223,40.29022222222222,0.11222222222222222,40.31511111111111,0.0456518,-0.060020177777777774,1.526585111111111,0.12010247111111112,0.7315612888888888,0.9885027333333334,-35.04082222222222,13.910882666666666,-7.907290888888889,,-3.5539555555555555,13.42491111111111,2284.3133333333335,2306.2451111111113,78.56888888888889,32.5,42.2,0.7756444444444445
174,2025-09-27 22:55:11.702000+00:00,82511702,3.2447142857142857,3542.4285714285716,0.35657142857142854,15.347142857142856,54.32857142857143,0.21142857142857144,54.38285714285715,0.04198752857142857,-0.04496831428571428,1.5518642857142857,0.17312577142857144,0.31646657142857143,1.0102428571428572,0.08538571428571373,7.532335714285714,-16.288728571428575,,-4.867285714285714,14.501857142857142,2284.642857142857,2306.582857142857,77.78571428571429,32.52857142857143,42.2,0.7725714285714286
175,2025-09-27 22:55:11.802000+00:00,82511802,3.3632553191489363,3726.6382978723404,0.32752127659574465,11.026170212765958,39.134574468085106,-0.360531914893617,38.92617021276595,0.025723255851063827,-0.03797707872340425,1.5819670212765957,-0.4839259117021277,0.30036065957446806,1.0283617021276596,4.571105319148934,3.347359042553191,-13.13598670212766,,-3.769595744680851,14.219372340425533,2284.9691489361703,2306.9091489361704,79.05851063829788,32.6,42.2,0.7671382978723404
176,2025-09-27 22:55:11.902000+00:00,82511902,3.5354705882352944,3798.9764705882353,0.2703294117647059,3.2871764705882356,13.14,-0.33705882352941174,12.931999999999999,-0.03649391223529412,-0.02987972823529412,1.598712705882353,-0.6092894117647059,0.07633305882352942,1.0232182352941177,44.45399764705883,-0.27924047058823653,-2.0223805882352943,,-1.4880470588235295,12.923070588235294,2285.329176470588,2307.278823529412,80.24117647058823,32.6,42.2,0.7635176470588235
177,2025-09-27 22:55:12.002000+00:00,82512002,3.561272727272727,3776.090909090909,0.25936363636363635,2.010909090909091,8.539090909090909,-0.02181818181818182,8.520909090909091,-0.07465304545454546,-0.0166033,1.5742381818181819,0.04849638181818182,-0.04911845454545449,0.9997176363636363,-10.50325454545455,14.659283636363636,28.504170909090906,,-0.9967272727272728,12.549727272727273,2285.799090909091,2307.759090909091,80.30909090909091,32.6,42.2,0.7642727272727273
