sample_idx,ts_utc,ms_today,speed_meters_per_sec,erpm,duty_cycle,current_in,current_motor,d_axis_current,q_axis_current,roll,pitch,yaw,accX,accY,accZ,gyroX,gyroY,gyroZ,fault_code,d_axis_voltage,q_axis_voltage,tacho_meters,tacho_abs_meters,input_voltage,temp_mos_max,temp_motor,battery_level
0,2025-09-28 20:59:59.992000+00:00,75599992,0.0,0.0,0.001,0.98,3.89,0.01,3.29,0.0162436,0.267727,-1.83546,-0.265065,-0.0163061,0.954794,0.0113302,0.0497485,0.107644,0.0,-0.338,3.173,1163.27,1168.0,81.2,25.8,29.2,0.872
1,2025-09-28 21:00:00.092000+00:00,75600092,0.0,0.0,0.001,0.0,0.0,0.0,0.0,0.006408752,0.3271562,-0.7707914,-0.316766,-0.003568664,0.9383862,0.08766747999999999,0.24480659999999999,0.014622879999999998,,-0.0052,0.07379999999999999,1163.27,1168.0,81.2,25.8,29.2,0.872
2,2025-09-28 21:00:00.192000+00:00,75600192,0.0,0.0,0.001,0.0,0.0,0.0,0.0,0.0063908279999999994,0.3272050888888889,-0.7708897111111112,-0.31840182222222224,-0.010504444444444445,0.9383697999999999,0.09517007711111111,0.10112128888888888,-0.040782804444444445,,-0.006,0.073,1163.27,1168.0,81.2,25.8,29.2,0.872
3,2025-09-28 21:00:00.292000+00:00,75600292,0.0,0.0,0.001,0.0,0.0,0.0,0.0,0.006349365106382979,0.32720051063829786,-0.7710098085106383,-0.32077431914893617,-0.010988340425531914,0.9382931276595744,0.029757368936170214,-0.17629729787234044,-0.00379622978723404,,-0.005595744680851064,0.07340425531914893,1163.27,1168.0,81.2,25.8,29.2,0.872
4,2025-09-28 21:00:00.392000+00:00,75600392,0.0,0.0,0.001,0.0,0.0,0.0,0.0,0.00644706618705036,0.3268870215827338,-0.7710907410071942,-0.32126403597122305,-0.011097525179856115,0.9380532446043165,0.09895479856115108,-0.32296025179856114,0.05574263021582734,,-0.005316546762589928,0.07368345323741007,1163.27,1168.0,81.2,25.8,29.2,0.872
5,2025-09-28 21:00:00.492000+00:00,75600492,0.0,0.0,0.001,0.0,0.0,0.0,0.0,0.0064708921875000006,0.32643764583333335,-0.7711467916666667,-0.3206243125,-0.009518957291666666,0.93778290625,0.12868505208333333,-0.36308130208333333,0.09791280104166666,,-0.0059479166666666665,0.07305208333333332,1163.27,1168.0,81.2,25.8,29.2,0.872
6,2025-09-28 21:00:00.592000+00:00,75600592,0.0,0.0,0.001,0.0,0.0,0.0,0.0,0.00644367987012987,0.3257242727272727,-0.7712392597402598,-0.31761796103896106,0.0003297632467532468,0.9375851428571429,-0.2662805974025974,-0.2144279649350649,0.056218512987013,,-0.005,0.07388311688311688,1163.27,1168.0,81.2,25.8,29.2,0.872
7,2025-09-28 21:00:00.692000+00:00,75600692,0.0,0.0,0.001,0.0,0.0,0.0,0.0,0.006787889801980198,0.32595858415841583,-0.7713021287128713,-0.31642735643564357,-0.007515380891089109,0.9383382178217822,-0.16397688316831685,-0.135651399009901,0.0066420188118811885,,-0.005316831683168317,0.07331683168316831,1163.27,1168.0,81.2,25.8,29.2,0.872
8,2025-09-28 21:00:00.792000+00:00,75600792,0.0,0.0,0.001,0.0,0.0,0.0,0.0,0.007051283937007874,0.3258225354330709,-0.7713432125984252,-0.3174534803149606,-0.007971853070866142,0.9385025590551181,-0.0645196,-0.1112880472440945,0.04567451496062992,,-0.005755905511811024,0.07375590551181102,1163.27,1168.0,81.2,25.8,29.2,0.872
9,2025-09-28 21:00:00.892000+00:00,75600892,0.0,0.0,0.001,0.0,0.0,0.0,0.0,0.0075110991578947375,0.32582604210526317,-0.7713213473684211,-0.3144468210526316,-0.009711094905263158,0.9387943263157895,-0.05571132210526315,0.25907812631578947,0.041111063157894735,,-0.005,0.0730421052631579,1163.27,1168.0,81.2,25.8,29.2,0.872
10,2025-09-28 21:00:00.992000+00:00,75600992,0.0,0.0,0.001,0.0,0.0,0.0,0.0,0.0075768278313253015,0.3260224457831325,-0.7714517831325302,-0.31695727710843374,0.00022372330120481922,0.9390552530120482,0.1364522795180723,0.23605846385542167,0.016866767469879522,,-0.005108433734939759,0.074,1163.27,1168.0,81.2,25.8,29.2,0.872
11,2025-09-28 21:00:01.092000+00:00,75601092,0.0,0.0,0.001,0.0,0.0,0.0,0.0,0.007637986629213483,0.32610144943820224,-0.7715438651685393,-0.3198070786516854,-0.006728920674157303,0.9390323370786516,0.053817292134831454,-0.012442882022471916,0.025594949438202237,,-0.005707865168539326,0.07370786516853932,1163.27,1168.0,81.2,25.8,29.2,0.872
12,2025-09-28 21:00:01.192000+00:00,75601192,0.0,0.0,0.001,0.0,0.0,0.0,0.0,0.007741483191489361,0.3258734574468085,-0.7716266382978724,-0.3166592872340426,-0.010705666489361703,0.9388013936170213,-0.01240771170212766,-0.10467973510638298,0.1539195744680851,,-0.005,0.073,1163.27,1168.0,81.2,25.8,29.2,0.872
13,2025-09-28 21:00:01.292000+00:00,75601292,0.0,0.0,0.001,0.0,0.0,0.0,0.0,0.007840626413043478,0.3255698913043478,-0.7717164565217391,-0.3147380217391304,-0.0075205745652173915,0.9386445543478261,-0.02866906206521739,-0.11869535543478262,0.0800327097826087,,-0.005467391304347826,0.073,1163.27,1168.0,81.2,25.8,29.2,0.872
14,2025-09-28 21:00:01.392000+00:00,75601392,0.0,0.0,0.001,0.0,0.0,0.0,0.0,0.007947994772727273,0.3254699090909091,-0.7717908409090909,-0.3185198409090909,-0.01139755659090909,0.938677,0.0638236275,-0.20340365909090907,0.08965837954545455,,-0.005613636363636364,0.07338636363636364,1163.27,1168.0,81.2,25.8,29.2,0.872
15,2025-09-28 21:00:01.492000+00:00,75601492,0.0,0.0,0.001,0.0,0.0,0.0,0.0,0.007978269775280898,0.3253942359550562,-0.7718784382022471,-0.31903162921348316,-0.01241684191011236,0.9386858539325843,0.1394133415730337,-0.1300572797752809,0.1385153213483146,,-0.005213483146067416,0.074,1163.27,1168.0,81.2,25.8,29.2,0.872
16,2025-09-28 21:00:01.592000+00:00,75601592,0.0,0.0,0.001,0.0,0.0,0.0,0.0,0.007779014210526316,0.3253267894736842,-0.772045,-0.3165436315789474,-0.005078068947368421,0.9387077368421053,0.0289713052631579,0.06720656315789474,0.013453631578947366,,-0.00568421052631579,0.074,1163.27,1168.0,81.2,25.8,29.2,0.872
17,2025-09-28 21:00:01.692000+00:00,75601692,0.0,0.0,0.001,0.0,0.0,0.0,0.0,0.007821685826771653,0.3255884251968504,-0.7721323700787401,-0.3166777007874016,-0.005967822047244094,0.9389311417322834,-0.08816905511811024,0.20071587401574806,-0.006349959842519685,,-0.005275590551181103,0.074,1163.27,1168.0,81.2,25.8,29.2,0.872
18,2025-09-28 21:00:01.792000+00:00,75601792,0.0,0.0,0.001,0.0,0.0,0.0,0.0,0.008011970656934306,0.3257488321167883,-0.7721613795620438,-0.3191391824817518,-0.014307601459854014,0.9390135255474452,-0.12610809167883213,0.053240058394160586,0.04939421386861314,,-0.005941605839416058,0.074,1163.27,1168.0,81.2,25.8,29.2,0.872
19,2025-09-28 21:00:01.892000+00:00,75601892,0.0,0.0,0.001,0.0,0.0,0.0,0.0,0.00819285386861314,0.3258342335766423,-0.7722161240875912,-0.31692896350364963,-0.011765119708029199,0.939020094890511,-0.024309237664233582,0.10424078832116787,0.03994063722627737,,-0.005211678832116789,0.074,1163.27,1168.0,81.2,25.8,29.2,0.872
20,2025-09-28 21:00:01.992000+00:00,75601992,0.0,0.0,0.001,0.0,0.0,0.0,0.0,0.008165606774193548,0.3258788494623656,-0.7722865860215055,-0.3154153870967742,-0.007474127849462366,0.9390036774193549,0.06311925510752688,0.119528,0.08576229838709677,,-0.005381720430107527,0.074,1163.27,1168.0,81.2,25.8,29.2,0.872
21,2025-09-28 21:00:02.092000+00:00,75602092,0.0,0.0,0.001,0.0,0.0,0.0,0.0,0.00805334870967742,0.3259068064516129,-0.7723634677419355,-0.31418635483870966,-0.002468955806451614,0.9389778709677419,0.1446781637096774,0.120228,0.1541611693548387,,-0.005919354838709678,0.074,1163.27,1168.0,81.2,25.8,29.2,0.872
22,2025-09-28 21:00:02.192000+00:00,75602192,0.0,0.0,0.001,0.0,0.0,0.0,0.0,0.00738167,0.326289,-0.772767,-0.317892,-0.00708241,0.938807,0.144677,0.258899,0.0235313,0.0,-0.006,0.073,1163.27,1168.0,81.2,25.8,29.2,0.872
23,2025-09-28 21:00:02.292000+00:00,75602292,0.0,0.0,0.001,0.0,0.0,0.0,0.0,0.0071749529787234045,0.3263054042553192,-0.7729417446808511,-0.3201373191489362,-0.005251917021276595,0.9386055106382979,-0.18670071446808512,-0.16679987234042554,0.05098192340425532,,-0.005914893617021277,0.07391489361702128,1163.27,1168.0,81.2,25.8,29.2,0.873
24,2025-09-28 21:00:02.392000+00:00,75602392,0.0,0.0,0.001,0.0,0.0,0.0,0.0,0.0073231444680851064,0.32613377304964536,-0.7729729503546099,-0.31973164539007093,-0.009052058865248225,0.9384430992907802,-0.042673335035461,-0.21708214184397165,-0.010978714893617014,,-0.0052056737588652485,0.07320567375886525,1163.27,1168.0,81.2,25.8,29.2,0.873
25,2025-09-28 21:00:02.492000+00:00,75602492,0.0,0.0,0.001,0.0,0.0,0.0,0.0,0.007404387890625,0.32595309375000003,-0.77302415625,-0.3170641015625,-0.009266505703124999,0.9383116874999999,-0.07487108996093751,-0.15354663828125,0.015722017187499996,,-0.005554687500000001,0.0735546875,1163.27,1168.0,81.2,25.8,29.2,0.873
26,2025-09-28 21:00:02.592000+00:00,75602592,0.0,0.0,0.001,0.0,0.0,0.0,0.0,0.007407193076923077,0.3257067142857143,-0.7731321868131869,-0.313099010989011,-0.008546175824175824,0.9382808571428571,-0.0683512253846154,0.04140869670329671,0.04444785164835165,,-0.006,0.074,1163.27,1168.0,81.2,25.8,29.2,0.873
27,2025-09-28 21:00:02.692000+00:00,75602692,0.0,0.0,0.001,0.0,0.0,0.0,0.0,0.007327124366197184,0.32552556338028166,-0.7732604084507042,-0.31482138028169016,-0.007297872957746479,0.9383674084507042,-0.022563600704225355,0.08625892394366198,0.014237905633802814,,-0.006,0.074,1163.27,1168.0,81.2,25.8,29.2,0.873
28,2025-09-28 21:00:02.792000+00:00,75602792,0.0,0.0,0.001,0.0,0.0,0.0,0.0,0.0072127597619047615,0.32546726190476194,-0.7733695952380952,-0.3207677619047619,-0.005438084761904762,0.9384627857142858,-0.0525779880952381,-0.09145388809523809,-0.009117259523809526,,-0.006,0.07388095238095238,1163.27,1168.0,81.2,25.8,29.2,0.873
29,2025-09-28 21:00:02.892000+00:00,75602892,0.0,0.0,0.001,0.0,0.0,0.0,0.0,0.006975915869565218,0.32529332608695655,-0.7736276521739129,-0.3161457391304348,-0.007020113695652174,0.9386107391304348,0.018483678260869565,-0.09065709347826087,0.06873389999999999,,-0.005717391304347826,0.07328260869565217,1163.27,1168.0,81.2,25.8,29.22826086956522,0.873
30,2025-09-28 21:00:02.992000+00:00,75602992,0.0,0.0,0.001,0.0,0.0,0.0,0.0,0.007059164347826087,0.3251546956521739,-0.7737161304347826,-0.3162063043478261,-0.004551048043478261,0.9387286521739131,-0.11007740434782609,-0.11691018913043477,0.03139730869565218,,-0.005369565217391304,0.074,1163.27,1168.0,81.2,25.8,29.26304347826087,0.873
31,2025-09-28 21:00:03.092000+00:00,75603092,0.0,0.0,0.001,0.0,0.0,0.0,0.0,0.00727442,0.325103,-0.77373,-0.312604,-0.00264525,0.938827,-0.0584018,-0.160178,0.115911,,-0.005493975903614458,0.074,1163.27,1168.0,81.2,25.8,29.2,0.873
32,2025-09-28 21:00:03.192000+00:00,75603192,0.0,0.0,0.001,0.0,0.0,0.0,0.0,0.007480522653061225,0.32511263265306123,-0.7737269897959184,-0.3173739693877551,-0.00925201581632653,0.9389528265306122,-0.062084965306122446,-0.11846698673469387,0.07350011428571429,,-0.005,0.074,1163.27,1168.0,81.2,25.8,29.2,0.873
33,2025-09-28 21:00:03.292000+00:00,75603292,0.0,0.0,0.001,0.0,0.0,0.0,0.0,0.00769243630952381,0.3248662857142857,-0.7737932619047619,-0.315281,-0.009565757261904763,0.9389292499999999,-0.018323570178571433,-0.14228976071428573,-0.009092527380952384,,-0.005726190476190477,0.07327380952380952,1163.27,1168.0,81.2,25.8,29.2,0.873
34,2025-09-28 21:00:03.392000+00:00,75603392,0.0,0.0,0.001,0.0,0.0,0.0,0.0,0.00775337099009901,0.3247580396039604,-0.7738929504950496,-0.3174190693069307,-0.0070093913861386135,0.939008693069307,-0.04940335326732673,-0.054348983168316836,0.0270670792079208,,-0.005237623762376238,0.07376237623762376,1163.27,1168.0,81.2,25.8,29.2,0.873
35,2025-09-28 21:00:03.492000+00:00,75603492,0.0,0.0,0.001,0.0,0.0,0.0,0.0,0.00809264193548387,0.32468106451612905,-0.7738963870967742,-0.315304064516129,-0.009334585161290323,0.9390962580645161,-0.15374752258064517,0.0645422,0.008633280645161293,,-0.0056129032258064515,0.07338709677419354,1163.27,1168.0,81.2,25.8,29.2,0.873
36,2025-09-28 21:00:03.592000+00:00,75603592,0.0,0.0,0.001,0.0,0.0,0.0,0.0,0.008496489565217391,0.32470169565217394,-0.7738924782608696,-0.3153900434782609,-0.009871911304347825,0.9391952608695653,-0.32834321739130434,0.07904819130434781,-0.003398803478260869,,-0.005434782608695652,0.073,1163.27,1168.0,81.2,25.8,29.2,0.873
37,2025-09-28 21:00:03.692000+00:00,75603692,0.0,0.0,0.001689655172413793,0.0,0.0,0.0,0.0,0.00897726827586207,0.32501162068965517,-0.7739148620689655,-0.31802493103448276,-0.011205009655172413,0.9394214827586207,-0.419298,0.1452431448275862,0.0039038951724137934,,-0.005,0.07368965517241378,1163.27,1168.0,81.2,25.8,29.2,0.873
38,2025-09-28 21:00:03.792000+00:00,75603792,0.0,0.0,0.0015,0.0,0.0,0.0,0.0,0.009239795,0.3250585,-0.7739635,-0.316395,-0.010064245,0.939391,-0.2039839,0.11921875,0.055551615000000006,,-0.005,0.074,1163.27,1168.0,81.2,25.8,29.25,0.873
39,2025-09-28 21:00:03.892000+00:00,75603892,0.0,0.0,0.001,0.0,0.0,0.0,0.0,0.009299641375,0.3250575125,-0.774043475,-0.3147235875,-0.008197069125,0.9393029249999999,0.00513592075,0.025402161250000003,0.0372857125,,-0.005,0.074,1163.27,1168.0,81.2,25.8,29.26625,0.873
40,2025-09-28 21:00:03.992000+00:00,75603992,0.0,0.0,0.001,0.0,0.0,0.0,0.0,0.00925737284090909,0.32513645454545453,-0.7741740113636364,-0.3171337840909091,-0.006877049999999999,0.9392804431818181,0.07399848840909092,-0.021693360227272727,-0.032876939772727265,,-0.0055340909090909095,0.074,1163.27,1168.0,81.2,25.8,29.2,0.873
41,2025-09-28 21:00:04.092000+00:00,75604092,0.0,0.0,0.001,0.0,0.0,0.0,0.0,0.009349130597826088,0.3250344510869565,-0.7742377119565217,-0.3169508858695652,-0.007276914130434782,0.939166,0.0775976554347826,-0.06591557336956522,0.03274109945652174,,-0.005679347826086957,0.074,1163.27,1168.0,81.2,25.8,29.232065217391305,0.873
42,2025-09-28 21:00:04.192000+00:00,75604192,0.0,0.0,0.001,0.0,0.0,0.0,0.0,0.009409962119565218,0.32494369021739133,-0.7742643423913044,-0.314155777173913,-0.010678022826086956,0.939066,-0.036096148913043496,-0.14189671467391307,0.04349397989130435,,-0.0051358695652173915,0.074,1163.27,1168.0,81.2,25.8,29.286413043478262,0.873
43,2025-09-28 21:00:04.292000+00:00,75604292,0.0,0.0,0.001,0.0,0.0,0.0,0.0,0.009407061666666668,0.32454016666666663,-0.774431,-0.3140036666666666,-0.015204299999999999,0.9387735,-0.12262993333333334,-0.21916950000000002,0.05187711666666666,,-0.005833333333333334,0.07316666666666666,1163.27,1168.0,81.2,25.8,29.3,0.873
44,2025-09-28 21:00:04.392000+00:00,75604392,0.0,0.0,0.001,0.0,0.0,0.0,0.0,0.009381872417582418,0.3243976813186813,-0.7745601428571428,-0.3183835494505494,-0.011908445054945056,0.9388264835164835,0.19713497802197802,0.031073637362637352,0.08689971538461538,,-0.006,0.073,1163.27,1168.0,81.2,25.8,29.3,0.873
45,2025-09-28 21:00:04.492000+00:00,75604492,0.0,0.0,0.001,0.0,0.0,0.0,0.0,0.00935819157894737,0.3239443684210527,-0.7747238421052632,-0.3152868947368421,-0.014143305789473684,0.9388069473684211,0.1560093157894737,0.11524965263157895,0.027705805263157895,,-0.005,0.074,1163.27,1168.0,81.2,25.8,29.3,0.873
46,2025-09-28 21:00:04.592000+00:00,75604592,0.0,0.0,0.001,0.0,0.0,0.0,0.0,0.00903224,0.323627,-0.774955,-0.318147,-0.00808821,0.938842,0.359991,0.0494354,0.0770565,,-0.0051204819277108436,0.074,1163.27,1168.0,81.2,25.8,29.3,0.873
47,2025-09-28 21:00:04.692000+00:00,75604692,0.0,0.0,0.001,0.0,0.0,0.0,0.0,0.008846497802197803,0.32352345054945053,-0.7750404505494505,-0.31625937362637363,-0.0082332,0.9388577252747252,0.2754167934065934,-0.03377456483516484,0.06447838681318681,,-0.006,0.074,1163.27,1168.0,81.2,25.8,29.3,0.873
48,2025-09-28 21:00:04.792000+00:00,75604792,0.0,0.0,0.001,0.0,0.0,0.0,0.0,0.008344458241758243,0.3231862197802198,-0.7752793956043956,-0.31120148351648347,-0.007054863296703297,0.9389539450549451,0.10495135164835165,-0.17537377362637363,0.05926156923076924,,-0.006,0.074,1163.27,1168.0,81.2,25.8,29.3,0.873
49,2025-09-28 21:00:04.892000+00:00,75604892,0.0,0.0,0.001,0.0,0.0,0.0,0.0,0.008235315217391305,0.32296839130434785,-0.7753578260869565,-0.31124423913043475,-0.00500772847826087,0.9390860652173914,0.1260611739130435,-0.11340666086956522,0.07633269130434783,,-0.005673913043478261,0.074,1163.27,1168.0,81.2,25.767391304347825,29.3,0.8733260869565217
50,2025-09-28 21:00:04.992000+00:00,75604992,0.0,0.0,0.001,0.0,0.0,0.0,0.0,0.008176185056179775,0.32279659550561796,-0.7754241910112359,-0.3132038651685393,-0.006204547415730337,0.9392000561797753,0.0749446,-0.16652230337078652,0.03400354606741573,,-0.005078651685393259,0.074,1163.27,1168.0,81.2,25.707865168539325,29.3,0.874
51,2025-09-28 21:00:05.092000+00:00,75605092,0.0,0.0,0.001,0.0,0.0,0.0,0.0,0.007810565681818182,0.3226362045454545,-0.7756780454545454,-0.3141036818181818,-0.012886629545454545,0.9395521818181819,0.07619596818181819,-0.15927993181818184,0.04819354545454546,,-0.006,0.07379545454545454,1163.27,1168.0,81.2,25.8,29.3,0.874
52,2025-09-28 21:00:05.192000+00:00,75605192,0.0,0.0,0.001,0.0,0.0,0.0,0.0,0.007572473793103448,0.32251544827586204,-0.7758399655172413,-0.31472041379310345,-0.007337210344827587,0.9397610689655173,0.13126329655172414,0.023338206896551722,0.12162344827586208,,-0.005655172413793104,0.073,1163.27,1168.0,81.2,25.8,29.3,0.874
53,2025-09-28 21:00:05.292000+00:00,75605292,0.0,0.0,0.001,0.0,0.0,0.0,0.0,0.007312921063829787,0.32247988297872343,-0.775976914893617,-0.31079417021276595,-0.003924932127659575,0.9399817127659574,0.16564588617021275,-0.15933120212765955,0.19866317021276597,,-0.005,0.073,1163.27,1168.0,81.2,25.754255319148935,29.3,0.874
54,2025-09-28 21:00:05.392000+00:00,75605392,0.0,0.0,0.001,0.0,0.0,0.0,0.0,0.007215409770114942,0.32242825287356325,-0.7760881379310345,-0.31267195402298853,-0.00712317367816092,0.9400871954022989,0.12912661839080458,-0.11988991034482757,0.20001131034482758,,-0.005,0.0735632183908046,1163.27,1168.0,81.2,25.7,29.3,0.874
55,2025-09-28 21:00:05.492000+00:00,75605492,0.0,0.0,0.001,0.0,0.0,0.0,0.0,0.007081036597938144,0.3223772989690722,-0.7762075051546391,-0.31497315463917525,-0.0046467809278350515,0.9401354639175258,0.10843081237113403,-0.045332,0.12545377319587628,,-0.005639175257731959,0.07336082474226804,1163.27,1168.0,81.2,25.763917525773195,29.3,0.874
56,2025-09-28 21:00:05.592000+00:00,75605592,0.0,0.0,0.001,0.0,0.0,0.0,0.0,0.0069280999999999995,0.3223838795180723,-0.7763703855421686,-0.3155257710843373,-0.0029204843373493976,0.9401756626506024,0.026452845783132527,0.03455498192771085,0.10647269879518073,,-0.006,0.07378313253012048,1163.27,1168.0,81.2,25.8,29.3,0.874
57,2025-09-28 21:00:05.692000+00:00,75605692,0.0,0.0,0.001,0.0,0.0,0.0,0.0,0.006879820666666666,0.32233151111111114,-0.7764978444444444,-0.31729111111111113,-0.010266391111111111,0.9401244222222223,-0.06335148222222223,0.048505106666666666,-0.013843100000000011,,-0.006,0.074,1163.27,1168.0,81.2,25.70888888888889,29.3,0.874
58,2025-09-28 21:00:05.792000+00:00,75605792,0.0,0.0,0.001,0.0,0.0,0.0,0.0,0.00693268387755102,0.32238044897959184,-0.7765924285714286,-0.3166631836734694,-0.010656551020408163,0.9401678163265306,0.06603141020408164,-0.016774636734693878,0.028950528571428564,,-0.005061224489795919,0.074,1163.27,1168.0,81.2,25.7,29.3,0.874
59,2025-09-28 21:00:05.892000+00:00,75605892,0.0,0.0,0.001,0.0,0.0,0.0,0.0,0.00680740625,0.322422625,-0.7767505,-0.315697625,-0.00876241875,0.9401565,0.0905436,0.11976337499999999,0.108761375,,-0.005875,0.074125,1163.27,1168.0,81.2,25.7,29.3,0.874
60,2025-09-28 21:00:05.992000+00:00,75605992,0.0,0.0,0.001,0.0,0.0,0.0,0.0,0.00669621282442748,0.32253765648854965,-0.7768541221374046,-0.3150547328244275,-0.008756945419847327,0.9401464809160305,0.15765923664122136,0.08622356488549618,0.1732874427480916,,-0.005122137404580153,0.07487786259541984,1163.27,1168.0,81.2,25.7,29.3,0.874
61,2025-09-28 21:00:06.092000+00:00,75606092,0.0,0.0,0.001,0.0,0.0,0.0,0.0,0.006579792977099237,0.3225292595419847,-0.7769548854961833,-0.31485931297709924,-0.00351916679389313,0.9400182366412214,0.16232946564885498,-0.12696040458015267,0.22870270992366412,,-0.005885496183206107,0.0741145038167939,1163.27,1168.0,81.2,25.7,29.3,0.874
62,2025-09-28 21:00:06.192000+00:00,75606192,0.0,0.0,0.001,0.0,0.0,0.0,0.0,0.006437917356321839,0.32252897701149424,-0.7771048275862069,-0.31567999999999996,-0.004683849425287356,0.9399315862068965,0.014817551724137928,-0.09182336781609195,0.11201810344827588,,-0.006,0.074,1163.27,1168.0,81.2,25.7,29.3,0.874
63,2025-09-28 21:00:06.292000+00:00,75606292,0.0,0.0,0.001,0.0,0.0,0.0,0.0,0.00650373,0.322376,-0.777174,-0.314113,-0.00666802,0.939874,-0.0584018,0.0498111,0.113762,0.0,-0.005,0.074,1163.27,1168.0,81.2,25.7,29.3,0.874
64,2025-09-28 21:00:06.392000+00:00,75606392,0.0,0.0,0.001,0.0,0.0,0.0,0.0,0.0066288897872340425,0.3225688404255319,-0.7772562127659575,-0.31571834042553193,-0.011260105319148936,0.940025744680851,0.007685597340425532,0.07761973404255319,0.06581406914893617,,-0.006,0.074,1163.27,1168.0,81.2,25.7,29.3,0.874
65,2025-09-28 21:00:06.492000+00:00,75606492,0.0,0.0,0.001,0.0,0.0,0.0,0.0,0.006649035,0.3226895555555555,-0.7773704444444445,-0.3160373888888889,-0.01327836388888889,0.9400602777777778,0.054488905555555564,0.11244822222222223,0.15396827777777777,,-0.005722222222222222,0.07372222222222222,1163.27,1168.0,81.2,25.7,29.3,0.874
66,2025-09-28 21:00:06.592000+00:00,75606592,0.0,0.0,0.001,0.0,0.0,0.0,0.0,0.006595427526881721,0.32275733333333334,-0.7774957526881721,-0.3149998387096774,-0.0043677489247311825,0.939957440860215,0.09600586075268819,-0.06424814731182796,0.07493484838709677,,-0.005376344086021506,0.0733763440860215,1163.27,1168.0,81.2,25.7,29.3,0.874
67,2025-09-28 21:00:06.692000+00:00,75606692,0.0,0.0,0.001,0.0,0.0,0.0,0.0,0.006452666,0.32271466666666665,-0.7776404,-0.31391593333333334,-0.0023625453333333333,0.9398500666666667,-0.05987097066666667,-0.020903073333333334,0.044341566666666665,,-0.006,0.07353333333333333,1163.27,1168.0,81.2,25.7,29.3,0.874
68,2025-09-28 21:00:06.792000+00:00,75606792,0.0,0.0,0.001,0.0,0.0,0.0,0.0,0.006299814179104478,0.32275047761194026,-0.7777810746268657,-0.309449328358209,-0.0040285773134328354,0.9398700149253731,0.028109462686567166,-0.04814483731343283,0.03690117462686567,,-0.005611940298507463,0.073,1163.27,1168.0,81.2,25.7,29.3,0.874
69,2025-09-28 21:00:06.892000+00:00,75606892,0.0,0.0,0.001,0.0,0.0,0.0,0.0,0.006246528202247191,0.32288722471910114,-0.7778894494382023,-0.3094587415730337,-0.0050809277528089895,0.9399539438202248,0.2289657820224719,-0.1334829584269663,0.03436435168539326,,-0.0052022471910112365,0.07340449438202247,1163.27,1168.0,81.2,25.7,29.3,0.874
70,2025-09-28 21:00:06.992000+00:00,75606992,0.0,0.0,0.001,0.0,0.0,0.0,0.0,0.00628139,0.323038,-0.778049,-0.313201,-0.0066187,0.940005,0.0113302,-0.300233,0.111226,,-0.0056813186813186815,0.07468131868131868,1163.27,1168.0,81.2,25.7,29.3,0.874
71,2025-09-28 21:00:07.092000+00:00,75607092,0.0,0.0,0.001,0.0,0.0,0.0,0.0,0.006157310206185567,0.3229721855670103,-0.7781171649484536,-0.3121084020618557,-0.0052874150515463915,0.9399309587628866,0.18003014226804123,-0.19013610927835053,0.15035659793814432,,-0.005,0.074,1163.27,1168.0,81.2,25.7,29.3,0.874
72,2025-09-28 21:00:07.192000+00:00,75607192,0.0,0.0,0.001,0.0,0.0,0.0,0.0,0.00545733625,0.3226952375,-0.7783916125,-0.3124573875,-0.0021951124999999997,0.9396760875,0.3999504,-0.05576876374999999,0.14314286625,,-0.005,0.074,1163.27,1168.0,81.2,25.7,29.3,0.874
73,2025-09-28 21:00:07.292000+00:00,75607292,0.0,0.0,0.001,0.0,0.0,0.0,0.0,0.004919130652173913,0.32250203623188406,-0.7785811739130435,-0.3138791956521739,-0.000562114463768116,0.9395951594202898,-0.08506102173913044,0.09389533985507247,-0.039663412318840574,,-0.005442028985507247,0.07355797101449275,1163.27,1168.0,81.2,25.7,29.3,0.874
74,2025-09-28 21:00:07.392000+00:00,75607392,0.0,0.0,0.001,0.0,0.0,0.0,0.0,0.005028847214285714,0.32254652857142857,-0.7785838285714286,-0.3135961857142857,-0.000290256157142857,0.9397208,-0.6229309571428572,0.33832510714285713,-0.17947918571428573,,-0.005835714285714286,0.07316428571428571,1163.27,1168.0,81.2,25.7,29.3,0.874
75,2025-09-28 21:00:07.492000+00:00,75607492,0.0,0.0,0.001,0.0,0.0,0.0,0.0,0.005811182928571429,0.3228879571428572,-0.7784352571428572,-0.3152404714285714,-0.0027179090142857142,0.9399808,-0.5189438142857142,0.3887429642857143,-0.13892347142857142,,-0.005121428571428572,0.07387857142857142,1163.27,1168.0,81.2,25.7,29.3,0.874
76,2025-09-28 21:00:07.592000+00:00,75607592,0.0,0.0,0.001,0.0,0.0,0.0,0.0,0.006243928571428571,0.3231693095238095,-0.7784086825396825,-0.31609309523809526,-0.01023158277777778,0.9400026031746032,-0.1636034238095238,0.16836212301587303,0.02585083333333335,,-0.005,0.074,1163.27,1168.0,81.2,25.7,29.3,0.874
77,2025-09-28 21:00:07.692000+00:00,75607692,0.0,0.0,0.001,0.0,0.0,0.0,0.0,0.006351640833333333,0.32333843749999996,-0.7784954791666666,-0.3158971875,-0.014307064583333333,0.939941125,0.06411330833333333,0.021709566666666666,0.07548368958333333,,-0.005,0.074,1163.27,1168.0,81.23958333333333,25.7,29.3,0.874
78,2025-09-28 21:00:07.792000+00:00,75607792,0.0,0.0,0.001,0.0,0.0,0.0,0.0,0.006204318018018018,0.32340969369369366,-0.7786654234234235,-0.31448375675675677,-0.01302303081081081,0.9398560990990991,0.13794315225225226,-0.03730769009009009,0.04361394774774775,,-0.005,0.074,1163.27,1168.0,81.3,25.7,29.3,0.874
79,2025-09-28 21:00:07.892000+00:00,75607892,0.0,0.0,0.001,0.0,0.0,0.0,0.0,0.005639302056074766,0.3233322429906542,-0.7789422242990653,-0.30960980373831776,0.0010633594392523364,0.9397894485981308,0.08150926635514019,-0.15440430841121497,0.1685944785046729,,-0.005,0.074,1163.27,1168.0,81.29813084112149,25.7,29.3,0.874
80,2025-09-28 21:00:07.992000+00:00,75607992,0.0,0.0,0.001,0.0,0.0,0.0,0.0,0.005545404859813084,0.3233443925233645,-0.7790534392523364,-0.3151499906542056,-0.00680166859813084,0.939811878504673,-0.2020424158878505,0.10483027102803735,-0.07188159626168225,,-0.005,0.074,1163.27,1168.0,81.20467289719626,25.7,29.3,0.874
81,2025-09-28 21:00:08.092000+00:00,75608092,0.0,0.0,0.001,0.0,0.0,0.0,0.0,0.006048080638297872,0.3237614787234043,-0.7790510425531915,-0.31119164893617024,-0.007602479574468086,0.9400251808510639,-0.40327797872340426,0.32810881914893614,-0.05394672021276596,,-0.006,0.074,1163.27,1168.0,81.29255319148936,25.7,29.3,0.874
82,2025-09-28 21:00:08.192000+00:00,75608192,0.0,0.0,0.001,0.0,0.0,0.0,0.0,0.0064501658,0.32413445999999996,-0.77907284,-0.31648082,-0.008661709299999999,0.93999407,-0.06388241,0.24799904,0.12134902,,-0.00587,0.07386999999999999,1163.27,1168.0,81.21300000000001,25.7,29.3,0.874
83,2025-09-28 21:00:08.292000+00:00,75608292,0.0,0.0,0.001,0.0,0.0,0.0,0.0,0.006521314888888889,0.32435027222222224,-0.7791421833333334,-0.3160931,-0.005267377494444444,0.9398376777777777,0.3510003277777778,-0.2593770722222222,0.15127851666666667,,-0.005072222222222223,0.073,1163.27,1168.0,81.3,25.7,29.3,0.874
84,2025-09-28 21:00:08.392000+00:00,75608392,0.0,0.0,0.001,0.0,0.0,0.0,0.0,0.006421737111111111,0.3243908277777778,-0.7792205166666667,-0.3163631,-0.0020139736055555554,0.9397121222222222,0.23477977222222224,0.051822372222222246,0.15829018333333333,,-0.0056277777777777776,0.073,1163.27,1168.0,81.3,25.7,29.3,0.874
85,2025-09-28 21:00:08.492000+00:00,75608492,0.0,0.0,0.001,0.0,0.0,0.0,0.0,0.006279908780487805,0.32444093902439025,-0.7793373902439025,-0.31606710975609753,-0.0017883310609756098,0.9395161219512196,0.12638716097560976,0.1473869207317073,0.13854184146341464,,-0.005597560975609756,0.07340243902439024,1163.27,1168.0,81.3,25.7,29.3,0.874
86,2025-09-28 21:00:08.592000+00:00,75608592,0.0,0.0,0.001,0.0,0.0,0.0,0.0,0.00602864,0.32458240909090913,-0.7795098863636364,-0.31583345454545453,-0.00545527,0.9393036363636363,0.0810624,0.006733525000000001,0.10196636363636363,,-0.005,0.074,1163.27,1168.0,81.3,25.7,29.3,0.874
87,2025-09-28 21:00:08.692000+00:00,75608692,0.0,0.0,0.001,0.0,0.0,0.0,0.0,0.005807381649484536,0.3248188144329897,-0.7796533505154639,-0.31559292783505155,-0.0071447052577319585,0.9392476288659793,0.05254633814432991,0.11812364329896907,0.08956365979381443,,-0.005,0.074,1163.27,1168.0,81.3,25.7,29.3,0.874
88,2025-09-28 21:00:08.792000+00:00,75608792,0.0,0.0,0.001,0.0,0.0,0.0,0.0,0.005996093924050633,0.32510598734177215,-0.7797320886075949,-0.3129155443037975,-0.007416326455696202,0.9392403544303798,-0.1667261417721519,0.30110673417721523,-0.008287632911392402,,-0.005,0.07372151898734176,1163.27,1168.0,81.27215189873418,25.7,29.3,0.874
89,2025-09-28 21:00:08.892000+00:00,75608892,0.0,0.0,0.001,0.0,0.0,0.0,0.0,0.00669739440860215,0.32515416129032254,-0.7796812580645162,-0.3169783010752688,-0.0029300394623655913,0.9389641827956989,-0.2912522795698924,-0.11334590322580648,-0.01526265591397849,,-0.005462365591397849,0.073,1163.27,1168.0,81.2,25.7,29.3,0.874
90,2025-09-28 21:00:08.992000+00:00,75608992,0.0,0.0,0.001,0.0,0.0,0.0,0.0,0.0070798823404255315,0.32494836170212765,-0.7796750638297872,-0.31710165957446806,-0.003781434680851064,0.938703744680851,-0.09104240425531915,-0.15121294680851066,0.1186828085106383,,-0.005468085106382979,0.07353191489361702,1163.27,1168.0,81.2531914893617,25.7,29.3,0.874
91,2025-09-28 21:00:09.092000+00:00,75609092,0.0,0.0,0.001,0.0,0.0,0.0,0.0,0.007181534117647059,0.3246164117647059,-0.7797564705882353,-0.3161489411764706,-0.009527176470588235,0.9385262352941177,0.11639676470588234,-0.07769017647058823,0.12866576470588237,,-0.005,0.074,1163.27,1168.0,81.3,25.7,29.3,0.874
92,2025-09-28 21:00:09.192000+00:00,75609192,0.0,0.0,0.001,0.0,0.0,0.0,0.0,0.007044966666666667,0.3243212222222222,-0.7799104444444445,-0.31599333333333335,-0.01399446,0.9385064444444445,0.30276531111111116,-0.05105977777777779,0.1377622,,-0.005222222222222223,0.074,1163.27,1168.0,81.3,25.7,29.3,0.874
93,2025-09-28 21:00:09.292000+00:00,75609292,0.0,0.0,0.001,0.0,0.0,0.0,0.0,0.006606011086956522,0.32421208695652176,-0.7801843913043478,-0.31648541304347827,-0.0035946464130434783,0.9387861086956522,0.05632871413043479,0.16968458695652175,0.07955344347826086,,-0.005673913043478261,0.074,1163.27,1168.0,81.3,25.7,29.3,0.874
94,2025-09-28 21:00:09.392000+00:00,75609392,0.0,0.0,0.001,0.0,0.0,0.0,0.0,0.006661521494252874,0.32450741379310344,-0.7802510459770114,-0.31526097701149425,-0.0062185302183908045,0.9392484022988505,0.041014488160919536,-0.06863867816091954,0.09736621034482758,,-0.005436781609195402,0.0735632183908046,1163.27,1168.0,81.3,25.7,29.3,0.874
95,2025-09-28 21:00:09.492000+00:00,75609492,0.0,0.0,0.001,0.0,0.0,0.0,0.0,0.006637355684210526,0.32453736842105263,-0.7803815684210527,-0.319605,-0.009278961157894738,0.9393508631578947,0.23692097052631583,0.08784182105263158,0.1577340947368421,,-0.0054631578947368425,0.073,1163.27,1168.0,81.3,25.7,29.3,0.874
96,2025-09-28 21:00:09.592000+00:00,75609592,0.0,0.0,0.001,0.0,0.0,0.0,0.0,0.00656361,0.3247447368421053,-0.7805680526315789,-0.3177871052631579,-0.002457479052631579,0.939524,0.06734815789473686,0.11980773684210527,0.11310798947368422,,-0.005421052631578947,0.07342105263157894,1163.27,1168.0,81.3,25.7,29.3,0.874
97,2025-09-28 21:00:09.692000+00:00,75609692,0.0,0.0,0.001,0.0,0.0,0.0,0.0,0.0069325252343750005,0.324803546875,-0.7806864375,-0.31523182031249997,-0.0011279354296875,0.939461765625,-0.3810380859375,-0.14474882812499995,0.0737876953125,,-0.0058203125,0.074,1163.27,1168.0,81.3,25.7,29.3,0.874
98,2025-09-28 21:00:09.792000+00:00,75609792,0.0,0.0,0.001,0.0,0.0,0.0,0.0,0.008317939296875,0.324636359375,-0.7806926875,-0.3168310390625,-0.0094783112109375,0.939047703125,-0.5444732421875,-1.2929785156249998,0.0998794140625,,-0.0050390625,0.074,1163.27,1168.0,81.3,25.7,29.3,0.874
99,2025-09-28 21:00:09.892000+00:00,75609892,0.0,0.0,0.001,0.0,0.0,0.0,0.0,0.008689882222222223,0.32477477777777775,-0.7806727222222223,-0.31470244444444445,-0.011173494444444446,0.9394928333333333,-0.05181183888888889,0.7828091666666667,-0.08561594444444445,,-0.006,0.07211111111111111,1163.27,1168.0,81.3,25.7,29.3,0.874
100,2025-09-28 21:00:09.992000+00:00,75609992,0.0,0.0,0.001,0.0,0.0,0.0,0.0,0.008399702872340424,0.32201310638297875,-0.7806565000000001,-0.3109527021276596,-0.012881581914893617,0.9382893723404255,0.36109939361702126,0.28022212765957444,0.21514259574468084,,-0.006,0.074,1163.27,1168.0,81.3,25.7,29.3,0.874
101,2025-09-28 21:00:10.092000+00:00,75610092,0.0,0.0,0.001,0.0,0.0,0.0,0.0,0.008004317741935484,0.32319909677419356,-0.7807973548387097,-0.31774009677419357,-0.004879394838709678,0.9399929032258065,0.25249331612903225,0.7031921290322581,0.1886061258064516,,-0.0057741935483870965,0.07377419354838709,1163.27,1168.0,81.3,25.7,29.3,0.874
102,2025-09-28 21:00:10.192000+00:00,75610192,0.0,0.0,0.001,0.0,0.0,0.0,0.0,0.007828233235294118,0.3237345588235294,-0.7808962352941176,-0.31667335294117643,-0.013747723529411764,0.9405308823529411,0.09415952352941177,0.2656911176470588,0.08369873529411766,,-0.005,0.07320588235294118,1163.27,1168.0,81.3,25.7,29.3,0.874
103,2025-09-28 21:00:10.292000+00:00,75610292,0.0,0.0,0.001,0.0,0.0,0.0,0.0,0.007763387647058823,0.32402941176470584,-0.7809756470588235,-0.32401747058823527,-0.021803164705882352,0.9406411764705882,0.14093496470588235,-0.7127691764705884,0.03793814705882353,,-0.005,0.07394117647058823,1163.27,1168.0,81.3,25.7,29.3,0.874
104,2025-09-28 21:00:10.392000+00:00,75610392,0.0,0.0,0.001,0.0,0.0,0.0,0.0,0.006394405,0.3235501046511628,-0.7813514186046512,-0.31943241860465116,-0.009283423837209303,0.9402331046511628,0.31606487209302325,0.1081996046511628,0.1718272093023256,,-0.005941860465116279,0.07388372093023256,1163.27,1168.0,81.3,25.7,29.3,0.874
105,2025-09-28 21:00:10.492000+00:00,75610492,0.0,0.0,0.001,0.0,0.0,0.0,0.0,0.006868351351351351,0.32367364864864867,-0.781392831081081,-0.3186031081081081,-0.006328943851351351,0.9400311081081081,-1.453598945945946,0.2195908932432433,-0.3510110337837838,,-0.005,0.07225675675675675,1163.27,1168.0,81.3,25.7,29.3,0.874
106,2025-09-28 21:00:10.592000+00:00,75610592,0.0,0.0,0.001,0.0,0.0,0.0,0.0,0.007804621621621622,0.32380337837837836,-0.7812340472972973,-0.3181247297297297,-0.012305964121621622,0.9401527297297297,-0.03348813513513482,1.8799545418918922,0.12465720945945946,,-0.005,0.0736081081081081,1163.27,1168.0,81.3,25.7,29.3,0.874
107,2025-09-28 21:00:10.692000+00:00,75610692,0.0,0.0,0.001,0.0,0.0,0.0,0.0,0.00801385525,0.32453620833333335,-0.78123415,-0.317915,-0.013929605,0.94043295,0.07505803333333333,0.662032991666667,0.14029208083333333,,-0.005591666666666667,0.074,1163.27,1168.0,81.3,25.7,29.3,0.874
108,2025-09-28 21:00:10.792000+00:00,75610792,0.0,0.0,0.001,0.0,0.0,0.0,0.0,0.007729189052631579,0.3255308315789474,-0.7813878631578948,-0.3180216842105263,-0.004271402631578948,0.9405590526315789,-0.052812998947368434,-0.4725346947368421,0.12379507157894737,,-0.0054631578947368425,0.07346315789473684,1163.27,1168.0,81.3,25.7,29.3,0.874
109,2025-09-28 21:00:10.892000+00:00,75610892,0.0,0.0,0.001,0.0,0.0,0.0,0.0,0.007596503125,0.3255865,-0.7815411250000001,-0.3181,0.0010135349999999994,0.939969,-0.11261281875000004,-0.593456,0.10314125125,,-0.005,0.073,1163.27,1168.0,81.3,25.7,29.3,0.874
110,2025-09-28 21:00:10.992000+00:00,75610992,0.0,0.0,0.001,0.0,0.0,0.0,0.0,0.007967914301075268,0.32490364516129033,-0.7815996881720431,-0.31669784946236557,-0.004583560322580646,0.9391604516129033,-0.2569974408602151,-0.4118530322580646,0.01652311505376344,,-0.005,0.073,1163.27,1168.0,81.3,25.7,29.3,0.874
111,2025-09-28 21:00:11.092000+00:00,75611092,0.0,0.0,0.001,0.0,0.0,0.0,0.0,0.008933996111111111,0.32465377777777776,-0.7815503888888888,-0.31629644444444444,-0.009224856666666666,0.9390778888888889,-0.22872277777777777,0.49672344444444444,0.08118658888888888,,-0.005388888888888889,0.07338888888888888,1163.27,1168.0,81.3,25.7,29.3,0.874
112,2025-09-28 21:00:11.192000+00:00,75611192,0.0,0.0,0.001,0.0,0.0,0.0,0.0,0.009716847628865979,0.325214381443299,-0.7814608762886598,-0.31655382474226806,-0.009503234536082473,0.939422762886598,-0.47588861855670106,0.3111843247422681,-0.01528749484536085,,-0.006,0.0735360824742268,1163.27,1168.0,81.3,25.7,29.3,0.874
113,2025-09-28 21:00:11.292000+00:00,75611292,0.0,0.0,0.001,0.0,0.0,0.0,0.0,0.010523644578313254,0.32389480722891567,-0.7813884698795182,-0.31156818072289155,-0.009893747590361445,0.938265156626506,-0.3939639036144578,-1.5321949337349396,-0.19196815662650604,,-0.006,0.073,1163.27,1168.0,81.3,25.7,29.3,0.874
114,2025-09-28 21:00:11.392000+00:00,75611392,0.0,0.0,0.001,0.0,0.0,0.0,0.0,0.010780227777777778,0.3218573888888889,-0.7814722777777778,-0.31360794444444445,-0.0019044105555555552,0.9375405555555556,0.27952144444444443,-0.758779027777778,0.14704516666666667,,-0.006,0.07372222222222222,1163.27,1168.0,81.3,25.7,29.3,0.874
115,2025-09-28 21:00:11.492000+00:00,75611492,0.0,0.0,0.001,0.0,0.0,0.0,0.0,0.01066556842105263,0.32071731578947366,-0.7816077894736843,-0.31010231578947367,-0.01120726947368421,0.937831052631579,0.09361721447368426,-0.29730447368421054,0.03740244736842105,,-0.005210526315789474,0.07478947368421052,1163.27,1168.0,81.3,25.7,29.3,0.874
116,2025-09-28 21:00:11.592000+00:00,75611592,0.0,0.0,0.001,0.0,0.0,0.0,0.0,0.010274012499999999,0.320535875,-0.78179825,-0.31322425,-0.012057825,0.9385966250000001,0.13748985187499999,-0.283387,0.04728025000000001,,-0.005,0.074375,1163.27,1168.0,81.3,25.7,29.3,0.874
117,2025-09-28 21:00:11.692000+00:00,75611692,0.0,0.0,0.001,0.0,0.0,0.0,0.0,0.009676579157894737,0.3206773263157895,-0.7820375789473684,-0.3138177894736842,-0.008595438315789473,0.9395638000000001,0.26539314736842107,0.2684011473684211,0.16004496105263155,,-0.005547368421052632,0.074,1163.27,1168.0,81.3,25.7,29.3,0.874
118,2025-09-28 21:00:11.792000+00:00,75611792,0.0,0.0,0.001,0.0,0.0,0.0,0.0,0.009067448295454545,0.32128511363636364,-0.7823058636363637,-0.3150885340909091,-0.012161982613636364,0.940804465909091,0.15906671363636363,0.7254277840909091,0.13727653977272727,,-0.006,0.07335227272727272,1163.27,1168.0,81.3,25.7,29.3,0.874
119,2025-09-28 21:00:11.892000+00:00,75611892,0.0,0.0,0.001,0.0,0.0,0.0,0.0,0.008682702613636363,0.3220638181818182,-0.7824885795454546,-0.31473921590909093,-0.013534043181818181,0.9414445681818181,0.24509155227272728,0.09089996249999999,0.08671314431818182,,-0.006,0.07456818181818181,1163.27,1168.0,81.3,25.7,29.3,0.874
120,2025-09-28 21:00:11.992000+00:00,75611992,0.0,0.0,0.001,0.0,0.0,0.0,0.0,0.00870913,0.3222781641791045,-0.7825565,-0.312810052238806,-0.014552405223880597,0.9413418134328358,0.2170501119402985,-0.04681357611940298,0.21801754776119403,,-0.005395522388059701,0.0737910447761194,1163.27,1168.0,81.3,25.7,29.3,0.874
121,2025-09-28 21:00:12.092000+00:00,75612092,0.0,0.0,0.001,0.0,0.0,0.0,0.0,0.008673214081632654,0.32309007142857143,-0.7827192040816326,-0.3127304897959184,-0.01846655306122449,0.9415693571428572,-0.006868918367346932,0.7529957438775512,0.21175462244897958,,-0.005479591836734694,0.07395918367346939,1163.27,1168.0,81.3,25.7,29.3,0.874
122,2025-09-28 21:00:12.192000+00:00,75612192,0.0,0.0,0.001,0.0,0.0,0.0,0.0,0.008273268977272728,0.32348156818181817,-0.7830418409090909,-0.3163761022727273,-0.01814611022727273,0.9411426590909091,0.10594569318181818,-0.4769043181818178,0.026474954545454538,,-0.006,0.07388636363636364,1163.27,1168.0,81.3,25.7,29.3,0.874
123,2025-09-28 21:00:12.292000+00:00,75612292,0.0,0.0,0.001,0.0,0.0,0.0,0.0,0.008000468735632184,0.32219616091954023,-0.7832497126436782,-0.31438936781609195,-0.0173178908045977,0.9399431609195402,0.12044992873563218,0.03976928735632157,0.1547135172413793,,-0.006,0.073,1163.27,1168.0,81.3,25.7,29.3,0.874
124,2025-09-28 21:00:12.392000+00:00,75612392,0.0,0.0,0.001,0.0,0.0,0.0,0.0,0.00837359488888889,0.3221142,-0.7833497111111111,-0.3130890666666667,-0.012590282222222221,0.9400410444444445,-0.09613479111111113,0.9606445333333333,0.19051515555555557,,-0.005177777777777778,0.07382222222222222,1163.27,1168.0,81.3,25.7,29.3,0.874
125,2025-09-28 21:00:12.492000+00:00,75612492,0.0,0.0,0.001,0.0,0.0,0.0,0.0,0.008897096363636364,0.3223042272727273,-0.783512,-0.3039596363636364,-0.018413422727272727,0.9400567727272727,-0.4781874545454545,-0.5786244545454546,-0.041016313636363655,,-0.0059545454545454546,0.07304545454545454,1163.27,1168.0,81.3,25.7,29.3,0.874
126,2025-09-28 21:00:12.592000+00:00,75612592,0.0,0.0,0.001,0.0,0.0,0.0,0.0,0.009086715714285714,0.32514102040816323,-0.7834102653061225,-0.3211751836734694,-0.01046369387755102,0.9421228979591836,0.9009976326530613,1.887358408163265,0.1441537367346939,,-0.006,0.07397959183673469,1163.27,1168.0,81.3,25.7,29.3,0.874
127,2025-09-28 21:00:12.692000+00:00,75612692,0.0,0.0,0.001,0.0,0.0,0.0,0.0,0.007909020714285715,0.3260403142857143,-0.78378035,-0.3151520642857143,-0.011805475499999999,0.9417039071428572,-0.35120122857142855,1.450339742857143,-0.08570085357142858,,-0.006,0.074,1163.27,1168.0,81.3,25.7,29.3,0.874
128,2025-09-28 21:00:12.792000+00:00,75612792,0.0,0.0,0.001,0.0,0.0,0.0,0.0,0.00815680642857143,0.3265660285714286,-0.78379535,-0.3129527785714286,-0.005397425499999999,0.9412917642857143,-0.3013926571428571,0.7003368857142857,-0.08239478214285714,,-0.006,0.074,1163.27,1168.0,81.3,25.7,29.3,0.874
129,2025-09-28 21:00:12.892000+00:00,75612892,0.0,0.0,0.001,0.0,0.0,0.0,0.0,0.008217688076923076,0.3269837692307692,-0.7839486153846154,-0.317515,-0.00981330730769231,0.9398043461538461,-0.07924569230769232,-1.0778046923076923,0.16497062692307693,,-0.006,0.07311538461538461,1163.27,1168.0,81.3,25.611538461538462,29.3,0.8748846153846154
130,2025-09-28 21:00:12.992000+00:00,75612992,0.0,0.0,0.001,0.0,0.0,0.0,0.0,0.008444543741007194,0.3261881798561151,-0.7839542517985612,-0.31478158992805755,-0.00459144654676259,0.938714381294964,-0.10995181294964029,-0.8225186402877698,0.05946790431654675,,-0.005345323741007194,0.073,1163.27,1168.0,81.3,25.665467625899282,29.3,0.875
131,2025-09-28 21:00:13.092000+00:00,75613092,0.0,0.0,0.001,0.0,0.0,0.0,0.0,0.00885869793814433,0.32386023711340206,-0.7839277010309278,-0.3137793711340206,-0.010754120103092783,0.9368718865979382,-0.37778162886597944,-2.0462800515463915,-0.12799653092783503,,-0.005,0.07139175257731958,1163.27,1168.0,81.3,25.64639175257732,29.3,0.875
132,2025-09-28 21:00:13.192000+00:00,75613192,0.0,0.0,0.0005564516129032258,0.0,0.0,0.0,0.0,0.009346962096774193,0.31883262903225806,-0.7839722096774193,-0.3119490967741935,-0.00891729677419355,0.9339787983870967,-1.2181052096774194,-4.960679758064516,-0.34185810483870965,,-0.004112903225806452,0.0633467741935484,1163.27,1168.0,81.3,25.644354838709678,29.3,0.875
133,2025-09-28 21:00:13.292000+00:00,75613292,0.0,0.0,-0.0013932584269662923,0.0,0.0,0.0,0.0,0.008124996404494381,0.296608797752809,-0.7846167528089888,-0.30405562921348317,-0.03324910202247191,0.9254068651685393,4.237869213483146,-20.807760898876403,1.4568073258426966,,-0.00648314606741573,0.02260674157303371,1163.27,1168.0,81.3,25.7,29.3,0.875
134,2025-09-28 21:00:13.392000+00:00,75613392,-0.012444444444444444,-58.8,0.011866666666666668,0.015555555555555557,-0.16488888888888892,0.049777777777777775,1.574222222222222,-0.004607225777777777,0.22838597777777775,-0.7891836666666667,-0.2235651511111111,-0.027614177777777776,0.9074403333333333,16.753164444444444,-58.21689555555556,5.553385111111111,,-0.048466666666666665,-0.1136,1163.2668888888888,1168.0031111111111,81.23777777777778,25.66888888888889,29.3,0.875
135,2025-09-28 21:00:13.492000+00:00,75613492,-0.03437113402061856,-166.41237113402062,0.052123711340206186,0.3408247422680412,3.3546391752577316,0.16144329896907217,8.55639175257732,-0.028857124742268044,0.14035293608247423,-0.7966684020618556,-0.09732760824742268,0.14546552577319588,0.8932903711340207,17.972759793814433,-84.30471237113402,5.811639072164949,,-0.11783505154639176,-0.009226804123711352,1163.258556701031,1168.011443298969,81.02061855670102,25.6,29.3,0.8749278350515464
136,2025-09-28 21:00:13.592000+00:00,75613592,0.07765116279069767,178.18604651162792,0.11625581395348837,4.209069767441861,53.12441860465116,0.15441860465116278,53.280930232558134,-0.0601916488372093,-0.015297309302325581,-0.7909453488372092,-0.491688488372093,0.20946532558139536,0.8826534651162791,9.38111976744186,-82.35416046511628,-2.742416046511628,,-0.07441860465116279,3.6682558139534884,1163.2446511627907,1168.0346511627906,80.05813953488372,25.6,29.3,0.8737674418604651
137,2025-09-28 21:00:13.692000+00:00,75613692,0.45855056179775283,652.0224719101124,0.10758426966292134,4.688426966292135,47.370224719101124,-0.018426966292134833,47.19573033707865,-0.06889793595505618,-0.0853543808988764,-0.7802796853932584,-0.20621120224719103,-0.0726905397752809,0.9054889775280899,1.5885643820224717,-24.590214984269664,10.922627528089887,,-0.5760898876404494,4.996550561797752,1163.3015730337079,1168.0888764044944,80.47303370786517,25.6,29.3,0.8714606741573033
138,2025-09-28 21:00:13.792000+00:00,75613792,0.7108560606060607,848.6363636363636,0.1274242424242424,3.611060606060606,37.04924242424242,0.07446969696969696,37.07659090909091,-0.06532562424242425,-0.09140095984848484,-0.8057392878787879,0.06513743181818182,-0.02867299712121212,0.9395561515151516,1.295545,0.4072807893939394,21.101858333333332,,-0.44383333333333336,4.976583333333333,1163.3785606060605,1168.1612121212122,80.34696969696971,25.6,29.3,0.869469696969697
139,2025-09-28 21:00:13.892000+00:00,75613892,0.8190947368421052,935.4526315789474,0.1482842105263158,4.433894736842105,41.793684210526315,0.16463157894736843,41.81305263157895,-0.06268765894736843,-0.09151395684210525,-0.8331818947368421,-0.05687421157894737,-0.12091160526315789,0.963982947368421,0.8497755789473685,1.185015263157895,20.816477894736842,,-0.565778947368421,5.4339894736842105,1163.434105263158,1168.224105263158,80.19052631578948,25.6,29.3,0.8679052631578947
140,2025-09-28 21:00:13.992000+00:00,75613992,1.0209333333333332,1177.9555555555555,0.1585111111111111,5.829777777777778,47.12533333333333,0.0017777777777777779,47.12533333333333,-0.04602534933333333,-0.09646623333333333,-0.8733282666666667,-0.06157594444444444,0.02826944222222222,0.9874724444444444,-18.479968888888887,-4.726811777777778,21.769088888888888,,-0.8500222222222222,6.379977777777778,1163.5706666666665,1168.3597777777777,79.88222222222223,25.6,29.3,0.8647333333333334
141,2025-09-28 21:00:14.092000+00:00,75614092,1.2004943820224718,1344.258426966292,0.17703370786516853,6.613033707865169,48.12247191011236,0.032134831460674154,48.12247191011236,0.013660821573033707,-0.10307838202247191,-0.9216741460674157,-0.09854997752808989,-0.05974268202247191,1.0086350561797752,-18.590722471910112,-4.290739325842697,13.069613033707865,,-1.0462696629213484,7.111842696629214,1163.7042696629214,1168.4862921348315,79.63932584269664,25.6,29.3,0.8613932584269662
142,2025-09-28 21:00:14.192000+00:00,75614192,1.3506666666666667,1497.0,0.19433333333333333,8.38,53.99666666666667,0.07333333333333333,54.0,0.037959433333333334,-0.11083766666666667,-0.9332726666666666,-0.03469306666666666,0.046719333333333335,1.0153,-10.358373333333333,-7.50214,-1.3413600000000003,,-1.3663333333333334,8.018333333333333,1163.84,1168.6299999999999,79.26666666666667,25.633333333333333,29.3,0.858
143,2025-09-28 21:00:14.292000+00:00,75614292,1.5315384615384615,1721.923076923077,0.2183846153846154,10.452307692307691,59.69,0.12,59.69076923076923,0.04954999230769231,-0.11891746153846154,-0.9221578461538461,0.025043507692307697,0.008734707692307705,1.017843076923077,-2.985607692307692,-9.129695384615385,-10.23851076923077,,-1.9965384615384616,9.069307692307692,1163.9892307692307,1168.7792307692307,78.76923076923077,25.7,29.3,0.8541538461538462
144,2025-09-28 21:00:14.392000+00:00,75614392,1.7493333333333334,1951.3666666666666,0.24533333333333335,12.166666666666666,63.35133333333333,0.17866666666666667,63.37533333333333,0.043055913333333334,-0.1286824,-0.9019603666666667,-0.11398616666666665,-0.03875468333333333,1.0183023333333334,4.311452666666667,-6.104223333333333,-11.12702,,-2.825066666666667,9.958633333333333,1164.172,1168.9733333333334,78.21666666666667,25.7,29.3,0.8486
145,2025-09-28 21:00:14.492000+00:00,75614492,1.9627444444444446,2201.7333333333336,0.2804333333333333,14.934,70.05077777777777,0.12933333333333336,70.04655555555556,0.03141568111111111,-0.13651817777777778,-0.8845895888888888,-0.20887012222222223,-0.0021307915555555564,1.0186993333333334,-3.8008285555555545,-7.407887333333333,-8.623241777777778,,-3.8037222222222224,11.020844444444444,1164.372,1169.182,77.86444444444444,25.7,29.3,0.8419333333333333
146,2025-09-28 21:00:14.592000+00:00,75614592,2.138188811188811,2458.7482517482517,0.31236363636363634,16.80874125874126,73.08083916083916,0.13979020979020979,73.0706993006993,0.03166468461538462,-0.14080193706293706,-0.8730313146853147,-0.13878644825174824,-0.004892508251748251,1.0187445454545454,-5.606796013986013,-8.339477482517482,-8.410674475524475,,-4.429713286713287,11.886391608391609,1164.5342657342658,1169.359160839161,77.4027972027972,25.74965034965035,29.3,0.8365244755244755
147,2025-09-28 21:00:14.692000+00:00,75614692,2.370623529411765,2727.9411764705883,0.3306823529411765,18.34905882352941,74.09835294117647,0.11400000000000002,74.09188235294117,0.029392236470588234,-0.14519241176470588,-0.8632677882352942,-0.11176003176470589,-0.08636287764705883,1.018586,2.9701947058823532,-7.775168,-3.448265764705882,,-4.977729411764706,12.770329411764706,1164.755294117647,1169.595294117647,77.0,25.8,29.3,0.8290470588235294
148,2025-09-28 21:00:14.792000+00:00,75614792,2.7261195652173913,3039.4021739130435,0.352304347826087,19.72945652173913,73.4029347826087,0.07478260869565218,73.36760869565217,0.014751481847826086,-0.15318841304347827,-0.8674914021739131,-0.16022444130434782,-0.13547945217391302,1.017826195652174,7.363113478260869,-8.51865652173913,11.055150652173912,,-5.59079347826087,13.872826086956522,1165.1115217391305,1169.9608695652173,76.85978260869565,25.84673913043478,29.3,0.8172608695652174
149,2025-09-28 21:00:14.892000+00:00,75614892,3.0322,3338.6,0.3626,18.506,66.084,-0.008000000000000007,66.036,0.004899904,-0.16290960000000002,-0.8823422,-0.015196620000000001,-0.10361328,1.017126,2.0233860000000004,-7.9694139999999996,7.265314,,-5.5678,14.5144,1165.424,1170.296,77.0,25.9,29.3,0.8082
150,2025-09-28 21:00:14.992000+00:00,75614992,3.292956043956044,3586.956043956044,0.3763846153846154,18.696153846153848,63.74351648351649,0.09032967032967035,63.74879120879121,0.011905875824175823,-0.15910657142857143,-0.9025770879120879,0.01585473956043956,-0.2528223296703297,1.02092978021978,-2.3353820879120875,-1.1431486813186815,15.839759890109889,,-5.79489010989011,15.198901098901098,1165.7648351648352,1170.6593406593406,76.76483516483516,25.9,29.3,0.799923076923077
151,2025-09-28 21:00:15.092000+00:00,75615092,3.602723404255319,3853.6382978723404,0.3947765957446809,21.445744680851064,68.385,0.03436170212765957,68.32723404255319,0.046820636170212766,-0.15227640425531913,-0.9335876063829787,-0.14503684361702127,-0.14021051063829787,1.0268163829787234,-9.745390212765958,-2.1736943617021276,2.246099468085106,,-6.681808510638298,16.14122340425532,1166.2409574468084,1171.1409574468084,76.6,25.979787234042554,29.3,0.7876276595744681
152,2025-09-28 21:00:15.192000+00:00,75615192,3.8713409090909088,4130.670454545455,0.40712499999999996,18.358181818181816,57.58375,-0.02761363636363636,57.50375,0.04980599204545454,-0.14716101136363635,-0.9130086590909091,0.0345382897727273,-0.01669603306818182,1.0301014772727273,5.452372045454547,0.9182706818181816,-23.30262965909091,,-6.079409090909091,16.474431818181817,1166.6713636363636,1171.5713636363635,77.06022727272726,26.0,29.3,0.7776363636363637
153,2025-09-28 21:00:15.292000+00:00,75615292,4.075260869565217,4331.521739130435,0.4370434782608696,18.39630434782609,55.77130434782609,0.014782608695652174,55.75,0.04098327826086957,-0.13831489130434782,-0.8719963913043478,0.09832002173913043,0.08400919782608696,1.0327310869565216,-1.4752941304347826,7.051195869565217,-21.94193239130435,,-6.210695652173913,17.009304347826088,1167.0684782608696,1171.9684782608697,77.11521739130434,26.1,29.3,0.7708695652173914
154,2025-09-28 21:00:15.392000+00:00,75615392,4.23638202247191,4504.7191011235955,0.39669662921348314,15.32325842696629,46.628314606741576,-0.19528089887640449,46.555056179775285,0.04510450786516854,-0.12500123595505616,-0.8486361910112359,0.07904723033707865,-0.012980270786516852,1.0335929213483146,-8.488773258426967,5.079061123595506,-7.3409810112359555,,-5.467730337078652,17.041314606741572,1167.4938202247192,1172.393820224719,77.8,26.11123595505618,29.3,0.7645505617977528
155,2025-09-28 21:00:15.492000+00:00,75615492,4.35,4644.197674418605,0.42190697674418604,13.880465116279069,41.82430232558139,0.03906976744186047,41.811627906976746,0.05410802325581395,-0.11343901162790697,-0.834927534883721,0.12022352593023256,-0.009393844186046512,1.0277920930232558,-5.60682523255814,6.882373372093023,-8.567222674418606,,-5.097360465116279,17.269755813953488,1167.84,1172.74,77.7267441860465,26.2,29.3,0.761
156,2025-09-28 21:00:15.592000+00:00,75615592,4.38804347826087,4769.641304347826,0.4374239130434783,15.139565217391304,44.099782608695655,0.16380434782608697,44.12880434782609,0.0632113152173913,-0.10144913043478261,-0.8144526195652174,0.0570197925,-0.006433779347826088,1.0187890217391304,-9.911555326086956,4.031108369565217,-12.057598913043478,,-5.500173913043478,17.776663043478262,1168.0035869565218,1172.9035869565218,77.2336956521739,26.2,29.3,0.7590978260869565
157,2025-09-28 21:00:15.692000+00:00,75615692,4.494283582089553,4954.55223880597,0.4564776119402985,18.460223880597013,50.61708955223881,0.16679104477611942,50.65783582089553,0.07487922537313434,-0.09870299253731343,-0.7967236940298508,0.055301835820895526,0.01885458208955225,1.0095251492537314,-13.586552835820894,-1.1803054477611938,-10.79246552238806,,-6.528179104477612,18.605828358208957,1168.4015671641791,1173.3015671641792,76.51119402985074,26.232089552238804,29.3,0.7540746268656716
158,2025-09-28 21:00:15.792000+00:00,75615792,4.629818181818182,5180.181818181818,0.48636363636363633,23.067272727272726,59.80818181818182,0.13727272727272727,59.799090909090914,0.08495134545454545,-0.10108663636363636,-0.7809652727272727,-0.13260882727272727,-0.1339820909090909,1.0047963636363635,-1.3862827272727274,-5.642367272727273,-13.216545454545455,,-7.925272727272727,19.557000000000002,1168.78,1173.6799999999998,75.95454545454545,26.30909090909091,29.3,0.7481818181818182
159,2025-09-28 21:00:15.892000+00:00,75615892,5.064349206349206,5395.015873015873,0.5013492063492063,21.54793650793651,54.4915873015873,-0.09,54.39555555555555,0.08385426031746032,-0.10226510317460318,-0.7488572857142857,-0.051505687301587305,0.10865319841269841,1.0096258730158731,0.19845111111111124,1.8098973015873017,-12.589190476190476,,-7.694984126984127,20.077714285714286,1169.818095238095,1174.7180952380952,76.53968253968254,26.4,29.3,0.7295238095238095
160,2025-09-28 21:00:15.992000+00:00,75615992,5.227841269841269,5625.174603174603,0.5148412698412699,17.627301587301588,44.507460317460314,-0.09,44.45111111111111,0.0743588634920635,-0.09958613492063492,-0.7367501428571429,0.024708439682539676,0.08141518253968254,1.0112846031746032,9.228062222222224,1.7572703174603175,-17.731095238095236,,-6.664825396825397,20.284857142857145,1170.1990476190476,1175.0990476190477,76.93650793650794,26.4,29.3,0.7247619047619047
161,2025-09-28 21:00:16.092000+00:00,75616092,5.353389312977099,5765.236641221374,0.5028931297709923,17.442442748091604,43.115190839694655,-0.03229007633587786,43.09725190839694,0.05859871450381679,-0.09546893816793893,-0.7183720839694657,0.06085642213740458,0.05994719770992367,1.0111524427480916,2.4314574045801525,3.245851832061068,-8.248237557251906,,-6.709038167938931,20.70593893129771,1170.580610687023,1175.480610687023,76.93587786259542,26.46412213740458,29.3,0.7207938931297709
162,2025-09-28 21:00:16.192000+00:00,75616192,5.544260416666667,5929.0,0.4839583333333333,17.033020833333335,41.44125,-0.1325,41.380520833333335,0.058861058333333334,-0.08754175416666667,-0.71080440625,0.098379565625,0.15988847291666666,1.0128788541666667,-12.6565615625,7.147180208333333,2.3242529166666666,,-6.658166666666666,21.04280208333333,1171.3065625,1176.2065625,77.61770833333334,26.5,29.3,0.7134791666666667
163,2025-09-28 21:00:16.292000+00:00,75616292,5.703227272727273,6057.75,0.4834204545454545,13.326136363636364,32.63829545454546,-0.06511363636363635,32.625454545454545,0.07526746363636364,-0.06824529545454545,-0.7059817159090909,0.1414660340909091,0.21756359090909091,1.0153797727272726,-6.572508749999999,11.80684590909091,-11.737521704545454,,-5.492113636363637,21.047375,1172.0868181818182,1176.9868181818183,78.00568181818183,26.5,29.3,0.7077045454545454
164,2025-09-28 21:00:16.392000+00:00,75616392,5.801225806451613,6164.096774193548,0.49170967741935484,12.334516129032258,30.04225806451613,-0.021935483870967748,30.015483870967742,0.06469549999999999,-0.054340390322580645,-0.6710221612903225,0.0052177806451613185,0.021376790322580635,1.0117993548387096,10.654610322580645,7.0187412903225805,-21.26974193548387,,-5.2703225806451615,21.28709677419355,1172.6632258064515,1177.5632258064516,78.12258064516129,26.574193548387097,29.3,0.705516129032258
165,2025-09-28 21:00:16.492000+00:00,75616492,5.8805411764705875,6243.964705882353,0.49478823529411764,12.062470588235294,29.15305882352941,0.013647058823529408,29.120941176470588,0.05529975411764706,-0.040101810588235295,-0.6317628352941176,0.020300155294117647,0.0911507705882353,1.0076171764705883,-1.1470564705882342,12.958039294117647,-20.767364705882354,,-5.2225882352941175,21.482776470588234,1173.2738823529412,1178.1738823529413,78.28941176470587,26.6,29.3,0.7032117647058823
166,2025-09-28 21:00:16.592000+00:00,75616592,5.920526315789473,6282.5684210526315,0.4777578947368421,9.672315789473684,23.72157894736842,-0.14284210526315788,23.682,0.04635297789473684,-0.023933918947368425,-0.5962748,-0.00663034263157895,-0.07063522526315791,1.0050868421052632,12.768467368421051,9.826678,-19.764303157894737,,-4.4213578947368415,21.294757894736843,1173.8472631578945,1178.7472631578946,78.68315789473685,26.6,29.3,0.7020421052631578
167,2025-09-28 21:00:16.692000+00:00,75616692,5.9261,6324.2,0.47309999999999997,8.964,22.05,-0.14200000000000002,21.987,0.02791927,-0.011762749000000001,-0.5774485,0.11597312,-0.25935579999999997,0.9999354,8.01404,6.839662,0.7484879999999998,,-4.1726,21.285800000000002,1173.925,1178.825,79.0,26.61,29.3,0.702
168,2025-09-28 21:00:16.792000+00:00,75616792,5.966714285714286,6355.714285714285,0.47714285714285715,7.67,18.895714285714284,0.037142857142857144,18.89857142857143,0.03353562857142857,-0.0059889371428571425,-0.5968111428571429,0.06440578571428571,-0.1798576857142857,0.9881647142857143,-15.587285714285715,3.636512857142857,17.361240000000002,,-3.7355714285714288,21.30042857142857,1174.497142857143,1179.3971428571429,78.9,26.7,29.3,0.702
169,2025-09-28 21:00:16.892000+00:00,75616892,5.9862631578947365,6370.0,0.4936842105263158,8.722631578947368,21.24157894736842,0.1273684210526316,21.259473684210526,0.062087884210526315,0.0018734463157894735,-0.6179803157894738,-0.06134902631578951,-0.08692445263157896,0.9842211052631579,-11.65142105263158,6.033001578947368,9.80566105263158,,-4.107,21.48163157894737,1174.903157894737,1179.8031578947368,78.3736842105263,26.7,29.3,0.702
170,2025-09-28 21:00:16.992000+00:00,75616992,6.084247311827957,6467.247311827957,0.5126451612903226,12.874086021505375,29.975806451612904,0.11225806451612903,29.97731182795699,0.07799111397849462,0.01037990817204301,-0.5993376559139785,-0.28676704193548386,-0.23335706021505376,0.9766317956989248,-5.4589849462365585,-4.5327760215053745,-12.755060645161288,,-5.553494623655913,22.203322580645164,1176.2083870967742,1181.1083870967743,78.02258064516128,26.7,29.392473118279568,0.6992258064516128
171,2025-09-28 21:00:17.092000+00:00,75617092,6.194544444444444,6582.677777777778,0.5331444444444444,13.323333333333334,30.468222222222224,0.091,30.468555555555554,0.0749455488888889,0.004267042888888889,-0.57298,-0.10415208222222222,-0.1448537311111111,0.9705471333333333,8.531098555555555,-3.134132222222222,-17.85447111111111,,-5.761088888888889,22.594055555555553,1176.8664444444444,1181.7664444444445,77.89222222222223,26.7,29.4,0.6969666666666666
