ride_id,sample_idx,_elapsed_ms,ts_utc,ts_pst,video_ts_anchor,ms_today,cf_accel,cf_brake,cf_cruise,cf_turn_left,cf_turn_right,cf_carve_left,cf_carve_right,cf_ascent,cf_descent,cf_traction_loss,cf_idle,cf_forward,cf_reverse,speed_meters_per_sec,erpm,duty_cycle,current_in,current_motor,d_axis_current,q_axis_current,roll,pitch,yaw,accX,accY,accZ,gyroX,gyroY,gyroZ,gnss_lat,fault_code,d_axis_voltage,q_axis_voltage,tacho_meters,tacho_abs_meters,gnss_lon,gnss_alt,gnss_gVel,gnss_vVel,input_voltage,temp_mos_max,temp_motor,battery_level,dt_ms,_on_grid
ride_33,0,0.0,2025-09-28 21:05:07.393000+00:00,2025-09-28 14:05:07.393,00:00:04.7,75907393,0.0,0.0,0.0,0.0,0.0,0.0,0.0,0.0,0.0,0.0,1.0,0.0,0.0,0.0,0.0,0.001,0.0,-0.01,-0.05,0.03,0.0328497,0.329258,-1.43268,-0.319145,-0.0266905,0.937829,-0.507384,-0.0933743,-0.196743,47.59950191,0.0,-0.041,0.024,2136.86,2142.61,-122.83054282,104.70297081,0.0,0.0,81.1,27.6,33.6,0.862,100,True
,1,100.0,2025-09-28 21:05:07.493000+00:00,2025-09-28 14:05:07.493,00:00:04.8,75907493,0.0,0.0,0.0,0.0,0.0,0.0,0.0,0.0,0.0,0.0,1.0,0.0,0.0,0.0,0.0,0.001,0.0,0.0,0.0,0.0,0.0639569906976744,0.3344551162790697,-2.003357209302325,-0.3266530232558139,-0.0616366209302325,0.9353896511627906,0.2315396465116279,-0.0851291162790697,0.2907161860465116,47.59950191,,-0.066,0.032953488372093,2136.86,2142.61,-122.83054282,104.70297081,0.0,0.0,81.1,27.6,33.6,0.862,100,True
,2,200.0,2025-09-28 21:05:07.593000+00:00,2025-09-28 14:05:07.593,00:00:04.9,75907593,0.0,0.0,0.0,0.0,0.0,0.0,0.0,0.0,0.0,0.0,1.0,0.0,0.0,0.0,0.0,0.001,0.0,0.0,0.0,0.0,0.0634978102040816,0.3347815306122448,-2.003744897959184,-0.3287304897959183,-0.0591258122448979,0.935886693877551,0.0565702040816326,-0.0072999530612244,0.1171659183673469,47.59950191,,-0.0661836734693877,0.0321836734693877,2136.86,2142.61,-122.83054282,104.70297081,0.0,0.0,81.1,27.6,33.6,0.862,100,True
,3,300.0,2025-09-28 21:05:07.693000+00:00,2025-09-28 14:05:07.693,00:00:05.0,75907693,0.0,0.0,0.0,0.0,0.0,0.0,0.0,0.0,0.0,0.0,1.0,0.0,0.0,0.0,0.0,0.001,0.0,0.0,0.0,0.0,0.0634656720930232,0.3348422093023256,-2.003944186046512,-0.3280208837209302,-0.0616463395348837,0.936038511627907,-0.052284,0.0342464906976744,0.1836565116279069,47.59950191,,-0.0667674418604651,0.033,2136.86,2142.61,-122.83054282,104.70297081,0.0,0.0,81.1,27.6,33.6,0.862,100,True
,4,400.0,2025-09-28 21:05:07.793000+00:00,2025-09-28 14:05:07.793,00:00:05.1,75907793,0.0,0.0,0.0,0.0,0.0,0.0,0.0,0.0,0.0,0.0,1.0,0.0,0.0,0.0,0.0,0.001,0.0,0.0,0.0,0.0,0.0634410227272727,0.3347204090909091,-2.0041711363636363,-0.3268622272727273,-0.0648431113636363,0.9360144090909092,0.0238145681818181,-0.0200956159090909,0.1232343022727272,47.59950191,,-0.066,0.0326136363636363,2136.86,2142.61,-122.83054282,104.68225948204544,0.0,0.0,81.1,27.6,33.6,0.862,100,True
,5,500.0,2025-09-28 21:05:07.893000+00:00,2025-09-28 14:05:07.893,00:00:05.2,75907893,0.0,0.0,0.0,0.0,0.0,0.0,0.0,0.0,0.0,0.0,1.0,0.0,0.0,0.0,0.0,0.001,0.0,0.0,0.0,0.0,0.0632524770833333,0.3345992708333333,-2.0044150000000003,-0.3236608125,-0.0633308104166666,0.9359760208333332,0.1141950041666666,0.04636496875,0.0620531770833333,47.59950191,,-0.066,0.0324791666666666,2136.86,2142.61,-122.83054282,104.64936502,0.0,0.0,81.1,27.6,33.6,0.862,100,True
,6,600.0,2025-09-28 21:05:07.993000+00:00,2025-09-28 14:05:07.993,00:00:05.3,75907993,0.0,0.0,0.0,0.0,0.0,0.0,0.0,0.0,0.0,0.0,1.0,0.0,0.0,0.0,0.0,0.001,0.0,0.0,0.0,0.0,0.0631046875968992,0.3346104263565891,-2.004602015503876,-0.3258557131782946,-0.0637138736434108,0.9360548604651162,0.0810624,0.0925516899224806,0.1010879069767441,47.59950191,,-0.066,0.033,2136.86,2142.61,-122.83054282,104.64936502,0.0,0.0,81.1,27.6,33.6,0.862,100,True
,7,700.0,2025-09-28 21:05:08.093000+00:00,2025-09-28 14:05:08.093,00:00:05.4,75908093,0.0,0.0,0.0,0.0,0.0,0.0,0.0,0.0,0.0,0.0,1.0,0.0,0.0,0.0,0.0,0.001,0.0,0.0,0.0,0.0,0.0631134311475409,0.3346432131147541,-2.0047160655737706,-0.328310475409836,-0.0640567393442622,0.9361413114754098,0.064356268852459,0.0496182786885245,0.0949293278688524,47.59950191,,-0.066,0.0328852459016393,2136.86,2142.61,-122.83054282,104.64936502,0.0,0.0,81.1,27.6,33.6,0.862,100,True
,8,800.0,2025-09-28 21:05:08.193000+00:00,2025-09-28 14:05:08.193,00:00:05.5,75908193,0.0,0.0,0.0,0.0,0.0,0.0,0.0,0.0,0.0,0.0,1.0,0.0,0.0,0.0,0.0,0.001,0.0,0.0,0.0,0.0,0.0631897699453551,0.3347585136612022,-2.0047925683060117,-0.3275651202185792,-0.0630593076502732,0.9362380327868852,-0.0151967366120218,0.0492967486338797,0.0635118415300546,47.59950191,,-0.066,0.0323387978142076,2136.86,2142.61,-122.83054282,104.64936502,0.0,0.0,81.1,27.6,33.6,0.862,100,True
,9,900.0,2025-09-28 21:05:08.293000+00:00,2025-09-28 14:05:08.293,00:00:05.6,75908293,0.0,0.0,0.0,0.0,0.0,0.0,0.0,0.0,0.0,0.0,1.0,0.0,0.0,0.0,0.0,0.001,0.0,0.0,0.0,0.0,0.0633693227272727,0.3348839772727273,-2.0049825,-0.3264621818181818,-0.0622047818181818,0.9362699318181816,0.000987175,0.0798854318181818,0.0986605909090909,47.59950191,,-0.066,0.0324318181818181,2136.86,2142.61,-122.83054282,104.64936502,0.0,0.0,81.1,27.6,33.6,0.862,100,True
,10,1000.0,2025-09-28 21:05:08.393000+00:00,2025-09-28 14:05:08.393,00:00:05.7,75908393,0.0,0.0,0.0,0.0,0.0,0.0,0.0,0.0,0.0,0.0,1.0,0.0,0.0,0.0,0.0,0.001,0.0,0.0,0.0,0.0,0.0635209404494382,0.3350476966292134,-2.005271123595506,-0.3262369775280899,-0.0629985382022472,0.9362324382022472,0.0906172662921348,0.0814730786516854,0.2101148426966292,47.59950191,,-0.066,0.033,2136.86,2142.61,-122.83054282,104.64936502,0.0,0.0,81.1,27.6561797752809,33.6,0.862,100,True
,11,1100.0,2025-09-28 21:05:08.493000+00:00,2025-09-28 14:05:08.493,00:00:05.8,75908493,0.0,0.0,0.0,0.0,0.0,0.0,0.0,0.0,0.0,0.0,1.0,0.0,0.0,0.0,0.0,0.001,0.0,0.0,0.0,0.0,0.0634998532608695,0.3351372391304347,-2.0054627173913047,-0.3241516956521739,-0.0618844619565217,0.9361577391304348,-0.007285529347826,0.0966601760869565,0.1561548804347826,47.59950191,,-0.066,0.0323369565217391,2136.86,2142.61,-122.83054282,104.64936502,0.0,0.0,81.1,27.633695652173916,33.6,0.862,100,True
,12,1200.0,2025-09-28 21:05:08.593000+00:00,2025-09-28 14:05:08.593,00:00:05.9,75908593,0.0,0.0,0.0,0.0,0.0,0.0,0.0,0.0,0.0,0.0,1.0,0.0,0.0,0.0,0.0,0.001,0.0,0.0,0.0,0.0,0.0634314069767441,0.3352495,-2.0056884883720927,-0.3277805,-0.0671241976744186,0.9360622325581396,-0.0633102674418604,0.0069150569767441,0.0582496930232558,47.59950191,,-0.066,0.032,2136.86,2142.61,-122.83054282,104.64936502,0.0,0.0,81.1,27.6,33.6,0.862,100,True
,13,1300.0,2025-09-28 21:05:08.693000+00:00,2025-09-28 14:05:08.693,00:00:06.0,75908693,0.0,0.0,0.0,0.0,0.0,0.0,0.0,0.0,0.0,0.0,1.0,0.0,0.0,0.0,0.0,0.001,0.0,0.0,0.0,0.0,0.063381021875,0.3354064166666666,-2.005902916666667,-0.3274994062499999,-0.0610914302083333,0.9359892083333332,0.0063483072916666,0.1013159197916666,0.1587936479166666,47.59950191,,-0.066,0.032,2136.86,2142.61,-122.83054282,104.64936502,0.0,0.0,81.1,27.6,33.6,0.862,100,True
,14,1400.0,2025-09-28 21:05:08.793000+00:00,2025-09-28 14:05:08.793,00:00:06.1,75908793,0.0,0.0,0.0,0.0,0.0,0.0,0.0,0.0,0.0,0.0,1.0,0.0,0.0,0.0,0.0,0.001,0.0,0.0,0.0,0.0,0.0634921531249999,0.335517625,-2.00603875,-0.3277435,-0.0625630875,0.93597365625,0.011903753125,0.2466795937499999,0.11216634375,47.59950191,,-0.066,0.032,2136.86,2142.61,-122.83054282,104.64936502,0.0,0.0,81.1,27.6,33.6,0.862,100,True
,15,1500.0,2025-09-28 21:05:08.893000+00:00,2025-09-28 14:05:08.893,00:00:06.2,75908893,0.0,0.0,0.0,0.0,0.0,0.0,0.0,0.0,0.0,0.0,1.0,0.0,0.0,0.0,0.0,0.001,0.0,0.0,0.0,0.0,0.06346845,0.3355298888888889,-2.0061727777777776,-0.3240172222222222,-0.0634737722222222,0.9358769444444444,0.0201670944444444,0.1091094666666666,0.207766,47.59950191,,-0.0652777777777777,0.032,2136.86,2142.61,-122.83054282,104.67098513944444,0.0,0.0,81.1,27.6,33.6,0.862,100,True
,16,1600.0,2025-09-28 21:05:08.993000+00:00,2025-09-28 14:05:08.993,00:00:06.3,75908993,0.0,0.0,0.0,0.0,0.0,0.0,0.0,0.0,0.0,0.0,1.0,0.0,0.0,0.0,0.0,0.001,0.0,0.0,0.0,0.0,0.0629105670212765,0.3354494042553191,-2.006565744680851,-0.3279496276595744,-0.0617686457446808,0.9356878723404256,0.2164417138297872,0.0026008851063829,0.2306753617021276,47.59950191,,-0.0656914893617021,0.0326914893617021,2136.86,2142.61,-122.83054282,104.67930057,0.0,0.0,81.1,27.6,33.6,0.862,100,True
,17,1700.0,2025-09-28 21:05:09.093000+00:00,2025-09-28 14:05:09.093,00:00:06.4,75909093,0.0,0.0,0.0,0.0,0.0,0.0,0.0,0.0,0.0,0.0,1.0,0.0,0.0,0.0,0.0,0.001,0.0,0.0,0.0,0.0,0.0620605809523809,0.3354366666666666,-2.007007380952381,-0.3269930238095238,-0.0563563214285714,0.935648738095238,0.2383826904761904,0.1578694523809523,0.1677641428571428,47.59950191,,-0.0668452380952381,0.033,2136.86,2142.61,-122.83054282,104.67930057,0.0,0.0,81.1,27.68452380952381,33.6,0.862,100,True
,18,1800.0,2025-09-28 21:05:09.193000+00:00,2025-09-28 14:05:09.193,00:00:06.5,75909193,0.0,0.0,0.0,0.0,0.0,0.0,0.0,0.0,0.0,0.0,1.0,0.0,0.0,0.0,0.0,0.001,0.0,0.0,0.0,0.0,0.0615749258064516,0.3359293225806452,-2.0073406451612903,-0.3238166451612903,-0.0590381838709677,0.9359954516129032,0.167134129032258,0.7148367741935483,0.2231784516129032,47.59950191,,-0.0660645161290322,0.033,2136.86,2142.61,-122.83054282,104.67930057,0.0,0.0,81.1,27.60645161290323,33.6,0.862,100,True
,19,1900.0,2025-09-28 21:05:09.293000+00:00,2025-09-28 14:05:09.293,00:00:06.6,75909293,0.0,0.0,0.0,0.0,0.0,0.0,0.0,0.0,0.0,0.0,1.0,0.0,0.0,0.0,0.0,0.001,0.0,0.0,0.0,0.0,0.0612035244274809,0.3366166946564886,-2.0075752671755724,-0.3264370381679389,-0.0579601229007633,0.9362658396946564,0.2631034045801527,0.4495660458015267,0.222006748091603,47.59950191,,-0.066,0.033,2136.86,2142.61,-122.83054282,104.67930057,0.0,0.0,81.1,27.6,33.6,0.862,100,True
,20,2000.0,2025-09-28 21:05:09.393000+00:00,2025-09-28 14:05:09.393,00:00:06.7,75909393,0.0,0.0,0.0,0.0,0.0,0.0,0.0,0.0,0.0,0.0,1.0,0.0,0.0,0.0,0.0,0.001,0.0,0.0,0.0,0.0,0.0602950923076923,0.3372713846153846,-2.00802,-0.3285176153846154,-0.0581117307692307,0.9361449230769232,0.3465351538461538,0.3303730769230769,0.1672562307692307,47.59950191,,-0.066,0.033,2136.86,2142.61,-122.83054282,104.67930057,0.0,0.0,81.1,27.6,33.6,0.862,100,True
,21,2100.0,2025-09-28 21:05:09.493000+00:00,2025-09-28 14:05:09.493,00:00:06.8,75909493,0.0,0.0,0.0,0.0,0.0,0.0,0.0,0.0,0.0,0.0,1.0,0.0,0.0,0.0,0.0,0.001,0.0,0.0,0.0,0.0,0.0594204709677419,0.3376105806451613,-2.008435483870968,-0.3321628064516129,-0.049156629032258,0.9424707096774192,-0.6096775806451613,0.3472351612903225,0.2054116451612903,47.59950191,,-0.066,0.033,2136.86,2142.61,-122.83054282,104.67930057,0.0,0.0,81.1,27.6,33.6,0.862,100,True
,22,2200.0,2025-09-28 21:05:09.593000+00:00,2025-09-28 14:05:09.593,00:00:06.9,75909593,0.0,0.0,0.0,0.0,0.0,0.0,0.0,0.0,0.0,0.0,1.0,0.0,0.0,0.0,0.0,0.001,0.0,0.0,0.0,0.0,0.0589623155555555,0.3375570555555555,-2.0087206666666666,-0.3320202111111111,-0.0548052788888888,0.9362587888888888,0.2840108999999999,-0.0346153344444444,0.2744424444444444,47.59950191,,-0.066,0.033,2136.86,2142.61,-122.83054282,104.67930057,0.0,0.0,81.1,27.6,33.6,0.862,100,True
,23,2300.0,2025-09-28 21:05:09.693000+00:00,2025-09-28 14:05:09.693,00:00:07.0,75909693,0.0,0.0,0.0,0.0,0.0,0.0,0.0,0.0,0.0,0.0,1.0,0.0,0.0,0.0,0.0,0.001,0.0,0.0,0.0,0.0,0.0586640829787234,0.337608329787234,-2.0089867021276597,-0.3317327127659574,-0.0587778223404255,0.934913340425532,0.2500075,0.0442451904255319,0.297577,47.59950191,,-0.066,0.033,2136.86,2142.61,-122.83054282,104.67930057,0.0,0.0,81.1,27.6,33.6,0.862,100,True
,24,2400.0,2025-09-28 21:05:09.793000+00:00,2025-09-28 14:05:09.793,00:00:07.1,75909793,0.0,0.0,0.0,0.0,0.0,0.0,0.0,0.0,0.0,0.0,1.0,0.0,0.0,0.0,0.0,0.001,0.0,0.0,0.0,0.0,0.0584106770992366,0.3378092519083969,-2.009195801526717,-0.3320651145038167,-0.0575598679389312,0.93492493129771,0.2850122900763359,0.1526600580152671,0.2424349770992366,47.59950191,,-0.066,0.0322748091603053,2136.86,2142.61,-122.83054282,104.5806533532061,0.0,0.0,81.1,27.6,33.6,0.862,100,True
,25,2500.0,2025-09-28 21:05:09.893000+00:00,2025-09-28 14:05:09.893,00:00:07.2,75909893,0.0,0.0,0.0,0.0,0.0,0.0,0.0,0.0,0.0,0.0,1.0,0.0,0.0,0.0,0.0,0.001,0.0,0.0,0.0,0.0,0.0582170223529411,0.3377522352941176,-2.009450705882353,-0.3287967294117647,-0.0554737376470588,0.9346885411764706,0.1928793176470588,-0.1784470823529411,0.1816851529411765,47.59950191,,-0.066,0.032,2136.86,2142.61,-122.83054282,104.54327125,0.0,0.0,81.1,27.6,33.6,0.862,100,True
,26,2600.0,2025-09-28 21:05:09.993000+00:00,2025-09-28 14:05:09.993,00:00:07.3,75909993,0.0,0.0,0.0,0.0,0.0,0.0,0.0,0.0,0.0,0.0,1.0,0.0,0.0,0.0,0.0,0.001,0.0,0.0,0.0,0.0,0.0581773835164835,0.3377081318681318,-2.009674945054945,-0.3259943516483516,-0.0541145659340659,0.9346053956043956,0.096375689010989,-0.0565262329670329,0.1715422967032967,47.59950191,,-0.066,0.032,2136.86,2142.61,-122.83054282,104.54327125,0.0,0.0,81.1,27.6,33.6,0.862,100,True
,27,2700.0,2025-09-28 21:05:10.093000+00:00,2025-09-28 14:05:10.093,00:00:07.4,75910093,0.0,0.0,0.0,0.0,0.0,0.0,0.0,0.0,0.0,0.0,1.0,0.0,0.0,0.0,0.0,0.001,0.0,0.0,0.0,0.0,0.0582546123595505,0.3377564494382022,-2.0098384269662923,-0.3308647415730337,-0.0564881674157303,0.9346316966292136,0.0121824483146067,-0.089450408988764,0.1097836741573033,47.59950191,,-0.066,0.0329887640449438,2136.86,2142.61,-122.83054282,104.54327125,0.0,0.0,81.1,27.6,33.6,0.862,100,True
,28,2800.0,2025-09-28 21:05:10.193000+00:00,2025-09-28 14:05:10.193,00:00:07.5,75910193,0.0,0.0,0.0,0.0,0.0,0.0,0.0,0.0,0.0,0.0,1.0,0.0,0.0,0.0,0.0,0.001,0.0,0.0,0.0,0.0,0.0583297133333333,0.3374893333333333,-2.0099500000000003,-0.3288469333333333,-0.0543787133333333,0.9344516,-0.19770368,-0.3985674533333333,0.0790394466666666,47.59950191,,-0.066,0.033,2136.86,2142.61,-122.83054282,104.54327125,0.0,0.0,81.1,27.6,33.6,0.862,100,True
,29,2900.0,2025-09-28 21:05:10.293000+00:00,2025-09-28 14:05:10.293,00:00:07.6,75910293,0.0,0.0,0.0,0.0,0.0,0.0,0.0,0.0,0.0,0.0,1.0,0.0,0.0,0.0,0.0,0.001,0.0,0.0,0.0,0.0,0.0582331731182795,0.3373218064516129,-2.010182688172043,-0.3257501505376344,-0.0542750204301075,0.9345429032258064,-0.1777407741935484,-0.0772460322580644,0.0552598569892473,47.59950191,,-0.066,0.033,2136.86,2142.61,-122.83054282,104.54327125,0.0,0.0,81.1,27.6,33.6,0.862,100,True
,30,3000.0,2025-09-28 21:05:10.393000+00:00,2025-09-28 14:05:10.393,00:00:07.7,75910393,0.0,0.0,0.0,0.0,0.0,0.0,0.0,0.0,0.0,0.0,1.0,0.0,0.0,0.0,0.0,0.001,0.0,0.0,0.0,0.0,0.0582935782608695,0.3372761086956521,-2.0103111594202896,-0.3265668985507246,-0.0545347673913043,0.934695804347826,-0.0952276217391304,0.0474659108695652,0.0828987152173913,47.59950191,,-0.066,0.0324855072463768,2136.86,2142.61,-122.83054282,104.54327125,0.0,0.0,81.1,27.6,33.6,0.862,100,True
,31,3100.0,2025-09-28 21:05:10.493000+00:00,2025-09-28 14:05:10.493,00:00:07.8,75910493,0.0,0.0,0.0,0.0,0.0,0.0,0.0,0.0,0.0,0.0,1.0,0.0,0.0,0.0,0.0,0.001,0.0,0.0,0.0,0.0,0.0584898252631578,0.3372623052631578,-2.0104021052631578,-0.3291983894736842,-0.0548317694736842,0.9348216315789474,-0.1089724589473684,0.0039248126315789,0.0942576842105263,47.59950191,,-0.066,0.0323473684210526,2136.86,2142.61,-122.83054282,104.54327125,0.0,0.0,81.1,27.6,33.6,0.862,100,True
,32,3200.0,2025-09-28 21:05:10.593000+00:00,2025-09-28 14:05:10.593,00:00:07.9,75910593,0.0,0.0,0.0,0.0,0.0,0.0,0.0,0.0,0.0,0.0,1.0,0.0,0.0,0.0,0.0,0.001,0.0,0.0,0.0,0.0,0.0589148634146341,0.3372948292682927,-2.010569512195122,-0.3291131951219512,-0.0562154853658536,0.9350534146341464,-0.133684,-0.0474858243902439,0.1162204146341463,47.59950191,,-0.066,0.0325365853658536,2136.86,2142.61,-122.83054282,104.54327125,0.0,0.0,81.1,27.6,33.6,0.862,100,True
,33,3300.0,2025-09-28 21:05:10.693000+00:00,2025-09-28 14:05:10.693,00:00:08.0,75910693,0.0,0.0,0.0,0.0,0.0,0.0,0.0,0.0,0.0,0.0,1.0,0.0,0.0,0.0,0.0,0.001,0.0,0.0,0.0,0.0,0.0594256966292134,0.3370980449438202,-2.010719213483146,-0.3304238314606741,-0.0585283741573033,0.935125393258427,-0.059982804494382,-0.2044049438202247,0.0983416696629213,47.59950191,,-0.066629213483146,0.032,2136.86,2142.61,-122.83054282,104.54327125,0.0,0.0,81.1,27.6,33.6,0.862,100,True
,34,3400.0,2025-09-28 21:05:10.793000+00:00,2025-09-28 14:05:10.793,00:00:08.1,75910793,0.0,0.0,0.0,0.0,0.0,0.0,0.0,0.0,0.0,0.0,1.0,0.0,0.0,0.0,0.0,0.001,0.0,0.0,0.0,0.0,0.0597607135416666,0.3367196145833333,-2.010801875,-0.3298023229166666,-0.0583425458333333,0.9350580416666666,-0.2147911083333333,-0.3289578541666667,0.0120424362499999,47.59950191,,-0.0663020833333333,0.032,2136.86,2142.61,-122.83054282,104.49534592666666,0.0,0.0,81.1,27.6,33.6,0.862,100,True
,35,3500.0,2025-09-28 21:05:10.893000+00:00,2025-09-28 14:05:10.893,00:00:08.2,75910893,0.0,0.0,0.0,0.0,0.0,0.0,0.0,0.0,0.0,0.0,1.0,0.0,0.0,0.0,0.0,0.001,0.0,0.0,0.0,0.0,0.0603504896551724,0.3364952183908046,-2.01081183908046,-0.3254122298850574,-0.0616060712643678,0.9352388850574712,-0.2748411494252873,-0.028083296551724,0.0503523855172413,47.59950191,,-0.066,0.031183908045977,2136.86,2142.61,-122.83054282,104.47460213,0.0,0.0,81.1,27.6,33.6,0.862,100,True
,36,3600.0,2025-09-28 21:05:10.993000+00:00,2025-09-28 14:05:10.993,00:00:08.3,75910993,0.0,0.0,0.0,0.0,0.0,0.0,0.0,0.0,0.0,0.0,1.0,0.0,0.0,0.0,0.0,0.001,0.0,0.0,0.0,0.0,0.0608348372093023,0.3359561860465117,-2.010917441860465,-0.3246964186046511,-0.0503070511627907,0.9351657441860464,-0.4278638139534883,-0.3628951813953488,-0.1257867093023255,47.59950191,,-0.066,0.0319767441860465,2136.86,2142.61,-122.83054282,104.47460213,0.0,0.0,81.1,27.6,33.6,0.862,100,True
,37,3700.0,2025-09-28 21:05:11.093000+00:00,2025-09-28 14:05:11.093,00:00:08.4,75911093,0.0,0.0,0.0,0.0,0.0,0.0,0.0,0.0,0.0,0.0,1.0,0.0,0.0,0.0,0.0,0.001,0.0,0.0,0.0,0.0,0.061173023880597,0.336001776119403,-2.010941940298508,-0.3280655671641791,-0.0541276641791044,0.9354072686567164,-0.158646271641791,-0.2172758805970149,0.0497736268656716,47.59950191,,-0.066,0.032,2136.86,2142.61,-122.83054282,104.47460213,0.0,0.0,81.1,27.6,33.6,0.862,100,True
,38,3800.0,2025-09-28 21:05:11.193000+00:00,2025-09-28 14:05:11.193,00:00:08.5,75911193,0.0,0.0,0.0,0.0,0.0,0.0,0.0,0.0,0.0,0.0,1.0,0.0,0.0,0.0,0.0,0.001,0.0,0.0,0.0,0.0,0.0616893548387096,0.3358144838709677,-2.011018817204301,-0.3274187849462365,-0.058557764516129,0.935499752688172,-0.1585874,-0.0642438580645161,0.0753593612903225,47.59950191,,-0.0653118279569892,0.032,2136.86,2142.61,-122.83054282,104.47460213,0.0,0.0,81.1,27.6,33.6,0.862,100,True
,39,3900.0,2025-09-28 21:05:11.293000+00:00,2025-09-28 14:05:11.293,00:00:08.6,75911293,0.0,0.0,0.0,0.0,0.0,0.0,0.0,0.0,0.0,0.0,1.0,0.0,0.0,0.0,0.0,0.001,0.0,0.0,0.0,0.0,0.0622040556818181,0.3358757159090909,-2.0111064772727274,-0.3234135681818181,-0.0599284602272727,0.9357301363636364,-0.1477229545454545,0.0356500806818181,0.0514706852272727,47.59950191,,-0.0658068181818181,0.0328068181818181,2136.86,2142.61,-122.83054282,104.47460213,0.0,0.0,81.1,27.6,33.6,0.862,100,True
,40,4000.0,2025-09-28 21:05:11.393000+00:00,2025-09-28 14:05:11.393,00:00:08.7,75911393,0.0,0.0,0.0,0.0,0.0,0.0,0.0,0.0,0.0,0.0,1.0,0.0,0.0,0.0,0.0,0.001,0.0,0.0,0.0,0.0,0.0624080606741573,0.335735808988764,-2.0112785393258426,-0.3244243820224719,-0.0598260247191011,0.9356059438202248,0.0665468224719101,-0.0156270955056179,0.0987311460674157,47.59950191,,-0.066,0.032067415730337,2136.86,2142.61,-122.83054282,104.47460213,0.0,0.0,81.1,27.6,33.6,0.862,100,True
,41,4100.0,2025-09-28 21:05:11.493000+00:00,2025-09-28 14:05:11.493,00:00:08.8,75911493,0.0,0.0,0.0,0.0,0.0,0.0,0.0,0.0,0.0,0.0,1.0,0.0,0.0,0.0,0.0,0.001,0.0,0.0,0.0,0.0,0.061957528,0.33597492,-2.0116378,-0.32664538,-0.06448772,0.93576878,0.6882484440000001,0.24435825,0.24442928,47.59950191,,-0.066,0.03294,2136.86,2142.61,-122.83054282,104.47460213,0.0,0.0,81.1,27.6,33.6,0.862,100,True
,42,4200.0,2025-09-28 21:05:11.593000+00:00,2025-09-28 14:05:11.593,00:00:08.9,75911593,0.0,0.0,0.0,0.0,0.0,0.0,0.0,0.0,0.0,0.0,1.0,0.0,0.0,0.0,0.0,0.001,0.0,0.0,0.0,0.0,0.0612101,0.336355,-2.01204,-0.325252,-0.0510587,0.93579,0.156912,0.0503369,0.165138,47.59950191,,-0.066,0.0320681818181818,2136.86,2142.61,-122.83054282,104.47460213,0.0,0.0,81.1,27.6,33.6,0.862,100,True
,43,4300.0,2025-09-28 21:05:11.693000+00:00,2025-09-28 14:05:11.693,00:00:09.0,75911693,0.0,0.0,0.0,0.0,0.0,0.0,0.0,0.0,0.0,0.0,1.0,0.0,0.0,0.0,0.0,0.001,0.0,0.0,0.0,0.0,0.0612398,0.3363983636363636,-2.012091136363636,-0.3257247045454545,-0.0525759772727272,0.9357732272727272,0.0533142272727272,0.1215758068181818,0.1303764245454545,47.59950191,,-0.0662045454545454,0.0327954545454545,2136.86,2142.61,-122.83054282,104.47460213,0.0,0.0,81.1,27.6,33.6,0.862,100,True
,44,4400.0,2025-09-28 21:05:11.793000+00:00,2025-09-28 14:05:11.793,00:00:09.1,75911793,0.0,0.0,0.0,0.0,0.0,0.0,0.0,0.0,0.0,0.0,1.0,0.0,0.0,0.0,0.0,0.001,0.0,0.0,0.0,0.0,0.0614369129032258,0.3365921612903226,-2.01232870967742,-0.3261571935483871,-0.0601915,0.9356731612903224,-0.3535130967741935,0.3078376129032258,-0.0488692606451612,47.59950191,,-0.0666774193548387,0.032,2136.86,2142.61,-122.83054282,104.4657249816129,0.0,0.0,81.1,27.6,33.6,0.862,100,True
,45,4500.0,2025-09-28 21:05:11.893000+00:00,2025-09-28 14:05:11.893,00:00:09.2,75911893,0.0,0.0,0.0,0.0,0.0,0.0,0.0,0.0,0.0,0.0,1.0,0.0,0.0,0.0,0.0,0.001,0.0,0.0,0.0,0.0,0.0617168623529411,0.3365940705882353,-2.0124491764705885,-0.3226147411764706,-0.0612249388235294,0.9354759411764706,-0.1993797482352941,0.0573714317647058,-0.0326803764705882,47.59950191,,-0.066,0.032,2136.86,2142.61,-122.83054282,104.44708297,0.0,0.0,81.1,27.6,33.6,0.862,100,True
,46,4600.0,2025-09-28 21:05:11.993000+00:00,2025-09-28 14:05:11.993,00:00:09.3,75911993,0.0,0.0,0.0,0.0,0.0,0.0,0.0,0.0,0.0,0.0,1.0,0.0,0.0,0.0,0.0,0.001,0.0,0.0,0.0,0.0,0.061784276,0.3365617999999999,-2.0125988,-0.3223767999999999,-0.0548505679999999,0.93529056,0.0113302,0.052548408,0.10761536,47.59950191,,-0.066,0.03252,2136.86,2142.61,-122.83054282,104.44708297,0.0,0.0,81.1,27.6,33.6,0.862,100,True
,47,4700.0,2025-09-28 21:05:12.093000+00:00,2025-09-28 14:05:12.093,00:00:09.4,75912093,0.0,0.0,0.0,0.0,0.0,0.0,0.0,0.0,0.0,0.0,1.0,0.0,0.0,0.0,0.0,0.001,0.0,0.0,0.0,0.0,0.0617432609756097,0.3365251463414634,-2.01278512195122,-0.325238243902439,-0.0563973707317073,0.935222975609756,-0.1213308048780487,-0.0132997902439024,0.1199286341463414,47.59950191,,-0.066,0.0323658536585365,2136.86,2142.61,-122.83054282,104.44708297,0.0,0.0,81.1,27.6,33.6,0.862,100,True
,48,4800.0,2025-09-28 21:05:12.193000+00:00,2025-09-28 14:05:12.193,00:00:09.5,75912193,0.0,0.0,0.0,0.0,0.0,0.0,0.0,0.0,0.0,0.0,1.0,0.0,0.0,0.0,0.0,0.001,0.0,0.0,0.0,0.0,0.0621151494382022,0.3362374606741573,-2.0129029213483145,-0.3264467640449438,-0.0612840651685393,0.9351474494382024,-0.317180606741573,-0.2011869842696629,0.0284939337078651,47.59950191,,-0.066,0.032,2136.86,2142.61,-122.83054282,104.44708297,0.0,0.0,81.1,27.6,33.6,0.862,100,True
,49,4900.0,2025-09-28 21:05:12.293000+00:00,2025-09-28 14:05:12.293,00:00:09.6,75912293,0.0,0.0,0.0,0.0,0.0,0.0,0.0,0.0,0.0,0.0,1.0,0.0,0.0,0.0,0.0,0.001,0.0,0.0,0.0,0.0,0.062590121641791,0.3359699179104478,-2.0129381343283583,-0.3242172089552239,-0.0622102074626865,0.9351400447761196,-0.2194135074626865,-0.2733446641791044,0.0331288014179104,47.59950191,,-0.0666044776119403,0.032,2136.86,2142.61,-122.83054282,104.44708297,0.0,0.0,81.1,27.6,33.6,0.862,100,True
,50,5000.0,2025-09-28 21:05:12.393000+00:00,2025-09-28 14:05:12.393,00:00:09.7,75912393,0.0,0.0,0.0,0.0,0.0,0.0,0.0,0.0,0.0,0.0,1.0,0.0,0.0,0.0,0.0,0.001,0.0,0.0,0.0,0.0,0.0630180734265734,0.3357476293706293,-2.0129894405594406,-0.3242781818181818,-0.0623619629370629,0.9352074335664337,-0.2009979160839161,-0.1624908111888111,0.0812694055944056,47.59950191,,-0.0666713286713286,0.032,2136.86,2142.61,-122.83054282,104.44708297,0.0,0.0,81.1,27.6,33.6,0.862,100,True
,51,5100.0,2025-09-28 21:05:12.493000+00:00,2025-09-28 14:05:12.493,00:00:09.8,75912493,0.0,0.0,0.0,0.0,0.0,0.0,0.0,0.0,0.0,0.0,1.0,0.0,0.0,0.0,0.0,0.001,0.0,0.0,0.0,0.0,0.0634034714285714,0.3355711428571428,-2.013076666666666,-0.3274320476190476,-0.0623462095238095,0.9353540476190476,-0.3207271333333333,0.1167099285714285,0.1360925714285714,47.59950191,,-0.066,0.032,2136.86,2142.61,-122.83054282,104.44708297,0.0,0.0,81.1,27.6,33.6,0.862,100,True
,52,5200.0,2025-09-28 21:05:12.593000+00:00,2025-09-28 14:05:12.593,00:00:09.9,75912593,0.0,0.0,0.0,0.0,0.0,0.0,0.0,0.0,0.0,0.0,1.0,0.0,0.0,0.0,0.0,0.001,0.0,0.0,0.0,0.0,0.0637094161290322,0.3357322795698925,-2.0132551612903224,-0.3288960107526882,-0.062819840860215,0.9356700537634408,0.0263263720430107,0.0196290806451612,0.1066364731182795,47.59950191,,-0.066,0.0322150537634408,2136.86,2142.61,-122.83054282,104.44708297,0.0,0.0,81.1,27.6,33.6,0.862,100,True
,53,5300.0,2025-09-28 21:05:12.693000+00:00,2025-09-28 14:05:12.693,00:00:10.0,75912693,0.0,0.0,0.0,0.0,0.0,0.0,0.0,0.0,0.0,0.0,1.0,0.0,0.0,0.0,0.0,0.001,0.0,0.0,0.0,0.0,0.0635354965909091,0.3355744772727272,-2.0134936363636364,-0.327092659090909,-0.059950159090909,0.9356152045454544,0.1024576295454545,-0.0258974409090909,0.1004227181818181,47.59950191,,-0.066,0.0326931818181818,2136.86,2142.61,-122.83054282,104.44708297,0.0,0.0,81.1,27.6,33.6,0.862,100,True
,54,5400.0,2025-09-28 21:05:12.793000+00:00,2025-09-28 14:05:12.793,00:00:10.1,75912793,0.0,0.0,0.0,0.0,0.0,0.0,0.0,0.0,0.0,0.0,1.0,0.0,0.0,0.0,0.0,0.001,0.0,0.0,0.0,0.0,0.0633183736842105,0.3355036466165413,-2.013745037593985,-0.3282631052631579,-0.0602384601503759,0.9356761804511278,0.1285531533834586,0.201529969924812,0.0751994616541353,47.59950191,,-0.066,0.0322932330827067,2136.86,2142.61,-122.83054282,104.4367991274436,0.0,0.0,81.1,27.6,33.6,0.862,100,True
,55,5500.0,2025-09-28 21:05:12.893000+00:00,2025-09-28 14:05:12.893,00:00:10.2,75912893,0.0,0.0,0.0,0.0,0.0,0.0,0.0,0.0,0.0,0.0,1.0,0.0,0.0,0.0,0.0,0.001,0.0,0.0,0.0,0.0,0.0631530604395604,0.335385021978022,-2.013963186813186,-0.3269953516483516,-0.0656730967032967,0.935644923076923,0.0711536219780219,0.3805916263736263,0.0380032527472527,47.59950191,,-0.066,0.033,2136.86,2142.61,-122.83054282,104.41201243,0.0,0.0,81.1,27.6,33.6,0.862,100,True
,56,5600.0,2025-09-28 21:05:12.993000+00:00,2025-09-28 14:05:12.993,00:00:10.3,75912993,0.0,0.0,0.0,0.0,0.0,0.0,0.0,0.0,0.0,0.0,1.0,0.0,0.0,0.0,0.0,0.001,0.0,0.0,0.0,0.0,0.0630794375,0.3357256363636364,-2.014202840909091,-0.3261662613636363,-0.0634309534090909,0.935914875,-0.0073670306818181,0.0845641931818181,0.1672223636363636,47.59950191,,-0.066,0.0328295454545454,2136.86,2142.61,-122.83054282,104.41201243,0.0,0.0,81.1,27.6,33.6,0.862,100,True
,57,5700.0,2025-09-28 21:05:13.093000+00:00,2025-09-28 14:05:13.093,00:00:10.4,75913093,0.0,0.0,0.0,0.0,0.0,0.0,0.0,0.0,0.0,0.0,1.0,0.0,0.0,0.0,0.0,0.001,0.0,0.0,0.0,0.0,0.0629097663829787,0.3358519021276596,-2.014486425531915,-0.326410914893617,-0.057064074893617,0.9359056170212766,-0.0713486340425531,-0.0820452187234042,0.1243209489361702,47.59950191,,-0.066,0.0321148936170212,2136.86,2142.61,-122.83054282,104.41201243,0.0,0.0,81.1,27.6,33.6,0.862,100,True
,58,5800.0,2025-09-28 21:05:13.193000+00:00,2025-09-28 14:05:13.193,00:00:10.5,75913193,0.0,0.0,0.0,0.0,0.0,0.0,0.0,0.0,0.0,0.0,1.0,0.0,0.0,0.0,0.0,0.001,0.0,0.0,0.0,0.0,0.0628322344680851,0.3358033914893617,-2.0145842978723403,-0.3280513404255319,-0.0577325004255319,0.9358375319148936,0.1389675361702127,-0.0521423251063829,0.1354652042553191,47.59950191,,-0.066,0.0325404255319148,2136.86,2142.61,-122.83054282,104.41201243,0.0,0.0,81.1,27.6,33.6,0.862,100,True
,59,5900.0,2025-09-28 21:05:13.293000+00:00,2025-09-28 14:05:13.293,00:00:10.6,75913293,0.0,0.0,0.0,0.0,0.0,0.0,0.0,0.0,0.0,0.0,1.0,0.0,0.0,0.0,0.0,0.001,0.0,0.0,0.0,0.0,0.0627547025531914,0.3357548808510638,-2.0146821702127657,-0.3296917659574467,-0.0584009259574468,0.9357694468085108,0.3492837063829787,-0.0222394314893616,0.146609459574468,47.59950191,,-0.066,0.0329659574468085,2136.86,2142.61,-122.83054282,104.41201243,0.0,0.0,81.1,27.6,33.6,0.862,100,True
,60,6000.0,2025-09-28 21:05:13.393000+00:00,2025-09-28 14:05:13.393,00:00:10.7,75913393,0.0,0.0,0.0,0.0,0.0,0.0,0.0,0.0,0.0,0.0,1.0,0.0,0.0,0.0,0.0,0.001,0.0,0.0,0.0,0.0,0.0619717179104477,0.3354901044776119,-2.0151705970149254,-0.3279315074626865,-0.0547053999999999,0.9355298805970148,0.5181369402985074,-0.0670534298507462,0.2311392985074626,47.59950191,,-0.066,0.033,2136.86,2142.61,-122.83054282,104.41201243,0.0,0.0,81.1,27.6,33.6,0.862,100,True
,61,6100.0,2025-09-28 21:05:13.493000+00:00,2025-09-28 14:05:13.493,00:00:10.8,75913493,0.0,0.0,0.0,0.0,0.0,0.0,0.0,0.0,0.0,0.0,1.0,0.0,0.0,0.0,0.0,0.001,0.0,0.0,0.0,0.0,0.0608369632911392,0.3353658607594936,-2.0157937974683544,-0.326329417721519,-0.0555833430379746,0.9355323924050633,0.3782659873417721,0.0652251886075949,0.2345168607594936,47.59950191,,-0.0667341772151898,0.0322658227848101,2136.86,2142.61,-122.83054282,104.41201243,0.0,0.0,81.1,27.6,33.6,0.862,100,True
,62,6200.0,2025-09-28 21:05:13.593000+00:00,2025-09-28 14:05:13.593,00:00:10.9,75913593,0.0,0.0,0.0,0.0,0.0,0.0,0.0,0.0,0.0,0.0,1.0,0.0,0.0,0.0,0.0,0.001,0.0,0.0,0.0,0.0,0.0605792810526315,0.3356267789473684,-2.016064736842105,-0.3256503684210526,-0.0596717526315789,0.9358131578947368,-0.1766701052631579,0.2941806421052631,0.0868706536842105,47.59950191,,-0.0661684210526315,0.032,2136.86,2142.61,-122.83054282,104.41201243,0.0,0.0,81.1,27.6,33.6,0.862,100,True
,63,6300.0,2025-09-28 21:05:13.693000+00:00,2025-09-28 14:05:13.693,00:00:11.0,75913693,0.0,0.0,0.0,0.0,0.0,0.0,0.0,0.0,0.0,0.0,1.0,0.0,0.0,0.0,0.0,0.001,0.0,0.0,0.0,0.0,0.0614677,0.336106125,-2.0160025,-0.3274333749999999,-0.068640075,0.9361,-0.584147625,0.2676736249999999,0.025898375,47.59950191,,-0.066,0.032,2136.86,2142.61,-122.83054282,104.41201243,0.0,0.0,81.1,27.6,33.6,0.862,100,True
,64,6400.0,2025-09-28 21:05:13.793000+00:00,2025-09-28 14:05:13.793,00:00:11.1,75913793,0.0,0.0,0.0,0.0,0.0,0.0,0.0,0.0,0.0,0.0,1.0,0.0,0.0,0.0,0.0,0.001,0.0,0.0,0.0,0.0,0.0622021399999999,0.336011,-2.015966,-0.3259327999999999,-0.06542122,0.9358308,-0.456243,0.0913032,0.06391546,47.59950191,,-0.066,0.0328,2136.86,2142.61,-122.83054282,104.41201243,0.0,0.0,81.1,27.6,33.6,0.862,100,True
,65,6500.0,2025-09-28 21:05:13.893000+00:00,2025-09-28 14:05:13.893,00:00:11.2,75913893,0.0,0.0,0.0,0.0,0.0,0.0,0.0,0.0,0.0,0.0,1.0,0.0,0.0,0.0,0.0,0.001,0.0,0.0,0.0,0.0,0.062596143119266,0.3359254862385321,-2.0160172477064218,-0.3272298990825688,-0.0608255302752293,0.9356254770642202,-0.2135801467889908,-0.0008578522935779,0.0576225110091743,47.59950191,,-0.066,0.0322844036697247,2136.86,2142.61,-122.83054282,104.4032942125688,0.0,0.0,81.1,27.6,33.6,0.862,100,True
,66,6600.0,2025-09-28 21:05:13.993000+00:00,2025-09-28 14:05:13.993,00:00:11.3,75913993,0.0,0.0,0.0,0.0,0.0,0.0,0.0,0.0,0.0,0.0,1.0,0.0,0.0,0.0,0.0,0.001,0.0,0.0,0.0,0.0,0.0628553125,0.33605290625,-2.0161765625,-0.32523,-0.060813578125,0.93550715625,-0.29340625,-0.072037103125,-0.035662046875,47.59950191,,-0.066,0.032,2136.86,2142.61,-122.83054282,104.39982928,0.0,0.0,81.1,27.6,33.6,0.862,100,True
,67,6700.0,2025-09-28 21:05:14.093000+00:00,2025-09-28 14:05:14.093,00:00:11.4,75914093,0.0,0.0,0.0,0.0,0.0,0.0,0.0,0.0,0.0,0.0,1.0,0.0,0.0,0.0,0.0,0.001,0.0,0.0,0.0,0.0,0.06289052734375,0.3360888984375,-2.0163896875,-0.323802875,-0.0605061984375,0.93531903125,-0.1428820992187499,-0.050702871875,0.0716939921875,47.59950191,,-0.066,0.0325703125,2136.86,2142.61,-122.83054282,104.39982928,0.0,0.0,81.1,27.6,33.6,0.862,100,True
,68,6800.0,2025-09-28 21:05:14.193000+00:00,2025-09-28 14:05:14.193,00:00:11.5,75914193,0.0,0.0,0.0,0.0,0.0,0.0,0.0,0.0,0.0,0.0,1.0,0.0,0.0,0.0,0.0,0.001,0.0,0.0,0.0,0.0,0.062869,0.336073,-2.01651,-0.323521,-0.0598688,0.935197,0.0174481,-0.0195342,0.178089,47.59950191,,-0.066,0.033,2136.86,2142.61,-122.83054282,104.39982928,0.0,0.0,81.1,27.6,33.6,0.8623333333333333,100,True
,69,6900.0,2025-09-28 21:05:14.293000+00:00,2025-09-28 14:05:14.293,00:00:11.6,75914293,0.0,0.0,0.0,0.0,0.0,0.0,0.0,0.0,0.0,0.0,1.0,0.0,0.0,0.0,0.0,0.001,0.0,0.0,0.0,0.0,0.062843977443609,0.3360948796992481,-2.016543834586466,-0.3233202481203007,-0.0599023563909774,0.9344691804511278,0.0222311300751879,0.0294294240601503,0.1768162180451127,47.59950191,,-0.066,0.033,2136.86,2142.61,-122.83054282,104.39982928,0.0,0.0,81.1,27.6,33.6,0.863,100,True
,70,7000.0,2025-09-28 21:05:14.393000+00:00,2025-09-28 14:05:14.393,00:00:11.7,75914393,0.0,0.0,0.0,0.0,0.0,0.0,0.0,0.0,0.0,0.0,1.0,0.0,0.0,0.0,0.0,0.001,0.0,0.0,0.0,0.0,0.0625937518796992,0.3363136766917293,-2.016882180451128,-0.3213127293233083,-0.0602379203007518,0.927190984962406,0.0700614308270676,0.519065664661654,0.1640883984962406,47.59950191,,-0.066,0.033,2136.86,2142.61,-122.83054282,104.39982928,0.0,0.0,81.1,27.6,33.6,0.863,100,True
,71,7100.0,2025-09-28 21:05:14.493000+00:00,2025-09-28 14:05:14.493,00:00:11.8,75914493,0.0,0.0,0.0,0.0,0.0,0.0,0.0,0.0,0.0,0.0,1.0,0.0,0.0,0.0,0.0,0.001,0.0,0.0,0.0,0.0,0.0630088659259259,0.3377323185185185,-2.0170854814814816,-0.3291498888888889,-0.04770712,0.9320426074074074,-1.010257117037037,0.4583527185185185,0.0208669429629629,47.59950191,,-0.0665703703703703,0.0324296296296296,2136.86,2142.61,-122.83054282,104.39982928,0.0,0.0,81.1,27.6,33.6,0.863,100,True
,72,7200.0,2025-09-28 21:05:14.593000+00:00,2025-09-28 14:05:14.593,00:00:11.9,75914593,0.0,0.0,0.0,0.0,0.0,0.0,0.0,0.0,0.0,0.0,1.0,0.0,0.0,0.0,0.0,0.001,0.0,0.0,0.0,0.0,0.0641248504950495,0.3386099702970297,-2.0172964356435643,-0.3321453762376237,-0.0371484732673267,0.9363246732673268,-1.334246099009901,-0.3997397326732673,-0.062615800990099,47.59950191,,-0.0665841584158415,0.032,2136.86,2142.61,-122.83054282,104.39982928,0.0,0.0,81.1,27.6,33.6,0.863,100,True
,73,7300.0,2025-09-28 21:05:14.693000+00:00,2025-09-28 14:05:14.693,00:00:12.0,75914693,0.0,0.0,0.0,0.0,0.0,0.0,0.0,0.0,0.0,0.0,1.0,0.0,0.0,0.0,0.0,0.001,0.0,0.0,0.0,0.0,0.0655582039370078,0.3378784645669291,-2.01747937007874,-0.3257573464566929,-0.037464874015748,0.9350695511811024,-0.3585441811023622,-0.8789681102362206,0.0068428133858267,47.59950191,,-0.066,0.032,2136.86,2142.61,-122.83054282,104.39982928,0.0,0.0,81.1,27.6,33.6,0.863,100,True
,74,7400.0,2025-09-28 21:05:14.793000+00:00,2025-09-28 14:05:14.793,00:00:12.1,75914793,0.0,0.0,0.0,0.0,0.0,0.0,0.0,0.0,0.0,0.0,1.0,0.0,0.0,0.0,0.0,0.001,0.0,0.0,0.0,0.0,0.0663066304347826,0.336683,-2.0175352173913046,-0.3225739999999999,-0.0456486275362318,0.9342472028985508,0.2192856666666666,0.1244844927536232,0.0743753855072463,47.59950191,,-0.066,0.0321014492753623,2136.86,2142.61,-122.83054282,104.4039838215942,0.0,0.0,81.1,27.6,33.6,0.863,100,True
,75,7500.0,2025-09-28 21:05:14.893000+00:00,2025-09-28 14:05:14.893,00:00:12.2,75914893,0.0,0.0,0.0,0.0,0.0,0.0,0.0,0.0,0.0,0.0,1.0,0.0,0.0,0.0,0.0,0.001,0.0,0.0,0.0,0.0,0.0661718478260869,0.335883,-2.0176439130434782,-0.327024,-0.0770173956521739,0.9338486521739132,0.210419,-0.8402691304347825,-0.0168168608695652,47.59950191,,-0.066,0.0328260869565217,2136.86,2142.61,-122.83054282,104.43365911869564,0.0,0.0,81.1,27.6,33.6,0.863,100,True
,76,7600.0,2025-09-28 21:05:14.993000+00:00,2025-09-28 14:05:14.993,00:00:12.3,75914993,0.0,0.0,0.0,0.0,0.0,0.0,0.0,0.0,0.0,0.0,1.0,0.0,0.0,0.0,0.0,0.001,0.0,0.0,0.0,0.0,0.0656809666666666,0.3335315517241379,-2.0181242528735632,-0.3219228965517241,-0.0568171689655172,0.933348540229885,0.8099733908045977,-1.983259655172414,0.5317101954022988,47.599439616206894,,-0.0668735632183908,0.0312528735632183,2136.86,2142.61,-122.83047405310344,102.13389453896552,0.0,0.0,81.1,27.6,33.6,0.863,100,True
,77,7700.0,2025-09-28 21:05:15.093000+00:00,2025-09-28 14:05:15.093,00:00:12.4,75915093,0.0,0.0,0.0,0.0,0.0,0.0,0.0,0.0,0.0,0.0,1.0,0.0,0.0,0.0,0.0,0.001,0.0,0.0,0.0,0.0,0.0655952813186813,0.3331276153846154,-2.018198131868132,-0.3210391648351648,-0.0530749208791208,0.9332625714285714,0.8514577032967033,-2.098532967032967,0.5872115384615384,47.5994306,,-0.067,0.030087912087912,2136.86,2142.61,-122.8304641,101.80000305,0.0,0.0,81.1,27.6,33.6,0.863,100,True
,78,7800.0,2025-09-28 21:05:15.193000+00:00,2025-09-28 14:05:15.193,00:00:12.5,75915193,0.0,0.0,0.0,0.0,0.0,0.0,0.0,0.0,0.0,0.0,1.0,0.0,0.0,0.0,0.0,0.001,0.0,0.0,0.0,0.0,0.0647525782608695,0.3292680869565217,-2.0185516304347826,-0.3216449999999999,-0.0665353054347826,0.932468847826087,-0.9561947173913043,-0.8709816304347826,-0.4900762608695652,47.5994306,,-0.0668804347826087,0.0338804347826087,2136.86,2142.61,-122.8304641,101.80000305,0.0,0.0,81.1,27.6,33.6,0.863,100,True
,79,7900.0,2025-09-28 21:05:15.293000+00:00,2025-09-28 14:05:15.293,00:00:12.6,75915293,0.0,0.0,0.0,0.0,0.0,0.0,0.0,0.0,0.0,0.0,1.0,0.0,0.0,0.0,0.0,0.001,0.0,0.0,0.0,0.0,0.0647409546511627,0.3310161395348837,-2.0185606976744186,-0.3232516860465116,-0.0791120674418604,0.9359321279069768,0.5777839534883721,1.9241022558139536,0.3982948372093023,47.5994306,,-0.066,0.033,2136.86,2142.61,-122.8304641,101.80000305,0.0,0.0,81.1,27.6,33.6,0.863,100,True
,80,8000.0,2025-09-28 21:05:15.393000+00:00,2025-09-28 14:05:15.393,00:00:12.7,75915393,0.0,0.0,0.0,0.0,0.0,0.0,0.0,0.0,0.0,0.0,1.0,0.0,0.0,0.0,0.0,0.001,0.0,0.0,0.0,0.0,0.063713121875,0.3321144375,-2.0189543750000003,-0.323353875,-0.08074293125,0.937491375,0.94682975,-0.039297625,0.38442765625,47.5994306,,-0.066,0.03471875,2136.86,2142.61,-122.8304641,101.80000305,0.0,0.0,81.1,27.6,33.6,0.863,100,True
,81,8100.0,2025-09-28 21:05:15.493000+00:00,2025-09-28 14:05:15.493,00:00:12.8,75915493,0.0,0.0,0.0,0.0,0.0,0.0,0.0,0.0,0.0,0.0,1.0,0.0,0.0,0.0,0.0,0.001,0.0,0.0,0.0,0.0,0.0593487404494382,0.337254595505618,-2.020044831460674,-0.3297563483146067,-0.0359768394382022,0.941314988764045,2.6228413483146067,4.408788651685393,0.8698295056179776,47.5994306,,-0.0655842696629213,0.0375842696629213,2136.86,2142.61,-122.8304641,101.80000305,0.0,0.0,81.1,27.6,33.6,0.863,100,True
,82,8200.0,2025-09-28 21:05:15.593000+00:00,2025-09-28 14:05:15.593,00:00:12.9,75915593,0.0,0.0,0.0,0.0,0.0,0.0,0.0,0.0,0.0,0.0,1.0,0.0,0.0,0.0,0.0,0.001,0.0,0.0,0.0,0.0,0.0545232505882352,0.3418489294117647,-2.021816823529412,-0.3386881294117647,0.1736943445882353,0.9412100470588236,-3.714087058823529,0.3799015294117644,-0.4650551764705881,47.5994306,,-0.0661294117647058,0.0302235294117647,2136.86,2142.61,-122.8304641,101.80000305,0.0,0.0,81.1,27.6,33.6,0.863,100,True
,83,8300.0,2025-09-28 21:05:15.693000+00:00,2025-09-28 14:05:15.693,00:00:13.0,75915693,0.0,0.0,0.0,0.0,0.0,0.0,0.0,0.0,0.0,0.0,1.0,0.0,0.0,0.0,0.0,0.001,0.0,0.0,0.0,0.0,0.05681351,0.3373223,-2.021166,-0.33263202,0.148034758,0.93536645,-2.7402529799999997,0.9080013999999998,-0.78056853,47.5994306,,-0.06637,0.03004,2136.86,2142.61,-122.8304641,101.80000305,0.0,0.0,81.1,27.6,33.6,0.863,100,True
,84,8400.0,2025-09-28 21:05:15.793000+00:00,2025-09-28 14:05:15.793,00:00:13.1,75915793,0.0,0.0,0.0,0.0,0.0,0.0,0.0,0.0,0.0,0.0,1.0,0.0,0.0,0.0,0.0,0.001,0.0,0.0,0.0,0.0,0.0585306113636363,0.3380625795454545,-2.0204355681818185,-0.3325439204545454,-0.0774170909090909,0.9354648522727272,0.2680291784090908,3.325723409090909,0.0420097954545454,47.59948165147727,,-0.066,0.033,2136.86,2142.61,-122.83052045636364,103.6283721259091,0.0,0.0,81.1,27.6,33.6,0.863,100,True
,85,8500.0,2025-09-28 21:05:15.893000+00:00,2025-09-28 14:05:15.893,00:00:13.2,75915893,0.0,0.0,0.0,0.0,0.0,0.0,0.0,0.0,0.0,0.0,1.0,0.0,0.0,0.0,0.0,0.001,0.0,0.0,0.0,0.0,0.0586501,0.339089,-2.02041,-0.333705,-0.131413,0.936089,0.0174479,2.71032,0.150149,47.59950191,,-0.066,0.0320963855421686,2136.86,2142.61,-122.83054282,104.35391541,0.0,0.0,81.1,27.6,33.6,0.863,100,True
,86,8600.0,2025-09-28 21:05:15.993000+00:00,2025-09-28 14:05:15.993,00:00:13.3,75915993,0.0,0.0,0.0,0.0,0.0,0.0,0.0,0.0,0.0,0.0,1.0,0.0,0.0,0.0,0.0,0.001,0.0,0.0,0.0,0.0,0.0590273929292929,0.3368568383838384,-2.020902525252525,-0.3235896464646464,-0.0199335333333333,0.9333912626262626,-1.0478079262626263,-2.951155555555556,-0.0249625919191919,47.59950191,,-0.0669292929292929,0.032,2136.86,2142.61,-122.83054282,104.35391541,0.0,0.0,81.1,27.6,33.6,0.863,100,True
,87,8700.0,2025-09-28 21:05:16.093000+00:00,2025-09-28 14:05:16.093,00:00:13.4,75916093,0.0,0.0,0.0,0.0,0.0,0.0,0.0,0.0,0.0,0.0,1.0,0.0,0.0,0.0,0.0,0.001,0.0,0.0,0.0,0.0,0.0583510086956521,0.3355607826086956,-2.021410108695652,-0.3296263043478261,-0.0483054989130434,0.9332148478260868,0.3227563,0.258199152173913,-0.0447906630434782,47.59950191,,-0.066,0.0310978260869565,2136.86,2142.61,-122.83054282,104.35391541,0.0,0.0,81.1,27.6,33.6,0.863,100,True
,88,8800.0,2025-09-28 21:05:16.193000+00:00,2025-09-28 14:05:16.193,00:00:13.5,75916193,0.0,0.0,0.0,0.0,0.0,0.0,0.0,0.0,0.0,0.0,1.0,0.0,0.0,0.0,0.0,0.001,0.0,0.0,0.0,0.0,0.0552022265060241,0.3323703855421687,-2.02261,-0.3166060240963855,0.0384847445783132,0.932248686746988,1.7450373493975904,0.325361626506024,0.9136668674698796,47.59950191,,-0.066,0.0322048192771084,2136.86,2142.61,-122.83054282,104.35391541,0.0,0.0,81.1,27.6,33.6,0.863,100,True
,89,8900.0,2025-09-28 21:05:16.293000+00:00,2025-09-28 14:05:16.293,00:00:13.6,75916293,0.0,0.0,0.0,0.0,0.0,0.0,0.0,0.0,0.0,0.0,1.0,0.0,0.0,0.0,0.0,0.001,0.0,0.0,0.0,0.0,0.0563671106666666,0.3341534533333333,-2.0224490666666664,-0.3230589066666667,-0.028646024,0.9350448,-1.82229292,0.8552813066666667,-0.0723456266666666,47.59950191,,-0.066,0.0327733333333333,2136.86,2142.61,-122.83054282,104.35391541,0.0,0.0,81.1,27.6,33.6,0.863,100,True
,90,9000.0,2025-09-28 21:05:16.393000+00:00,2025-09-28 14:05:16.393,00:00:13.7,75916393,0.0,0.0,0.0,0.0,0.0,0.0,0.0,0.0,0.0,0.0,1.0,0.0,0.0,0.0,0.0,0.001,0.0,0.0,0.0,0.0,0.0584603773333333,0.3361047866666667,-2.021975733333333,-0.3243615733333334,-0.025849624,0.9370148,-0.5263309200000001,1.7921939733333332,0.2728437066666667,47.59950191,,-0.066,0.0321066666666666,2136.86,2142.61,-122.83054282,104.35391541,0.0,0.0,81.1,27.6,33.6,0.863,100,True
,91,9100.0,2025-09-28 21:05:16.493000+00:00,2025-09-28 14:05:16.493,00:00:13.8,75916493,0.0,0.0,0.0,0.0,0.0,0.0,0.0,0.0,0.0,0.0,1.0,0.0,0.0,0.0,0.0,0.001,0.0,0.0,0.0,0.0,0.0598211327868852,0.3365863770491803,-2.021610819672131,-0.3248701967213115,-0.0746268196721311,0.876749475409836,-1.0105331639344262,-0.7640770491803277,-0.3577033770491802,47.59950191,,-0.066,0.032,2136.86,2142.61,-122.83054282,104.35391541,0.0,0.0,81.1,27.6,33.6,0.863,100,True
,92,9200.0,2025-09-28 21:05:16.593000+00:00,2025-09-28 14:05:16.593,00:00:13.9,75916593,0.0,0.0,0.0,0.0,0.0,0.0,0.0,0.0,0.0,0.0,1.0,0.0,0.0,0.0,0.0,0.001,0.0,0.0,0.0,0.0,0.060838075510204,0.3347441632653061,-2.021606530612245,-0.3251458163265306,-0.0831665285714285,0.9042177959183674,-1.115951408163265,-0.4792086122448979,-0.3459149591836734,47.59950191,,-0.066,0.032,2136.86,2142.61,-122.83054282,104.35391541,0.0,0.0,81.1,27.6,33.6,0.863,100,True
,93,9300.0,2025-09-28 21:05:16.693000+00:00,2025-09-28 14:05:16.693,00:00:14.0,75916693,0.0,0.0,0.0,0.0,0.0,0.0,0.0,0.0,0.0,0.0,1.0,0.0,0.0,0.0,0.0,0.001,0.0,0.0,0.0,0.0,0.0622739,0.3332108,-2.021632,-0.322675,-0.08208246,0.9360624,-0.7165802,-0.8351443999999999,-0.1707966,47.59950191,,-0.0668,0.0304,2136.86,2142.61,-122.83054282,104.35391541,0.0,0.0,81.1,27.6,33.6,0.863,100,True
,94,9400.0,2025-09-28 21:05:16.793000+00:00,2025-09-28 14:05:16.793,00:00:14.1,75916793,0.0,0.0,0.0,0.0,0.0,0.0,0.0,0.0,0.0,0.0,1.0,0.0,0.0,0.0,0.0,0.001,0.0,0.0,0.0,0.0,0.063610723076923,0.3310059999999999,-2.021656923076923,-0.3208397692307692,-0.0698634384615384,0.9352512307692308,-1.4192621538461538,0.7312478461538463,-0.1251767692307692,47.59950191,,-0.066076923076923,0.0327692307692307,2136.86,2142.61,-122.83054282,104.44615489615384,0.0,0.0,81.1,27.6,33.6,0.863,100,True
,95,9500.0,2025-09-28 21:05:16.893000+00:00,2025-09-28 14:05:16.893,00:00:14.2,75916893,0.0,0.0,0.0,0.0,0.0,0.0,0.0,0.0,0.0,0.0,1.0,0.0,0.0,0.0,0.0,0.001,0.0,0.0,0.0,0.0,0.0650527545454545,0.331756303030303,-2.0215566666666667,-0.3230311818181818,-0.0379051727272727,0.9365160606060606,-1.905408484848485,0.161156696969697,-0.406757303030303,47.59950191,,-0.066,0.033,2136.86,2142.61,-122.83054282,104.45384152,0.0,0.0,81.1,27.6,33.6,0.863,100,True
,96,9600.0,2025-09-28 21:05:16.993000+00:00,2025-09-28 14:05:16.993,00:00:14.3,75916993,0.0,0.0,0.0,0.0,0.0,0.0,0.0,0.0,0.0,0.0,1.0,0.0,0.0,0.0,0.0,0.001,0.0,0.0,0.0,0.0,0.0680741085106383,0.3333174680851064,-2.020884680851064,-0.3247499574468085,-0.0813596489361702,0.937968255319149,0.1280465063829787,0.9950106382978724,0.2013612127659574,47.59950191,,-0.066,0.0326170212765957,2136.86,2142.61,-122.83054282,104.45384152,0.0,0.0,81.1,27.6,33.6,0.863,100,True
,97,9700.0,2025-09-28 21:05:17.093000+00:00,2025-09-28 14:05:17.093,00:00:14.4,75917093,0.0,0.0,0.0,0.0,0.0,0.0,0.0,0.0,0.0,0.0,1.0,0.0,0.0,0.0,0.0,0.001,0.0,0.0,0.0,0.0,0.0672251448275862,0.3326191034482758,-2.021392758620689,-0.322743724137931,-0.0697228172413793,0.9370273793103449,0.6587439103448276,-1.6302384827586207,-0.1185499999999999,47.59950191,,-0.066,0.0306206896551724,2136.86,2142.61,-122.83054282,104.45384152,0.0,0.0,81.1,27.6,33.6,0.863,100,True
,98,9800.0,2025-09-28 21:05:17.193000+00:00,2025-09-28 14:05:17.193,00:00:14.5,75917193,0.0,0.0,0.0,0.0,0.0,0.0,0.0,0.0,0.0,0.0,1.0,0.0,0.0,0.0,0.0,0.001,0.0,0.0,0.0,0.0,0.0646853765957446,0.3301963404255319,-2.0222194680851064,-0.318262914893617,-0.0655528234042553,0.9359091170212764,-0.05260385,0.7397455531914894,-0.3640368946808511,47.59950191,,-0.066,0.033,2136.86,2142.61,-122.83054282,104.45384152,0.0,0.0,81.1,27.6,33.6,0.863,100,True
,99,9900.0,2025-09-28 21:05:17.293000+00:00,2025-09-28 14:05:17.293,00:00:14.6,75917293,0.0,0.0,0.0,0.0,0.0,0.0,0.0,0.0,0.0,0.0,1.0,0.0,0.0,0.0,0.0,0.001,0.0,0.0,0.0,0.0,0.0642250011363636,0.3311889772727273,-2.022378863636364,-0.3198124431818182,-0.0851869079545454,0.937406,-0.163739859090909,1.168601840909091,-0.0880849784090909,47.59950191,,-0.066,0.0334204545454545,2136.86,2142.61,-122.83054282,104.45384152,0.0,0.0,81.1,27.6,33.6,0.863,100,True
,100,10000.0,2025-09-28 21:05:17.393000+00:00,2025-09-28 14:05:17.393,00:00:14.7,75917393,0.0,0.0,0.0,0.0,0.0,0.0,0.0,0.0,0.0,0.0,1.0,0.0,0.0,0.0,0.0,0.001,0.0,0.0,0.0,0.0,0.0641042045454545,0.3319184659090909,-2.022510113636364,-0.3181702727272727,-0.0777766681818181,0.9380494829545456,0.0127670738636363,0.5348672272727273,-0.0220212102272727,47.59950191,,-0.0657215909090909,0.0334431818181818,2136.86,2142.61,-122.83054282,104.45384152,0.0,0.0,81.1,27.6,33.6,0.863,100,True
,101,10100.0,2025-09-28 21:05:17.493000+00:00,2025-09-28 14:05:17.493,00:00:14.8,75917493,0.0,0.0,0.0,0.0,0.0,0.0,0.0,0.0,0.0,0.0,1.0,0.0,0.0,0.0,0.0,0.001,0.0,0.0,0.0,0.0,0.0638182954545454,0.3327377840909091,-2.0226123863636363,-0.3213157272727273,-0.0730880318181818,0.9386341420454544,0.6348835511363635,0.8159717727272728,0.2399395852272726,47.59950191,,-0.0651534090909091,0.0323068181818181,2136.86,2142.61,-122.83054282,104.45384152,0.0,0.0,81.1,27.6,33.6,0.863,100,True
,102,10200.0,2025-09-28 21:05:17.593000+00:00,2025-09-28 14:05:17.593,00:00:14.9,75917593,0.0,0.0,0.0,0.0,0.0,0.0,0.0,0.0,0.0,0.0,1.0,0.0,0.0,0.0,0.0,0.001,0.0,0.0,0.0,0.0,0.0634967462365591,0.3333247849462366,-2.0227891397849462,-0.323771,-0.0650493483870967,0.9385957634408602,0.1268147161290322,0.3957290322580644,0.1544199569892473,47.59950191,,-0.0657849462365591,0.032,2136.86,2142.61,-122.83054282,104.45384152,0.0,0.0,81.1,27.6,33.6,0.863,100,True
,103,10300.0,2025-09-28 21:05:17.693000+00:00,2025-09-28 14:05:17.693,00:00:15.0,75917693,0.0,0.0,0.0,0.0,0.0,0.0,0.0,0.0,0.0,0.0,1.0,0.0,0.0,0.0,0.0,0.001,0.0,0.0,0.0,0.0,0.0645008909090909,0.3335922727272727,-2.022884545454545,-0.3248546363636364,-0.0637644363636363,0.9376238181818182,-0.121794709090909,0.1325909090909091,0.1184765454545454,47.59950191,,-0.066,0.032,2136.86,2142.61,-122.83054282,104.45384152,0.0,0.0,81.1,27.6,33.6,0.863,100,True
,104,10400.0,2025-09-28 21:05:17.793000+00:00,2025-09-28 14:05:17.793,00:00:15.1,75917793,0.0,0.0,0.0,0.0,0.0,0.0,0.0,0.0,0.0,0.0,1.0,0.0,0.0,0.0,0.0,0.001,0.0,0.0,0.0,0.0,0.0645462382352941,0.3338268235294117,-2.0230252941176468,-0.3265059999999999,-0.0651337176470588,0.9373385294117648,0.0605532647058823,0.2144013529411764,0.1016402470588235,47.59950191,,-0.066,0.032,2136.86,2142.61,-122.83054282,104.58784698823528,0.0,0.0,81.1,27.6,33.6,0.863,100,True
,105,10500.0,2025-09-28 21:05:17.893000+00:00,2025-09-28 14:05:17.893,00:00:15.2,75917893,0.0,0.0,0.0,0.0,0.0,0.0,0.0,0.0,0.0,0.0,1.0,0.0,0.0,0.0,0.0,0.001,0.0,0.0,0.0,0.0,0.0641466692307692,0.3340836153846154,-2.023342307692308,-0.327773923076923,-0.0639837615384615,0.9368416923076924,0.1974719230769231,-0.2138083076923077,0.1372543846153846,47.59950191,,-0.066,0.032,2136.86,2142.61,-122.83054282,104.65193656,0.0,0.0,81.1,27.6,33.6,0.863,100,True
,106,10600.0,2025-09-28 21:05:17.993000+00:00,2025-09-28 14:05:17.993,00:00:15.3,75917993,0.0,0.0,0.0,0.0,0.0,0.0,0.0,0.0,0.0,0.0,1.0,0.0,0.0,0.0,0.0,0.001,0.0,0.0,0.0,0.0,0.0637641471910112,0.3337371460674157,-2.023682584269663,-0.325376606741573,-0.0632462943820224,0.936037595505618,0.226645,-0.4074546516853932,0.1637044269662921,47.59950191,,-0.066,0.032,2136.86,2142.61,-122.83054282,104.65193656,0.0,0.0,81.1,27.526966292134837,33.6,0.863,100,True
,107,10700.0,2025-09-28 21:05:18.093000+00:00,2025-09-28 14:05:18.093,00:00:15.4,75918093,0.0,0.0,0.0,0.0,0.0,0.0,0.0,0.0,0.0,0.0,1.0,0.0,0.0,0.0,0.0,0.001,0.0,0.0,0.0,0.0,0.0636361791666666,0.3328725833333333,-2.02396375,-0.3231176249999999,-0.0626007666666666,0.9353621666666668,-0.0542217083333333,-0.5362619583333332,0.1340334583333333,47.59950191,,-0.066,0.032,2136.86,2142.61,-122.83054282,104.65193656,0.0,0.0,81.1,27.57916666666667,33.6,0.863,100,True
,108,10800.0,2025-09-28 21:05:18.193000+00:00,2025-09-28 14:05:18.193,00:00:15.5,75918193,0.0,0.0,0.0,0.0,0.0,0.0,0.0,0.0,0.0,0.0,1.0,0.0,0.0,0.0,0.0,0.001,0.0,0.0,0.0,0.0,0.0642426457831325,0.3314918554216867,-2.0241163855421687,-0.3194163975903614,-0.0655691542168674,0.9348553493975904,-0.6953108674698795,-0.5155831204819277,-0.1632334819277108,47.59950191,,-0.0669638554216867,0.032,2136.86,2142.61,-122.83054282,104.65193656,0.0,0.0,81.1,27.6,33.6,0.863,100,True
,109,10900.0,2025-09-28 21:05:18.293000+00:00,2025-09-28 14:05:18.293,00:00:15.6,75918293,0.0,0.0,0.0,0.0,0.0,0.0,0.0,0.0,0.0,0.0,1.0,0.0,0.0,0.0,0.0,0.001,0.0,0.0,0.0,0.0,0.06507532,0.3314898,-2.024059,-0.3208391,-0.06929132,0.9358008,-0.006898613,0.5322354,0.05511435,47.59950191,,-0.066,0.0331,2136.86,2142.61,-122.83054282,104.65193656,0.0,0.0,81.1,27.6,33.6,0.863,100,True
,110,11000.0,2025-09-28 21:05:18.393000+00:00,2025-09-28 14:05:18.393,00:00:15.7,75918393,0.0,0.0,0.0,0.0,0.0,0.0,0.0,0.0,0.0,0.0,1.0,0.0,0.0,0.0,0.0,0.001,0.0,0.0,0.0,0.0,0.0648659648351648,0.3334632637362637,-2.024236263736264,-0.321342989010989,-0.0566641769230769,0.9376374175824176,-0.0405460879120879,1.6875997802197802,0.2653217912087912,47.59950191,,-0.066,0.0337912087912087,2136.86,2142.61,-122.83054282,104.65193656,0.0,0.0,81.1,27.57912087912088,33.6,0.863,100,True
,111,11100.0,2025-09-28 21:05:18.493000+00:00,2025-09-28 14:05:18.493,00:00:15.8,75918493,0.0,0.0,0.0,0.0,0.0,0.0,0.0,0.0,0.0,0.0,1.0,0.0,0.0,0.0,0.0,0.001,0.0,0.0,0.0,0.0,0.0650631692307692,0.3362685384615385,-2.024352307692308,-0.3271264615384615,-0.0691275,0.9388836153846154,0.1516442153846153,1.0261795076923077,0.2799403846153846,47.59950191,,-0.066,0.033,2136.86,2142.61,-122.83054282,104.65193656,0.0,0.0,81.1,27.53076923076923,33.6,0.863,100,True
,112,11200.0,2025-09-28 21:05:18.593000+00:00,2025-09-28 14:05:18.593,00:00:15.9,75918593,0.0,0.0,0.0,0.0,0.0,0.0,0.0,0.0,0.0,0.0,1.0,0.0,0.0,0.0,0.0,0.001,0.0,0.0,0.0,0.0,0.0645985584269663,0.3373237303370786,-2.024684719101124,-0.3278196629213483,-0.0659283707865168,0.938121808988764,0.0941769707865168,0.0560763235955056,0.1879534606741573,47.59950191,,-0.066,0.033,2136.86,2142.61,-122.83054282,104.65193656,0.0,0.0,81.1,27.55842696629213,33.6,0.863,100,True
,113,11300.0,2025-09-28 21:05:18.693000+00:00,2025-09-28 14:05:18.693,00:00:16.0,75918693,0.0,0.0,0.0,0.0,0.0,0.0,0.0,0.0,0.0,0.0,1.0,0.0,0.0,0.0,0.0,0.001,0.0,0.0,0.0,0.0,0.0640847808510638,0.3376544680851064,-2.025038723404255,-0.3293190212765957,-0.0627563617021276,0.9369908723404256,0.347343914893617,0.1547320510638298,0.3237900851063829,47.59950191,,-0.066,0.0324893617021276,2136.86,2142.61,-122.83054282,104.65193656,0.0,0.0,81.1,27.551063829787235,33.6,0.863,100,True
,114,11400.0,2025-09-28 21:05:18.793000+00:00,2025-09-28 14:05:18.793,00:00:16.1,75918793,0.0,0.0,0.0,0.0,0.0,0.0,0.0,0.0,0.0,0.0,1.0,0.0,0.0,0.0,0.0,0.001,0.0,0.0,0.0,0.0,0.0636539232558139,0.336937488372093,-2.0253983720930235,-0.326214,-0.0628481395348837,0.935444976744186,0.1501699395348837,-0.564622288372093,0.2063426511627907,47.59950191,,-0.066,0.0313720930232558,2136.86,2142.61,-122.83054282,104.65091359279069,0.0,0.0,81.1,27.537209302325586,33.6,0.863,100,True
,115,11500.0,2025-09-28 21:05:18.893000+00:00,2025-09-28 14:05:18.893,00:00:16.2,75918893,0.0,0.0,0.0,0.0,0.0,0.0,0.0,0.0,0.0,0.0,1.0,0.0,0.0,0.0,0.0,0.001,0.0,0.0,0.0,0.0,0.0637543444444444,0.3349677333333333,-2.025661111111112,-0.3294604,-0.0573936133333333,0.9337202222222222,-0.7059505733333333,-1.832424,-0.1818229333333333,47.59950191,,-0.0675111111111111,0.0287333333333333,2136.86,2142.61,-122.83054282,104.65030739,0.0,0.0,81.1,27.5,33.6,0.863,100,True
,116,11600.0,2025-09-28 21:05:18.993000+00:00,2025-09-28 14:05:18.993,00:00:16.3,75918993,0.0,0.0,0.0,0.0,0.0,0.0,0.0,0.0,0.0,0.0,1.0,0.0,0.0,0.0,0.0,0.001,0.0,0.0,0.0,0.0,0.0663313630434782,0.329067152173913,-2.024913043478261,-0.3282049130434782,-0.0546472434782608,0.9303827173913044,-2.3040276956521737,-5.4610328260869565,-1.5546133260869563,47.59950191,,-0.0688478260869565,0.0186739130434782,2136.86,2142.61,-122.83054282,104.65030739,0.0,0.0,81.1,27.5,33.6,0.863,100,True
,117,11700.0,2025-09-28 21:05:19.093000+00:00,2025-09-28 14:05:19.093,00:00:16.4,75919093,,,,,,,,0.0,0.0,,,,,0.0,-61.84269662921348,3.370786516853925e-05,0.0,-0.3671910112359551,0.0386516853932584,0.3961797752808988,0.0730323741573033,0.3079615393258427,-2.0219870786516854,-0.3054153707865168,-0.0532772775280898,0.9190063707865168,-10.22127,-21.36954370786517,-3.9415629213483143,47.59950191,,-0.1057191011235955,-0.0805955056179775,2136.86,2142.61,-122.83054282,104.65030739,0.0,0.0,81.1,27.5,33.6,0.863,100,True
,118,11800.0,2025-09-28 21:05:19.193000+00:00,2025-09-28 14:05:19.193,00:00:16.5,75919193,,,,,,,,0.0,0.0,,,,,-0.0246976744186046,-109.7906976744186,0.001860465116279,0.0430232558139534,-4.825813953488373,-0.1481395348837209,6.8097674418604655,0.0948860232558139,0.2372927441860465,-2.0208058139534884,-0.1952034837209302,-0.2344216744186046,0.9003292558139534,-9.056525581395348,-71.07627906976745,0.8369565116279071,47.59950191,,-0.054,-0.2304418604651163,2136.849069767442,2142.620930232558,-122.83054282,104.65030739,0.0,0.0,81.06279069767442,27.5,33.6,0.863,100,True
,119,11900.0,2025-09-28 21:05:19.293000+00:00,2025-09-28 14:05:19.293,00:00:16.6,75919293,0.75,0.0,0.0,,,,,0.0,0.0,0.0,0.0,,,-0.1721864406779661,16.406779661016948,0.084864406779661,1.6822033898305082,22.92542372881356,-0.085593220338983,28.686440677966104,0.0916999372881356,0.0949217186440677,-2.0321250847457626,0.0242211661016949,-0.1926620508474576,0.8826176440677965,10.666186779661018,-94.65500508474577,-0.8619687457627117,47.59950191,,-0.0971186440677966,1.2365762711864408,2136.8289830508475,2142.6430508474577,-122.83054282,104.65030739,0.0,0.0,80.26949152542373,27.5,33.58983050847458,0.8627966101694915,100,True
,120,12000.0,2025-09-28 21:05:19.393000+00:00,2025-09-28 14:05:19.393,00:00:16.7,75919393,0.75,0.0,0.0,,,,,0.0,0.0,0.0,0.0,,,-0.001,352.0,0.1063333333333333,4.75,49.06666666666666,0.0499999999999999,51.16666666666667,0.0789623666666666,0.0093145999999999,-2.04082,-0.3746034666666666,0.0137876666666666,0.8788323333333333,8.936113333333333,-81.00003333333333,-7.599283999999999,47.59950191,,-0.3366666666666666,3.6286666666666663,2136.8233333333333,2142.66,-122.83054282,104.65030739,0.0,0.0,80.1,27.5,33.53333333333333,0.8616666666666667,100,True
,121,12100.0,2025-09-28 21:05:19.493000+00:00,2025-09-28 14:05:19.493,00:00:16.8,75919493,0.75,0.0,0.0,,,,,0.0,0.0,0.0,0.0,0.95,0.0,0.3451276595744681,714.0,0.1303404255319148,6.276489361702128,58.5013829787234,0.1081914893617021,58.467553191489365,0.0741465265957446,-0.0647369340425531,-2.0314909574468083,-0.3769605180851063,0.0178008723404255,0.8967343617021277,2.865849255319149,-44.75938872340426,-17.365986170212764,47.59950191,,-0.5460425531914893,5.417287234042553,2136.8636170212767,2142.709255319149,-122.83054282,104.65030739,0.0,0.0,79.91276595744681,27.5,33.5436170212766,0.8592553191489362,100,True
,122,12200.0,2025-09-28 21:05:19.593000+00:00,2025-09-28 14:05:19.593,00:00:16.9,75919593,0.75,0.0,0.0,,,,,0.0,0.0,0.0,0.0,0.95,0.0,0.7703043478260869,1036.3478260869565,0.1455108695652174,5.317391304347826,45.44695652173913,0.0391304347826087,45.37543478260869,0.0621591576086956,-0.1044039456521739,-1.9969579347826083,-0.0692420663043478,-0.0528540032608695,0.948899597826087,3.5527565217391315,-6.160134782608695,-15.886691739130432,47.59950191,,-0.6789565217391305,5.996445652173913,2136.9608695652173,2142.80597826087,-122.83054282,104.65030739,0.0,0.0,80.00434782608696,27.5,33.54891304347826,0.8554673913043478,100,True
,123,12300.0,2025-09-28 21:05:19.693000+00:00,2025-09-28 14:05:19.693,00:00:17.0,75919693,0.75,0.0,0.0,,,,,0.0,0.0,0.0,0.0,0.95,0.0,0.9981935483870968,1178.0752688172042,0.1383118279569892,4.105376344086022,35.82397849462365,-0.0118279569892473,35.74311827956989,0.051578129032258,-0.1080065806451612,-1.9835819354838709,-0.0263566059139784,-0.1570218086021505,0.990551741935484,-0.755452688172042,2.622215591397849,5.000445591397849,47.59950191,,-0.6356559139784945,5.924913978494624,2137.065053763441,2142.909139784946,-122.83054282,104.65030739,0.0,0.0,80.25913978494624,27.5,33.5,0.8528172043010752,100,True
,124,12400.0,2025-09-28 21:05:19.793000+00:00,2025-09-28 14:05:19.793,00:00:17.1,75919793,0.75,0.0,0.0,,,,,0.0,0.0,0.0,0.0,0.95,0.0,1.1419565217391303,1227.2608695652175,0.1377173913043478,3.8621739130434793,33.74130434782609,0.013695652173913,33.74847826086957,0.0526045586956521,-0.0947253,-1.9884119565217395,0.1104394923913043,-0.1027139891304347,1.0141367391304348,4.775602173913043,7.288075434782608,-1.9197345652173912,47.59950191,,-0.6440652173913044,5.930239130434782,2137.2447826086955,2143.0915217391303,-122.83054282,104.63691508673912,0.0,0.0,80.16521739130434,27.5,33.56739130434783,0.8506521739130435,100,True
,125,12500.0,2025-09-28 21:05:19.893000+00:00,2025-09-28 14:05:19.893,00:00:17.2,75919893,0.75,0.0,0.0,,,,,0.0,0.0,0.0,0.0,0.95,0.0,1.2307228915662651,1308.1566265060242,0.1459036144578313,3.951566265060241,33.389759036144575,0.0046987951807228,33.33542168674698,0.0301968084337349,-0.0869507397590361,-1.9822897590361448,0.0512323975903614,0.0617594518072289,1.0258092771084335,16.143568674698795,-0.0526474698795169,-7.013183975903615,47.59950191,,-0.7267590361445783,6.174072289156626,2137.411204819277,2143.2527710843374,-122.83054282,104.63043494,0.0,0.0,80.26867469879518,27.5,33.6,0.8483132530120482,100,True
,126,12600.0,2025-09-28 21:05:19.993000+00:00,2025-09-28 14:05:19.993,00:00:17.3,75919993,0.75,0.0,0.0,1.0,0.0,,0.0,0.0,0.0,0.0,0.0,0.95,0.0,1.318709677419355,1423.9032258064517,0.1600967741935484,4.5206451612903225,35.48451612903226,0.0093548387096774,35.48935483870967,-0.0068233874193548,-0.0819582193548387,-1.979529677419355,0.0321674483870967,-0.2263659032258064,1.028283870967742,34.436609677419355,0.4354814193548388,14.628778709677425,47.59950191,,-0.7986774193548387,6.633709677419355,2137.5422580645163,2143.382258064516,-122.83054282,104.63043494,0.0,0.0,80.01935483870967,27.59354838709677,33.6,0.8461290322580645,100,True
,127,12700.0,2025-09-28 21:05:20.093000+00:00,2025-09-28 14:05:20.093,00:00:17.4,75920093,0.75,0.0,0.0,1.0,0.0,,0.0,0.0,0.0,0.0,0.0,0.95,0.0,1.3337340425531916,1600.712765957447,0.1698617021276595,4.858723404255319,35.10372340425532,0.0269148936170212,35.03329787234043,-0.041195659574468,-0.084954509574468,-2.042229680851064,-0.118721744680851,0.0122740594680851,1.024317234042553,12.719068085106382,-2.437052234042553,45.49377446808511,47.59950191,,-0.9692127659574468,7.264063829787234,2137.557446808511,2143.3974468085107,-122.83054282,104.63043494,0.0,0.0,80.06808510638297,27.6,33.6,0.8458936170212765,100,True
