ride_id,sample_idx,_elapsed_ms,ts_utc,ts_pst,video_ts_anchor,ms_today,cf_accel,cf_brake,cf_cruise,cf_turn_left,cf_turn_right,cf_carve_left,cf_carve_right,cf_ascent,cf_descent,cf_traction_loss,cf_idle,cf_forward,cf_reverse,speed_meters_per_sec,erpm,duty_cycle,current_in,current_motor,d_axis_current,q_axis_current,roll,pitch,yaw,accX,accY,accZ,gyroX,gyroY,gyroZ,gnss_lat,fault_code,d_axis_voltage,q_axis_voltage,tacho_meters,tacho_abs_meters,gnss_lon,gnss_alt,gnss_gVel,gnss_vVel,input_voltage,temp_mos_max,temp_motor,battery_level,dt_ms,_on_grid
ride_34,0,0.0,2025-09-28 21:07:39.643000+00:00,2025-09-28 14:07:39.643,00:00:04.0,76059643,0.0,0.0,0.0,0.0,0.0,0.0,0.0,0.0,0.0,0.0,1.0,0.0,0.0,0.0,0.0,-0.001,0.0,0.0,-0.01,-0.03,0.0361716,0.298596,-0.0726722,-0.296988,-0.0193005,0.944663,4.96112,-0.700204,2.0703,47.59978355,0.0,-0.014,-0.02,2683.79,2690.11,-122.83741389,125.07193039,0.0,0.0,80.8,28.8,37.0,0.841,100,True
,1,100.0,2025-09-28 21:07:39.743000+00:00,2025-09-28 14:07:39.743,00:00:04.1,76059743,0.0,0.0,0.0,0.0,0.0,0.0,0.0,0.0,0.0,0.0,1.0,0.0,0.0,0.0,0.0,-0.001,0.0,0.0,0.0,0.0,0.0605716918518518,0.3298258074074074,-3.049961259259259,-0.3233785259259259,-0.055510017037037,0.9373818444444444,0.016187557037037,-0.0243149577777777,0.1163040592592592,47.59978355,,-0.0600592592592592,-0.042,2683.79,2690.11,-122.83741389,125.06681383414816,0.0,0.0,80.8,28.8,37.0,0.841,100,True
,2,200.0,2025-09-28 21:07:39.843000+00:00,2025-09-28 14:07:39.843,00:00:04.2,76059843,0.0,0.0,0.0,0.0,0.0,0.0,0.0,0.0,0.0,0.0,1.0,0.0,0.0,0.0,0.0,-0.001,0.0,0.0,0.0,0.0,0.06068784,0.3297984,-3.050102,-0.3210726,-0.06195898,0.9374174,0.07690452,-0.07515318,0.2156047999999999,47.59978355,,-0.0608,-0.042,2683.79,2690.11,-122.83741389,125.002856886,0.0,0.0,80.8,28.8,37.0,0.841,100,True
,3,300.0,2025-09-28 21:07:39.943000+00:00,2025-09-28 14:07:39.943,00:00:04.3,76059943,0.0,0.0,0.0,0.0,0.0,0.0,0.0,0.0,0.0,0.0,1.0,0.0,0.0,0.0,0.0,-0.001,0.0,0.0,0.0,0.0,0.0607574590361445,0.3298727951807229,-3.0503598795180724,-0.3221905662650602,-0.0612778313253012,0.9375386987951808,0.031967369879518,-0.0888244421686747,0.247796891566265,47.59978355,,-0.061,-0.042,2683.79,2690.11,-122.83741389,124.98558851,0.0,0.0,80.8,28.8,37.0,0.841,100,True
ride_34,4,400.0,2025-09-28 21:07:40.043000+00:00,2025-09-28 14:07:40.043,00:00:04.4,76060043,0.0,0.0,0.0,0.0,0.0,0.0,0.0,0.0,0.0,0.0,1.0,0.0,0.0,0.0,0.0,-0.001,0.0,0.0,0.0,0.0,0.0610017,0.329859,-3.05067,-0.324032,-0.0594406,0.937496,-0.210102,0.048509,-0.0134605,47.59978355,0.0,-0.061,-0.042,2683.79,2690.11,-122.83741389,124.98558851,0.0,0.0,80.8,28.8,37.0,0.841,100,True
,5,500.0,2025-09-28 21:07:40.143000+00:00,2025-09-28 14:07:40.143,00:00:04.5,76060143,0.0,0.0,0.0,0.0,0.0,0.0,0.0,0.0,0.0,0.0,1.0,0.0,0.0,0.0,0.0,-0.001,0.0,0.0,0.0,0.0,0.0611467086956521,0.3297974782608696,-3.050849565217391,-0.320921304347826,-0.0517947826086956,0.9526551739130434,-0.9877608695652172,0.4485898,0.2962710869565217,47.59978355,,-0.0600869565217391,-0.0419130434782608,2683.79,2690.11,-122.83741389,124.98558851,0.0,0.0,80.8,28.8,37.0,0.841,100,True
,6,600.0,2025-09-28 21:07:40.243000+00:00,2025-09-28 14:07:40.243,00:00:04.6,76060243,0.0,0.0,0.0,0.0,0.0,0.0,0.0,0.0,0.0,0.0,1.0,0.0,0.0,0.0,0.0,-0.001,0.0,0.0,0.0,0.0,0.0608211705882352,0.3298886117647059,-3.051220235294118,-0.3202536117647059,-0.0538077294117647,0.937348188235294,0.1082226588235294,-0.0059915411764705,0.2138026117647058,47.59978355,,-0.0608117647058823,-0.041,2683.79,2690.11,-122.83741389,124.98558851,0.0,0.0,80.8,28.8,37.0,0.841,100,True
,7,700.0,2025-09-28 21:07:40.343000+00:00,2025-09-28 14:07:40.343,00:00:04.7,76060343,0.0,0.0,0.0,0.0,0.0,0.0,0.0,0.0,0.0,0.0,1.0,0.0,0.0,0.0,0.0,-0.001,0.0,0.0,0.0,0.0,0.0606167488888888,0.3299316333333333,-3.0515764444444446,-0.3195649333333333,-0.0595269333333333,0.9373124888888889,0.0201934222222222,0.0261260811111111,0.1555179777777777,47.59978355,,-0.0603444444444444,-0.0413444444444444,2683.79,2690.11,-122.83741389,124.98558851,0.0,0.0,80.8,28.8,37.0,0.841,100,True
,8,800.0,2025-09-28 21:07:40.443000+00:00,2025-09-28 14:07:40.443,00:00:04.8,76060443,0.0,0.0,0.0,0.0,0.0,0.0,0.0,0.0,0.0,0.0,1.0,0.0,0.0,0.0,0.0,-0.001,0.0,0.0,0.0,0.0,0.060395852688172,0.3300122795698925,-3.051901075268817,-0.3181646021505376,-0.0566070387096774,0.937298989247312,0.2717519354838709,0.0735325698924731,0.2250967741935483,47.59978355,,-0.0605591397849462,-0.0415591397849462,2683.79,2690.11,-122.83741389,124.98558851,0.0,0.0,80.8,28.8,37.0,0.841,100,True
,9,900.0,2025-09-28 21:07:40.543000+00:00,2025-09-28 14:07:40.543,00:00:04.9,76060543,0.0,0.0,0.0,0.0,0.0,0.0,0.0,0.0,0.0,0.0,1.0,0.0,0.0,0.0,0.0,-0.001,0.0,0.0,0.0,0.0,0.0600783233576642,0.3301784379562044,-3.052209635036496,-0.3190908905109489,-0.0562593649635036,0.9373570364963504,0.130748405839416,0.1660441240875912,0.1872794452554744,47.59978355,,-0.0603503649635036,-0.0413503649635036,2683.79,2690.11,-122.83741389,124.98558851,0.0,0.0,80.8,28.8,37.0,0.841,100,True
,10,1000.0,2025-09-28 21:07:40.643000+00:00,2025-09-28 14:07:40.643,00:00:05.0,76060643,0.0,0.0,0.0,0.0,0.0,0.0,0.0,0.0,0.0,0.0,1.0,0.0,0.0,0.0,0.0,-0.001,0.0,0.0,0.0,0.0,0.0598159415730337,0.3302656516853932,-3.052493258426966,-0.3219361011235955,-0.0621528595505618,0.9373311460674156,-0.0670203865168539,0.1025123303370786,0.1139781460674157,47.59978355,,-0.060876404494382,-0.042,2683.79,2690.11,-122.83741389,124.98558851,0.0,0.0,80.8,28.787640449438204,37.0,0.841,100,True
,11,1100.0,2025-09-28 21:07:40.743000+00:00,2025-09-28 14:07:40.743,00:00:05.1,76060743,0.0,0.0,0.0,0.0,0.0,0.0,0.0,0.0,0.0,0.0,1.0,0.0,0.0,0.0,0.0,-0.001,0.0,0.0,0.0,0.0,0.0597624627906976,0.3304507906976744,-3.0528562790697675,-0.3215840697674418,-0.0542281697674418,0.9373371860465116,-0.1296990697674418,0.0334130186046511,0.1022077837209302,47.59978355,,-0.0602558139534883,-0.0422558139534883,2683.79,2690.11,-122.83741389,124.95325973255814,0.0,0.0,80.8,28.72558139534884,37.0,0.841,100,True
,12,1200.0,2025-09-28 21:07:40.843000+00:00,2025-09-28 14:07:40.843,00:00:05.2,76060843,0.0,0.0,0.0,0.0,0.0,0.0,0.0,0.0,0.0,0.0,1.0,0.0,0.0,0.0,0.0,-0.001,0.0,0.0,0.0,0.0,0.0599286913043478,0.3306528695652174,-3.053074782608696,-0.3241339130434783,-0.0555400130434782,0.937393,-0.131858,0.1620422608695652,0.076283252173913,47.59978355,,-0.061,-0.0426086956521739,2683.79,2690.11,-122.83741389,124.85921238,0.0,0.0,80.8,28.76086956521739,37.0,0.841391304347826,100,True
,13,1300.0,2025-09-28 21:07:40.943000+00:00,2025-09-28 14:07:40.943,00:00:05.3,76060943,0.0,0.0,0.0,0.0,0.0,0.0,0.0,0.0,0.0,0.0,1.0,0.0,0.0,0.0,0.0,-0.001,0.0,0.0,0.0,0.0,0.0601307382352941,0.3308062647058823,-3.053224705882353,-0.3252841176470588,-0.0583850735294117,0.9373648529411764,-0.1055735823529411,0.1198496176470588,0.1171836470588235,47.59978355,,-0.061,-0.042,2683.79,2690.11,-122.83741389,124.85921238,0.0,0.0,80.8,28.7,37.0,0.842,100,True
,14,1400.0,2025-09-28 21:07:41.043000+00:00,2025-09-28 14:07:41.043,00:00:05.4,76061043,0.0,0.0,0.0,0.0,0.0,0.0,0.0,0.0,0.0,0.0,1.0,0.0,0.0,0.0,0.0,-0.001,0.0,0.0,0.0,0.0,0.0602119784946236,0.330924935483871,-3.0533840860215054,-0.3209300860215053,-0.0537539978494623,0.9372951612903224,-0.0518770774193548,0.119863,0.1185169139784946,47.59978355,,-0.061,-0.042,2683.79,2690.11,-122.83741389,124.85921238,0.0,0.0,80.8,28.708602150537637,37.0,0.842,100,True
,15,1500.0,2025-09-28 21:07:41.143000+00:00,2025-09-28 14:07:41.143,00:00:05.5,76061143,0.0,0.0,0.0,0.0,0.0,0.0,0.0,0.0,0.0,0.0,1.0,0.0,0.0,0.0,0.0,-0.001,0.0,0.0,0.0,0.0,0.0604008035714285,0.3311488928571429,-3.0536757142857143,-0.3198720714285714,-0.0609912071428571,0.9371498214285714,0.0174481,0.0954593928571428,0.1769118928571428,47.59978355,,-0.061,-0.042,2683.79,2690.11,-122.83741389,124.85921238,0.0,0.0,80.8,28.8,37.0,0.842,100,True
,16,1600.0,2025-09-28 21:07:41.243000+00:00,2025-09-28 14:07:41.243,00:00:05.6,76061243,0.0,0.0,0.0,0.0,0.0,0.0,0.0,0.0,0.0,0.0,1.0,0.0,0.0,0.0,0.0,-0.001,0.0,0.0,0.0,0.0,0.0603051608247422,0.331116587628866,-3.0539486597938144,-0.3221533814432989,-0.060305543298969,0.9369994948453608,0.1773572536082474,0.003151855670103,0.208743206185567,47.59978355,,-0.060680412371134,-0.041680412371134,2683.79,2690.11,-122.83741389,124.85921238,0.0,0.0,80.8,28.8,37.0,0.842,100,True
,17,1700.0,2025-09-28 21:07:41.343000+00:00,2025-09-28 14:07:41.343,00:00:05.7,76061343,0.0,0.0,0.0,0.0,0.0,0.0,0.0,0.0,0.0,0.0,1.0,0.0,0.0,0.0,0.0,-0.001,0.0,0.0,0.0,0.0,0.0596152047619047,0.3311734285714285,-3.0544066666666665,-0.3215018571428571,-0.0583733142857142,0.9369758095238097,0.5227612619047619,-0.0329664285714285,0.3313237142857143,47.59978355,,-0.0604047619047619,-0.0414047619047619,2683.79,2690.11,-122.83741389,124.85921238,0.0,0.0,80.8,28.75952380952381,37.0,0.842,100,True
,18,1800.0,2025-09-28 21:07:41.443000+00:00,2025-09-28 14:07:41.443,00:00:05.8,76061443,0.0,0.0,0.0,0.0,0.0,0.0,0.0,0.0,0.0,0.0,1.0,0.0,0.0,0.0,0.0,-0.001,0.0,0.0,0.0,0.0,0.0583718869565217,0.3312938478260869,-3.055060652173913,-0.3234725869565217,-0.0485867304347826,0.9370525434782608,0.6849608478260869,0.0333486956521739,0.4382635434782608,47.59978355,,-0.061,-0.042,2683.79,2690.11,-122.83741389,124.85921238,0.0,0.0,80.8,28.75434782608696,37.0,0.842,100,True
,19,1900.0,2025-09-28 21:07:41.543000+00:00,2025-09-28 14:07:41.543,00:00:05.9,76061543,0.0,0.0,0.0,0.0,0.0,0.0,0.0,0.0,0.0,0.0,1.0,0.0,0.0,0.0,0.0,-0.001,0.0,0.0,0.0,0.0,0.0572984584269662,0.3313473932584269,-3.0556493258426967,-0.324177,-0.0516092235955056,0.9371375056179776,0.3901523707865169,0.0549943550561797,0.3128061348314607,47.59978355,,-0.061,-0.042,2683.79,2690.11,-122.83741389,124.85921238,0.0,0.0,80.8,28.8,37.0,0.842,100,True
,20,2000.0,2025-09-28 21:07:41.643000+00:00,2025-09-28 14:07:41.643,00:00:06.0,76061643,0.0,0.0,0.0,0.0,0.0,0.0,0.0,0.0,0.0,0.0,1.0,0.0,0.0,0.0,0.0,-0.001,0.0,0.0,0.0,0.0,0.0568499314685314,0.3313141538461538,-3.05595993006993,-0.3225103846153846,-0.0525974601398601,0.9371494825174824,0.2303238181818181,0.0147682755244755,0.2293329160839161,47.59978355,,-0.061,-0.0415174825174825,2683.79,2690.11,-122.83741389,124.85921238,0.0,0.0,80.8,28.751748251748253,37.0,0.842,100,True
,21,2100.0,2025-09-28 21:07:41.743000+00:00,2025-09-28 14:07:41.743,00:00:06.1,76061743,0.0,0.0,0.0,0.0,0.0,0.0,0.0,0.0,0.0,0.0,1.0,0.0,0.0,0.0,0.0,-0.001,0.0,0.0,0.0,0.0,0.0565685576470588,0.3313148705882353,-3.05621094117647,-0.3216779647058823,-0.0524587505882352,0.9371864,0.2598344235294118,0.0081424,0.2268118,47.59978355,,-0.061,-0.0413058823529411,2683.79,2690.11,-122.83741389,124.83731681035296,0.0,0.0,80.8,28.7,37.0,0.842,100,True
,22,2200.0,2025-09-28 21:07:41.843000+00:00,2025-09-28 14:07:41.843,00:00:06.2,76061843,0.0,0.0,0.0,0.0,0.0,0.0,0.0,0.0,0.0,0.0,1.0,0.0,0.0,0.0,0.0,-0.001,0.0,0.0,0.0,0.0,0.0560050788888888,0.3314254333333333,-3.0566768888888887,-0.3249014333333333,-0.0593127844444444,0.9372890444444444,0.3246515444444444,-0.0249851522222222,0.2534770888888888,47.59978355,,-0.061,-0.042,2683.79,2690.11,-122.83741389,124.78763071,0.0,0.0,80.8,28.7,37.0,0.842,100,True
,23,2300.0,2025-09-28 21:07:41.943000+00:00,2025-09-28 14:07:41.943,00:00:06.3,76061943,0.0,0.0,0.0,0.0,0.0,0.0,0.0,0.0,0.0,0.0,1.0,0.0,0.0,0.0,0.0,-0.001,0.0,0.0,0.0,0.0,0.0551211206896551,0.3316259655172414,-3.0572765517241383,-0.3281389310344828,-0.0572116793103448,0.937420275862069,0.3915898620689655,0.1742397379310344,0.2426302758620689,47.59978355,,-0.0615862068965517,-0.042,2683.79,2690.11,-122.83741389,124.78763071,0.0,0.0,80.8,28.7,37.0,0.842,100,True
,24,2400.0,2025-09-28 21:07:42.043000+00:00,2025-09-28 14:07:42.043,00:00:06.4,76062043,0.0,0.0,0.0,0.0,0.0,0.0,0.0,0.0,0.0,0.0,1.0,0.0,0.0,0.0,0.0,-0.001,0.0,0.0,0.0,0.0,0.0543695666666666,0.3316603333333333,-3.0578133333333333,-0.3276396666666666,-0.0509841,0.9373626666666668,0.2054393333333333,0.1205292666666666,0.183586,47.59978355,,-0.0613333333333333,-0.042,2683.79,2690.11,-122.83741389,124.78763071,0.0,0.0,80.8,28.7,37.0,0.842,100,True
,25,2500.0,2025-09-28 21:07:42.143000+00:00,2025-09-28 14:07:42.143,00:00:06.5,76062143,0.0,0.0,0.0,0.0,0.0,0.0,0.0,0.0,0.0,0.0,1.0,0.0,0.0,0.0,0.0,-0.001,0.0,0.0,0.0,0.0,0.0537353,0.3316467142857143,-3.0583909523809525,-0.3230614761904762,-0.0487120428571428,0.9372968095238096,0.4025215238095238,-0.0042186095238095,0.3716960952380952,47.59978355,,-0.0601904761904761,-0.042,2683.79,2690.11,-122.83741389,124.78763071,0.0,0.0,80.8,28.7,37.0,0.842,100,True
,26,2600.0,2025-09-28 21:07:42.243000+00:00,2025-09-28 14:07:42.243,00:00:06.6,76062243,0.0,0.0,0.0,0.0,0.0,0.0,0.0,0.0,0.0,0.0,1.0,0.0,0.0,0.0,0.0,-0.001,0.0,0.0,0.0,0.0,0.0533855304347826,0.3315635217391304,-3.0589008695652176,-0.3218335652173912,-0.0471741173913043,0.9371737391304348,-0.2735558260869564,-0.084245704347826,0.1004020782608695,47.59978355,,-0.0609130434782608,-0.042,2683.79,2690.11,-122.83741389,124.78763071,0.0,0.0,80.8,28.7,37.0,0.842,100,True
,27,2700.0,2025-09-28 21:07:42.343000+00:00,2025-09-28 14:07:42.343,00:00:06.7,76062343,0.0,0.0,0.0,0.0,0.0,0.0,0.0,0.0,0.0,0.0,1.0,0.0,0.0,0.0,0.0,-0.001,0.0,0.0,0.0,0.0,0.0540193536082474,0.3315570618556701,-3.05886,-0.3244018556701031,-0.0576784701030927,0.93722606185567,-0.1360912577319587,-0.1422040824742267,0.1797756265979381,47.59978355,,-0.0609381443298969,-0.042,2683.79,2690.11,-122.83741389,124.78763071,0.0,0.0,80.8,28.79381443298969,37.0,0.842,100,True
,28,2800.0,2025-09-28 21:07:42.443000+00:00,2025-09-28 14:07:42.443,00:00:06.8,76062443,0.0,0.0,0.0,0.0,0.0,0.0,0.0,0.0,0.0,0.0,1.0,0.0,0.0,0.0,0.0,-0.001,0.0,0.0,0.0,0.0,0.054518794117647,0.3316522823529412,-3.058883294117648,-0.3260368588235294,-0.0612266717647058,0.9373092117647058,-0.3174413152941176,0.10408394,0.0251509750588235,47.59978355,,-0.0601058823529411,-0.042,2683.79,2690.11,-122.83741389,124.78763071,0.0,0.0,80.8,28.7,37.0,0.842,100,True
,29,2900.0,2025-09-28 21:07:42.543000+00:00,2025-09-28 14:07:42.543,00:00:06.9,76062543,0.0,0.0,0.0,0.0,0.0,0.0,0.0,0.0,0.0,0.0,1.0,0.0,0.0,0.0,0.0,-0.001,0.0,0.0,0.0,0.0,0.0547108274725274,0.3316947692307692,-3.0591564835164835,-0.3234676813186813,-0.0537471615384615,0.9372268241758244,-0.1045657956043956,-0.019084801098901,0.2219952197802198,47.59978355,,-0.061,-0.0422637362637362,2683.79,2690.11,-122.83741389,124.78763071,0.0,0.0,80.8,28.726373626373626,37.0,0.842,100,True
,30,3000.0,2025-09-28 21:07:42.643000+00:00,2025-09-28 14:07:42.643,00:00:07.0,76062643,0.0,0.0,0.0,0.0,0.0,0.0,0.0,0.0,0.0,0.0,1.0,0.0,0.0,0.0,0.0,-0.001,0.0,0.0,0.0,0.0,0.05495,0.33171125,-3.05938875,-0.3225672499999999,-0.048411725,0.937192,-0.37907875,-0.0469549875,0.0638304874999999,47.59978355,,-0.060625,-0.043,2683.79,2690.11,-122.83741389,124.78763071,0.0,0.0,80.8,28.8,37.0,0.842,100,True
,31,3100.0,2025-09-28 21:07:42.743000+00:00,2025-09-28 14:07:42.743,00:00:07.1,76062743,0.0,0.0,0.0,0.0,0.0,0.0,0.0,0.0,0.0,0.0,1.0,0.0,0.0,0.0,0.0,-0.001,0.0,0.0,0.0,0.0,0.0561562247191011,0.3315223595505618,-3.05924808988764,-0.3232661685393258,-0.0578211337078651,0.9371133483146068,-0.4591067415730337,-0.3397188674157303,-0.0579124303370786,47.59978355,,-0.060505617977528,-0.0424943820224719,2683.79,2690.11,-122.83741389,124.78763071,0.0,0.0,80.8,28.74943820224719,37.0,0.842,100,True
,32,3200.0,2025-09-28 21:07:42.843000+00:00,2025-09-28 14:07:42.843,00:00:07.2,76062843,0.0,0.0,0.0,0.0,0.0,0.0,0.0,0.0,0.0,0.0,1.0,0.0,0.0,0.0,0.0,-0.001,0.0,0.0,0.0,0.0,0.0571492387096774,0.331154,-3.0591643010752687,-0.3222253010752688,-0.0628636741935483,0.9370126451612903,-0.0433400860215054,-0.3694200215053763,0.1174866548387097,47.59978355,,-0.061,-0.042,2683.79,2690.11,-122.83741389,124.73924195301076,0.0,0.0,80.8,28.76021505376344,37.0,0.842,100,True
,33,3300.0,2025-09-28 21:07:42.943000+00:00,2025-09-28 14:07:42.943,00:00:07.3,76062943,0.0,0.0,0.0,0.0,0.0,0.0,0.0,0.0,0.0,0.0,1.0,0.0,0.0,0.0,0.0,-0.001,0.0,0.0,0.0,0.0,0.0572185955056179,0.3309507865168539,-3.059418202247191,-0.320485202247191,-0.0585440011235955,0.93711,-0.0967664269662921,0.0175110898876404,0.1087728404494382,47.59978355,,-0.061,-0.042,2683.79,2690.11,-122.83741389,124.70727081,0.0,0.0,80.8,28.72921348314607,37.0,0.842,100,True
,34,3400.0,2025-09-28 21:07:43.043000+00:00,2025-09-28 14:07:43.043,00:00:07.4,76063043,0.0,0.0,0.0,0.0,0.0,0.0,0.0,0.0,0.0,0.0,1.0,0.0,0.0,0.0,0.0,-0.001,0.0,0.0,0.0,0.0,0.0578063376344086,0.3308547956989247,-3.0594840860215053,-0.3215823333333333,-0.0456712440860215,0.9372654408602152,-1.1258298494623655,0.1717367204301075,-0.2555154365591398,47.59978355,,-0.0617956989247311,-0.0427956989247311,2683.79,2690.11,-122.83741389,124.70727081,0.0,0.0,80.8,28.7,37.0,0.842,100,True
,35,3500.0,2025-09-28 21:07:43.143000+00:00,2025-09-28 14:07:43.143,00:00:07.5,76063143,0.0,0.0,0.0,0.0,0.0,0.0,0.0,0.0,0.0,0.0,1.0,0.0,0.0,0.0,0.0,-0.001,0.0,0.0,0.0,0.0,0.0593966174418604,0.3304215813953489,-3.059263372093023,-0.3238378720930232,-0.0434768453488372,0.9370301627906976,-0.062782603488372,-0.798750988372093,0.1563330930232558,47.59978355,,-0.062,-0.0420581395348837,2683.79,2690.11,-122.83741389,124.70727081,0.0,0.0,80.8,28.7,37.0,0.842,100,True
,36,3600.0,2025-09-28 21:07:43.243000+00:00,2025-09-28 14:07:43.243,00:00:07.6,76063243,0.0,0.0,0.0,0.0,0.0,0.0,0.0,0.0,0.0,0.0,1.0,0.0,0.0,0.0,0.0,-0.001,0.0,0.0,0.0,0.0,0.0596404529411764,0.3299838676470588,-3.059389705882353,-0.3203845,-0.0440138507352941,0.9369455441176472,-0.0269883595588235,-0.4677917279411764,0.2356626911764705,47.59978355,,-0.0613014705882352,-0.042,2683.79,2690.11,-122.83741389,124.70727081,0.0,0.0,80.8,28.7,37.0,0.842,100,True
,37,3700.0,2025-09-28 21:07:43.343000+00:00,2025-09-28 14:07:43.343,00:00:07.7,76063343,0.0,0.0,0.0,0.0,0.0,0.0,0.0,0.0,0.0,0.0,1.0,0.0,0.0,0.0,0.0,-0.001,0.0,0.0,0.0,0.0,0.0600809315217391,0.3296552934782609,-3.05955902173913,-0.320465652173913,-0.0561934510869565,0.937225108695652,-0.1395284413043478,-0.0297870108695652,0.2171731630434782,47.59978355,,-0.061,-0.042,2683.79,2690.11,-122.83741389,124.70727081,0.0,0.0,80.8,28.7,37.0,0.842,100,True
,38,3800.0,2025-09-28 21:07:43.443000+00:00,2025-09-28 14:07:43.443,00:00:07.8,76063443,0.0,0.0,0.0,0.0,0.0,0.0,0.0,0.0,0.0,0.0,1.0,0.0,0.0,0.0,0.0,-0.001,0.0,0.0,0.0,0.0,0.0607154022727272,0.3293920795454546,-3.0596885227272725,-0.3186635909090909,-0.068406959090909,0.9375624545454544,-0.1479726363636363,-0.0403661920454545,0.0858098875,47.59978355,,-0.061,-0.042,2683.79,2690.11,-122.83741389,124.70727081,0.0,0.0,80.8,28.7,37.0,0.842,100,True
,39,3900.0,2025-09-28 21:07:43.543000+00:00,2025-09-28 14:07:43.543,00:00:07.9,76063543,0.0,0.0,0.0,0.0,0.0,0.0,0.0,0.0,0.0,0.0,1.0,0.0,0.0,0.0,0.0,-0.001,0.0,0.0,0.0,0.0,0.0608908948905109,0.3292350875912408,-3.059831094890511,-0.319659102189781,-0.065121902919708,0.9377691167883212,0.0738564890510949,-0.0498272598540146,0.1139487255474452,47.59978355,,-0.061,-0.042,2683.79,2690.11,-122.83741389,124.70727081,0.0,0.0,80.8,28.7,37.0,0.842,100,True
,40,4000.0,2025-09-28 21:07:43.643000+00:00,2025-09-28 14:07:43.643,00:00:08.0,76063643,0.0,0.0,0.0,0.0,0.0,0.0,0.0,0.0,0.0,0.0,1.0,0.0,0.0,0.0,0.0,-0.001,0.0,0.0,0.0,0.0,0.0606587448275862,0.3290687931034483,-3.060142068965517,-0.3224912068965517,-0.0585927,0.9379877586206896,0.2632617586206897,0.0143836413793103,0.1900991034482758,47.59978355,,-0.0614827586206896,-0.042,2683.79,2690.11,-122.83741389,124.70727081,0.0,0.0,80.8,28.7,37.0,0.842,100,True
,41,4100.0,2025-09-28 21:07:43.743000+00:00,2025-09-28 14:07:43.743,00:00:08.1,76063743,0.0,0.0,0.0,0.0,0.0,0.0,0.0,0.0,0.0,0.0,1.0,0.0,0.0,0.0,0.0,-0.001,0.0,0.0,0.0,0.0,0.0600752033707865,0.3289990449438202,-3.0606148314606743,-0.3209233146067415,-0.0579043516853932,0.93822297752809,0.3062747865168539,0.0513663887640449,0.2657213370786516,47.59978355,,-0.0613820224719101,-0.042,2683.79,2690.11,-122.83741389,124.70727081,0.0,0.0,80.8,28.7,37.0,0.842,100,True
,42,4200.0,2025-09-28 21:07:43.843000+00:00,2025-09-28 14:07:43.843,00:00:08.2,76063843,0.0,0.0,0.0,0.0,0.0,0.0,0.0,0.0,0.0,0.0,1.0,0.0,0.0,0.0,0.0,-0.001,0.0,0.0,0.0,0.0,0.0595135760869565,0.3291195869565217,-3.061032608695652,-0.3197519347826087,-0.0580142673913043,0.9384274130434784,0.0953446217391304,0.100497652173913,0.1593324130434782,47.59978355,,-0.0602826086956521,-0.042,2683.79,2690.11,-122.83741389,124.62366309326087,0.0,0.0,80.8,28.7,37.0,0.842,100,True
,43,4300.0,2025-09-28 21:07:43.943000+00:00,2025-09-28 14:07:43.943,00:00:08.3,76063943,0.0,0.0,0.0,0.0,0.0,0.0,0.0,0.0,0.0,0.0,1.0,0.0,0.0,0.0,0.0,-0.001,0.0,0.0,0.0,0.0,0.0594654967032967,0.3293031208791209,-3.061278241758242,-0.3174362857142857,-0.0510132175824175,0.9385633846153846,-0.1587853912087911,0.2337375274725275,0.1206863076923076,47.59978355,,-0.0608131868131868,-0.0411868131868131,2683.79,2690.11,-122.83741389,124.59072672,0.0,0.0,80.8,28.7,37.0,0.842,100,True
,44,4400.0,2025-09-28 21:07:44.043000+00:00,2025-09-28 14:07:44.043,00:00:08.4,76064043,0.0,0.0,0.0,0.0,0.0,0.0,0.0,0.0,0.0,0.0,1.0,0.0,0.0,0.0,0.0,-0.001,0.0,0.0,0.0,0.0,0.0596879608695652,0.3295561304347826,-3.061436304347826,-0.3201197173913043,-0.0535631554347826,0.9386073586956524,-0.1404751086956521,0.006629479347826,0.0580062576086956,47.59978355,,-0.0600978260869565,-0.0419021739130434,2683.79,2690.11,-122.83741389,124.59072672,0.0,0.0,80.8,28.7,37.0,0.842,100,True
,45,4500.0,2025-09-28 21:07:44.143000+00:00,2025-09-28 14:07:44.143,00:00:08.5,76064143,0.0,0.0,0.0,0.0,0.0,0.0,0.0,0.0,0.0,0.0,1.0,0.0,0.0,0.0,0.0,-0.001,0.0,0.0,0.0,0.0,0.0600955539325842,0.3295516853932584,-3.0615562921348314,-0.3248721123595505,-0.0588777325842696,0.9383993033707864,-0.2606299730337079,-0.004928713483146,0.0681088707865168,47.59978355,,-0.061,-0.0429550561797752,2683.79,2690.11,-122.83741389,124.59072672,0.0,0.0,80.8,28.7,37.0,0.842,100,True
,46,4600.0,2025-09-28 21:07:44.243000+00:00,2025-09-28 14:07:44.243,00:00:08.6,76064243,0.0,0.0,0.0,0.0,0.0,0.0,0.0,0.0,0.0,0.0,1.0,0.0,0.0,0.0,0.0,-0.001,0.0,0.0,0.0,0.0,0.0603940870967741,0.3295685483870967,-3.0617351612903225,-0.3220418387096774,-0.0589535580645161,0.9383373225806452,-0.0172799806451612,0.2513340967741935,0.1670294193548387,47.59978355,,-0.061,-0.042,2683.79,2690.11,-122.83741389,124.59072672,0.0,0.0,80.8,28.7,37.0,0.842,100,True
,47,4700.0,2025-09-28 21:07:44.343000+00:00,2025-09-28 14:07:44.343,00:00:08.7,76064343,0.0,0.0,0.0,0.0,0.0,0.0,0.0,0.0,0.0,0.0,1.0,0.0,0.0,0.0,0.0,-0.001,0.0,0.0,0.0,0.0,0.0602064985185185,0.3296760074074074,-3.062009111111111,-0.3235757407407407,-0.0612559666666666,0.9382851333333332,-0.1266925777777777,-0.1027312666666666,0.1556701185185185,47.59978355,,-0.061,-0.042,2683.79,2690.11,-122.83741389,124.59072672,0.0,0.0,80.8,28.7,37.0,0.842,100,True
,48,4800.0,2025-09-28 21:07:44.443000+00:00,2025-09-28 14:07:44.443,00:00:08.8,76064443,0.0,0.0,0.0,0.0,0.0,0.0,0.0,0.0,0.0,0.0,1.0,0.0,0.0,0.0,0.0,-0.001,0.0,0.0,0.0,0.0,0.0601601281481481,0.3296078592592592,-3.062186888888889,-0.3221609259259259,-0.0604526333333333,0.9381584666666668,0.1968229777777778,0.1578220666666667,0.2807797481481481,47.59978355,,-0.061,-0.042,2683.79,2690.11,-122.83741389,124.59072672,0.0,0.0,80.8,28.7,37.0,0.842,100,True
,49,4900.0,2025-09-28 21:07:44.543000+00:00,2025-09-28 14:07:44.543,00:00:08.9,76064543,0.0,0.0,0.0,0.0,0.0,0.0,0.0,0.0,0.0,0.0,1.0,0.0,0.0,0.0,0.0,-0.001,0.0,0.0,0.0,0.0,0.0596298516853932,0.3296459213483146,-3.062698764044944,-0.3167413595505617,-0.0540390382022471,0.9379895056179776,0.0905892820224719,0.121998202247191,0.173381808988764,47.59978355,,-0.061,-0.042,2683.79,2690.11,-122.83741389,124.59072672,0.0,0.0,80.8,28.7,37.0,0.8429775280898876,100,True
,50,5000.0,2025-09-28 21:07:44.643000+00:00,2025-09-28 14:07:44.643,00:00:09.0,76064643,0.0,0.0,0.0,0.0,0.0,0.0,0.0,0.0,0.0,0.0,1.0,0.0,0.0,0.0,0.0,-0.001,0.0,0.0,0.0,0.0,0.059643543283582,0.3298598208955224,-3.0628489552238807,-0.3227525820895522,-0.0615185462686567,0.9380693731343284,-0.0237644029850746,0.068252247761194,0.0780196865671641,47.59978355,,-0.0602686567164179,-0.042,2683.79,2690.11,-122.83741389,124.59072672,0.0,0.0,80.8,28.7,37.0,0.843,100,True
,51,5100.0,2025-09-28 21:07:44.743000+00:00,2025-09-28 14:07:44.743,00:00:09.1,76064743,0.0,0.0,0.0,0.0,0.0,0.0,0.0,0.0,0.0,0.0,1.0,0.0,0.0,0.0,0.0,-0.001,0.0,0.0,0.0,0.0,0.0599978808988764,0.3301896853932584,-3.063043820224719,-0.325796011235955,-0.0587150853932584,0.9381244494382024,-0.164808606741573,0.0995219213483146,0.0523160382022471,47.59978355,,-0.0607191011235955,-0.042,2683.79,2690.11,-122.83741389,124.59072672,0.0,0.0,80.8,28.7,37.0,0.843,100,True
,52,5200.0,2025-09-28 21:07:44.843000+00:00,2025-09-28 14:07:44.843,00:00:09.2,76064843,0.0,0.0,0.0,0.0,0.0,0.0,0.0,0.0,0.0,0.0,1.0,0.0,0.0,0.0,0.0,-0.001,0.0,0.0,0.0,0.0,0.0603598340425531,0.3303454468085106,-3.0632117021276595,-0.3198377127659574,-0.0559981872340425,0.9380127234042552,-0.0878279893617021,0.007992164893617,0.102567344680851,47.59978355,,-0.061,-0.042,2683.79,2690.11,-122.83741389,124.49752414021276,0.0,0.0,80.8,28.7,37.0,0.843,100,True
,53,5300.0,2025-09-28 21:07:44.943000+00:00,2025-09-28 14:07:44.943,00:00:09.3,76064943,0.0,0.0,0.0,0.0,0.0,0.0,0.0,0.0,0.0,0.0,1.0,0.0,0.0,0.0,0.0,-0.001,0.0,0.0,0.0,0.0,0.0604108247058823,0.3304972235294118,-3.0635354117647062,-0.3234349529411764,-0.0634194176470588,0.937823811764706,0.0138786929411764,0.1805425152941176,0.1730476705882353,47.59978355,,-0.061,-0.042,2683.79,2690.11,-122.83741389,124.47391282,0.0,0.0,80.8,28.7,37.0,0.843,100,True
,54,5400.0,2025-09-28 21:07:45.043000+00:00,2025-09-28 14:07:45.043,00:00:09.4,76065043,0.0,0.0,0.0,0.0,0.0,0.0,0.0,0.0,0.0,0.0,1.0,0.0,0.0,0.0,0.0,-0.001,0.0,0.0,0.0,0.0,0.0604086288888888,0.3305078222222222,-3.063561555555556,-0.3234559777777778,-0.0634651666666666,0.9378097777777776,0.0205473088888888,0.1842303111111111,0.1757317777777778,47.59978355,,-0.061,-0.042,2683.79,2690.11,-122.83741389,124.47391282,0.0,0.0,80.8,28.7,37.0,0.843,100,True
,55,5500.0,2025-09-28 21:07:45.143000+00:00,2025-09-28 14:07:45.143,00:00:09.5,76065143,0.0,0.0,0.0,0.0,0.0,0.0,0.0,0.0,0.0,0.0,1.0,0.0,0.0,0.0,0.0,-0.001,0.0,0.0,0.0,0.0,0.0603085932584269,0.3305903146067415,-3.06386191011236,-0.3192952247191011,-0.0567487292134831,0.9376470561797752,0.133943713483146,0.0286755741573033,0.2005367078651685,47.59978355,,-0.061,-0.042,2683.79,2690.11,-122.83741389,124.47391282,0.0,0.0,80.8,28.7,37.0,0.843,100,True
,56,5600.0,2025-09-28 21:07:45.243000+00:00,2025-09-28 14:07:45.243,00:00:09.6,76065243,0.0,0.0,0.0,0.0,0.0,0.0,0.0,0.0,0.0,0.0,1.0,0.0,0.0,0.0,0.0,-0.001,0.0,0.0,0.0,0.0,0.0598813318681318,0.3305741428571428,-3.064230659340659,-0.3222497252747253,-0.0580428967032967,0.937457934065934,0.2819532637362637,-0.0499413087912088,0.2887878901098901,47.59978355,,-0.061,-0.042,2683.79,2690.11,-122.83741389,124.47391282,0.0,0.0,80.8,28.7,37.0,0.843,100,True
,57,5700.0,2025-09-28 21:07:45.343000+00:00,2025-09-28 14:07:45.343,00:00:09.7,76065343,0.0,0.0,0.0,0.0,0.0,0.0,0.0,0.0,0.0,0.0,1.0,0.0,0.0,0.0,0.0,-0.001,0.0,0.0,0.0,0.0,0.0595601573033707,0.3305369325842697,-3.064573146067416,-0.3179100561797753,-0.0571368651685393,0.9373473707865168,0.0160045123595505,0.0235535629213483,0.1611932359550562,47.59978355,,-0.061,-0.0416179775280898,2683.79,2690.11,-122.83741389,124.47391282,0.0,0.0,80.8,28.7,37.0,0.843,100,True
,58,5800.0,2025-09-28 21:07:45.443000+00:00,2025-09-28 14:07:45.443,00:00:09.8,76065443,0.0,0.0,0.0,0.0,0.0,0.0,0.0,0.0,0.0,0.0,1.0,0.0,0.0,0.0,0.0,-0.001,0.0,0.0,0.0,0.0,0.0593977244897959,0.3305571326530612,-3.0649007142857143,-0.3202944387755101,-0.0561269234693877,0.9372749693877552,0.055585787755102,0.0132918591836734,0.2446793979591836,47.59978355,,-0.061,-0.0414591836734693,2683.79,2690.11,-122.83741389,124.47391282,0.0,0.0,80.8,28.7,37.0,0.843,100,True
,59,5900.0,2025-09-28 21:07:45.543000+00:00,2025-09-28 14:07:45.543,00:00:09.9,76065543,0.0,0.0,0.0,0.0,0.0,0.0,0.0,0.0,0.0,0.0,1.0,0.0,0.0,0.0,0.0,-0.001,0.0,0.0,0.0,0.0,0.0592379380434782,0.3305017173913043,-3.0652126086956524,-0.3193275978260869,-0.0569974673913043,0.9371947717391304,0.0514231945652173,0.0504160163043478,0.172864652173913,47.59978355,,-0.061,-0.0414891304347826,2683.79,2690.11,-122.83741389,124.47391282,0.0,0.0,80.8,28.7,37.0,0.843,100,True
,60,6000.0,2025-09-28 21:07:45.643000+00:00,2025-09-28 14:07:45.643,00:00:10.0,76065643,0.0,0.0,0.0,0.0,0.0,0.0,0.0,0.0,0.0,0.0,1.0,0.0,0.0,0.0,0.0,-0.001,0.0,0.0,0.0,0.0,0.059238887804878,0.3304272317073171,-3.065477560975609,-0.321111756097561,-0.0603835304878048,0.9372076097560976,-0.0354412634146341,0.049790487804878,0.1117475365853658,47.59978355,,-0.061,-0.041670731707317,2683.79,2690.11,-122.83741389,124.47391282,0.0,0.0,80.8,28.7,37.0,0.843,100,True
,61,6100.0,2025-09-28 21:07:45.743000+00:00,2025-09-28 14:07:45.743,00:00:10.1,76065743,0.0,0.0,0.0,0.0,0.0,0.0,0.0,0.0,0.0,0.0,1.0,0.0,0.0,0.0,0.0,-0.001,0.0,0.0,0.0,0.0,0.0593821180451127,0.3303520375939849,-3.06565977443609,-0.3193492857142857,-0.0592160842105263,0.9372261578947368,-0.2114977293233083,-0.0268895609022556,0.1279788872180451,47.59978355,,-0.061,-0.042,2683.79,2690.11,-122.83741389,124.42231068977443,0.0,0.0,80.8,28.7,37.0,0.843,100,True
,62,6200.0,2025-09-28 21:07:45.843000+00:00,2025-09-28 14:07:45.843,00:00:10.2,76065843,0.0,0.0,0.0,0.0,0.0,0.0,0.0,0.0,0.0,0.0,1.0,0.0,0.0,0.0,0.0,-0.001,0.0,0.0,0.0,0.0,0.0597312711340206,0.3302586494845361,-3.065770618556701,-0.3201335567010309,-0.0585249360824742,0.9372514536082476,-0.2848648453608247,-0.1483001896907216,0.0777015670103092,47.59978355,,-0.061,-0.042,2683.79,2690.11,-122.83741389,124.37989798,0.0,0.0,80.8,28.7,37.0,0.843,100,True
,63,6300.0,2025-09-28 21:07:45.943000+00:00,2025-09-28 14:07:45.943,00:00:10.3,76065943,0.0,0.0,0.0,0.0,0.0,0.0,0.0,0.0,0.0,0.0,1.0,0.0,0.0,0.0,0.0,-0.001,0.0,0.0,0.0,0.0,0.0600663939759036,0.329843421686747,-3.066038313253012,-0.3238975542168675,-0.0614535301204819,0.937206,-0.0104535180722891,-0.1931567831325301,0.189933734939759,47.59978355,,-0.061,-0.042,2683.79,2690.11,-122.83741389,124.37989798,0.0,0.0,80.8,28.7,37.0,0.843,100,True
,64,6400.0,2025-09-28 21:07:46.043000+00:00,2025-09-28 14:07:46.043,00:00:10.4,76066043,0.0,0.0,0.0,0.0,0.0,0.0,0.0,0.0,0.0,0.0,1.0,0.0,0.0,0.0,0.0,-0.001,0.0,0.0,0.0,0.0,0.0599054567010309,0.3294838762886598,-3.066445567010309,-0.3208957010309278,-0.0629894742268041,0.9372540412371134,0.2108305360824742,-0.1151359690721649,0.2859827216494845,47.59978355,,-0.060381443298969,-0.042,2683.79,2690.11,-122.83741389,124.37989798,0.0,0.0,80.8,28.7,37.0,0.843,100,True
,65,6500.0,2025-09-28 21:07:46.143000+00:00,2025-09-28 14:07:46.143,00:00:10.5,76066143,0.0,0.0,0.0,0.0,0.0,0.0,0.0,0.0,0.0,0.0,1.0,0.0,0.0,0.0,0.0,-0.001,0.0,0.0,0.0,0.0,0.059587275,0.32942775,-3.06683,-0.323152,-0.0617129,0.93740575,0.01438915,-0.142384675,0.1444785,47.59978355,,-0.06075,-0.042,2683.79,2690.11,-122.83741389,124.37989798,0.0,0.0,80.8,28.7,37.0,0.843,100,True
,66,6600.0,2025-09-28 21:07:46.243000+00:00,2025-09-28 14:07:46.243,00:00:10.6,76066243,0.0,0.0,0.0,0.0,0.0,0.0,0.0,0.0,0.0,0.0,1.0,0.0,0.0,0.0,0.0,-0.001,0.0,0.0,0.0,0.0,0.0595107,0.329414,-3.06692,-0.324135,-0.0613473,0.93743,-0.0584018,-0.160178,0.115911,47.59978355,,-0.061,-0.042,2683.79,2690.11,-122.83741389,124.37989798,0.0,0.0,80.8,28.7,37.0,0.843,100,True
,67,6700.0,2025-09-28 21:07:46.343000+00:00,2025-09-28 14:07:46.343,00:00:10.7,76066343,0.0,0.0,0.0,0.0,0.0,0.0,0.0,0.0,0.0,0.0,1.0,0.0,0.0,0.0,0.0,-0.001,0.0,0.0,0.0,0.0,0.0594312393258427,0.3292516404494381,-3.067225617977528,-0.3213491011235955,-0.0641459966292134,0.9375293258426968,-0.0584018,-0.0933275056179775,0.1152262247191011,47.59978355,,-0.061,-0.042,2683.79,2690.11,-122.83741389,124.37989798,0.0,0.0,80.8,28.7,37.0,0.843,100,True
,68,6800.0,2025-09-28 21:07:46.443000+00:00,2025-09-28 14:07:46.443,00:00:10.8,76066443,0.0,0.0,0.0,0.0,0.0,0.0,0.0,0.0,0.0,0.0,1.0,0.0,0.0,0.0,0.0,-0.001,0.0,0.0,0.0,0.0,0.0593925111111111,0.3290585555555555,-3.0675222222222223,-0.3200901111111111,-0.0566189777777777,0.9376144444444444,0.0149997266666666,-0.2696065777777778,0.0637422222222222,47.59978355,,-0.061,-0.0428888888888888,2683.79,2690.11,-122.83741389,124.37989798,0.0,0.0,80.8,28.7,37.0,0.843,100,True
,69,6900.0,2025-09-28 21:07:46.543000+00:00,2025-09-28 14:07:46.543,00:00:10.9,76066543,0.0,0.0,0.0,0.0,0.0,0.0,0.0,0.0,0.0,0.0,1.0,0.0,0.0,0.0,0.0,-0.001,0.0,0.0,0.0,0.0,0.0594081955056179,0.3290363483146067,-3.067762921348314,-0.3190801685393258,-0.0611840808988764,0.9378231235955056,0.1089681898876404,-0.0188972674157303,0.2403251685393258,47.59978355,,-0.0607752808988764,-0.0417752808988764,2683.79,2690.11,-122.83741389,124.37989798,0.0,0.0,80.8,28.7,37.0,0.843,100,True
,70,7000.0,2025-09-28 21:07:46.643000+00:00,2025-09-28 14:07:46.643,00:00:11.0,76066643,0.0,0.0,0.0,0.0,0.0,0.0,0.0,0.0,0.0,0.0,1.0,0.0,0.0,0.0,0.0,-0.001,0.0,0.0,0.0,0.0,0.0593133979797979,0.3289901616161616,-3.068061414141414,-0.3163907474747475,-0.0535057161616161,0.9379482929292928,0.0936927696969697,-0.0193339262626262,0.1976605454545454,47.59978355,,-0.0603131313131313,-0.0413131313131313,2683.79,2690.11,-122.83741389,124.37989798,0.0,0.0,80.8,28.7,37.0,0.843,100,True
,71,7100.0,2025-09-28 21:07:46.743000+00:00,2025-09-28 14:07:46.743,00:00:11.1,76066743,0.0,0.0,0.0,0.0,0.0,0.0,0.0,0.0,0.0,0.0,1.0,0.0,0.0,0.0,0.0,-0.001,0.0,0.0,0.0,0.0,0.0593090548148148,0.3290013185185185,-3.068285037037037,-0.3192895703703703,-0.0476145296296296,0.9380563629629628,-0.1619268251851851,-0.0537871251851851,0.0739333362962963,47.59978355,,-0.061,-0.042,2683.79,2690.11,-122.83741389,124.35097511896296,0.0,0.0,80.8,28.7,37.0,0.843,100,True
,72,7200.0,2025-09-28 21:07:46.843000+00:00,2025-09-28 14:07:46.843,00:00:11.2,76066843,0.0,0.0,0.0,0.0,0.0,0.0,0.0,0.0,0.0,0.0,1.0,0.0,0.0,0.0,0.0,-0.001,0.0,0.0,0.0,0.0,0.0595573511111111,0.3289116888888889,-3.068425777777778,-0.3232569777777778,-0.0552871222222222,0.938035622222222,-0.4854425288888889,-0.1587928288888889,-0.0527687377777777,47.59978355,,-0.061,-0.042,2683.79,2690.11,-122.83741389,124.26059117822224,0.0,0.0,80.8,28.7,37.0,0.843,100,True
,73,7300.0,2025-09-28 21:07:46.943000+00:00,2025-09-28 14:07:46.943,00:00:11.3,76066943,0.0,0.0,0.0,0.0,0.0,0.0,0.0,0.0,0.0,0.0,1.0,0.0,0.0,0.0,0.0,-0.001,0.0,0.0,0.0,0.0,0.060354002,0.3289367,-3.0684898,-0.3193283999999999,-0.072524338,0.93815078,0.063154126,0.122436,0.23306046,47.59978355,,-0.06014,-0.042,2683.79,2690.11,-122.83741389,124.25787966,0.0,0.0,80.8,28.7,37.0,0.843,100,True
,74,7400.0,2025-09-28 21:07:47.043000+00:00,2025-09-28 14:07:47.043,00:00:11.4,76067043,0.0,0.0,0.0,0.0,0.0,0.0,0.0,0.0,0.0,0.0,1.0,0.0,0.0,0.0,0.0,-0.001,0.0,0.0,0.0,0.0,0.0598791966292134,0.3293772696629213,-3.069001235955056,-0.3191664606741573,-0.0521052235955056,0.9383062022471912,-0.1379885056179775,-0.3103338202247191,0.2002303483146067,47.59978355,,-0.061,-0.042,2683.79,2690.11,-122.83741389,124.25787966,0.0,0.0,80.8,28.7,37.0,0.843,100,True
,75,7500.0,2025-09-28 21:07:47.143000+00:00,2025-09-28 14:07:47.143,00:00:11.5,76067143,0.0,0.0,0.0,0.0,0.0,0.0,0.0,0.0,0.0,0.0,1.0,0.0,0.0,0.0,0.0,-0.001,0.0,0.0,0.0,0.0,0.0600856011235955,0.3291149101123595,-3.0691529213483144,-0.3219411797752808,-0.0565903921348314,0.9380219325842696,-0.2520778314606741,-0.3884753932584269,0.2505185505617977,47.59978355,,-0.061,-0.042,2683.79,2690.11,-122.83741389,124.25787966,0.0,0.0,80.8,28.7,37.0,0.843,100,True
,76,7600.0,2025-09-28 21:07:47.243000+00:00,2025-09-28 14:07:47.243,00:00:11.6,76067243,0.0,0.0,0.0,0.0,0.0,0.0,0.0,0.0,0.0,0.0,1.0,0.0,0.0,0.0,0.0,-0.001,0.0,0.0,0.0,0.0,0.0603885763358778,0.329189106870229,-3.069260992366412,-0.3215509541984732,-0.0671515442748091,0.9380763358778624,-0.0467251374045801,0.4857593129770992,0.3646892900763359,47.59978355,,-0.0607251908396946,-0.042,2683.79,2690.11,-122.83741389,124.25787966,0.0,0.0,80.8,28.7,37.0,0.843,100,True
,77,7700.0,2025-09-28 21:07:47.343000+00:00,2025-09-28 14:07:47.343,00:00:11.7,76067343,0.0,0.0,0.0,0.0,0.0,0.0,0.0,0.0,0.0,0.0,1.0,0.0,0.0,0.0,0.0,-0.001,0.0,0.0,0.0,0.0,0.0608801833333333,0.3299215555555556,-3.0693105555555555,-0.3157895555555555,-0.0881441166666666,0.9386057777777778,0.6447035166666666,2.496504444444444,0.5384591666666666,47.59978355,,-0.0600555555555555,-0.0420555555555555,2683.79,2690.11,-122.83741389,124.25787966,0.0,0.0,80.8,28.7,37.0,0.843,100,True
,78,7800.0,2025-09-28 21:07:47.443000+00:00,2025-09-28 14:07:47.443,00:00:11.8,76067443,0.0,0.0,0.0,0.0,0.0,0.0,0.0,0.0,0.0,0.0,1.0,0.0,0.0,0.0,0.0,-0.001,0.0,0.0,0.0,0.0,0.0618460315789473,0.3310619999999999,-3.069614210526316,-0.315707947368421,-0.0957819578947368,0.936758,-0.2182168526315789,-4.230442105263158,-0.1464845105263157,47.59978355,,-0.061,-0.043,2683.79,2690.11,-122.83741389,124.25787966,0.0,0.0,80.8,28.7,37.0,0.843,100,True
,79,7900.0,2025-09-28 21:07:47.543000+00:00,2025-09-28 14:07:47.543,00:00:11.9,76067543,0.0,0.0,0.0,0.0,0.0,0.0,0.0,0.0,0.0,0.0,1.0,0.0,0.0,0.0,0.0,-0.001,0.0,0.0,0.0,0.0,0.0636330696969697,0.3284388181818182,-3.069318484848485,-0.3187752727272727,-0.0765380666666666,0.9354420606060606,-0.7874949696969696,-1.1425995454545457,0.0919788121212121,47.59978355,,-0.0611515151515151,-0.0428484848484848,2683.79,2690.11,-122.83741389,124.25787966,0.0,0.0,80.8,28.7,37.0,0.843,100,True
,80,8000.0,2025-09-28 21:07:47.643000+00:00,2025-09-28 14:07:47.643,00:00:12.0,76067643,0.0,0.0,0.0,0.0,0.0,0.0,0.0,0.0,0.0,0.0,1.0,0.0,0.0,0.0,0.0,-0.001,0.0,0.0,0.0,0.0,0.0652554181818181,0.3273229090909091,-3.069060909090909,-0.3156866363636363,-0.0929864,0.9354223636363636,-0.1878548181818181,-0.4515972727272727,0.2452423727272727,47.59978355,,-0.0619090909090909,-0.042090909090909,2683.79,2690.11,-122.83741389,124.25787966,0.0,0.0,80.8,28.7,37.0,0.843,100,True
,81,8100.0,2025-09-28 21:07:47.743000+00:00,2025-09-28 14:07:47.743,00:00:12.1,76067743,0.0,0.0,0.0,0.0,0.0,0.0,0.0,0.0,0.0,0.0,1.0,0.0,0.0,0.0,0.0,-0.001,0.0,0.0,0.0,0.0,0.0656778617021276,0.327074744680851,-3.069385319148936,-0.3222836808510638,-0.0595066074468085,0.9364999148936172,-0.4706531914893617,-0.3429183510638297,0.0881638957446808,47.59978355,,-0.061,-0.042,2683.79,2690.11,-122.83741389,124.25760935882978,0.0,0.0,80.8,28.7,37.0,0.843,100,True
,82,8200.0,2025-09-28 21:07:47.843000+00:00,2025-09-28 14:07:47.843,00:00:12.2,76067843,0.0,0.0,0.0,0.0,0.0,0.0,0.0,0.0,0.0,0.0,1.0,0.0,0.0,0.0,0.0,-0.001,0.0,0.0,0.0,0.0,0.0661196186046511,0.331410976744186,-3.0698588372093023,-0.3267915465116279,-0.0463128906976744,0.9405202325581395,0.8432710581395348,1.6873402325581397,0.4092932325581395,47.59978355,,-0.0609186046511627,-0.042,2683.79,2690.11,-122.83741389,124.23247135,0.0,0.0,80.8,28.7,37.0,0.843,100,True
,83,8300.0,2025-09-28 21:07:47.943000+00:00,2025-09-28 14:07:47.943,00:00:12.3,76067943,0.0,0.0,0.0,0.0,0.0,0.0,0.0,0.0,0.0,0.0,1.0,0.0,0.0,0.0,0.0,-0.001,0.0,0.0,0.0,0.0,0.0663182723404255,0.3297705319148936,-3.069796489361702,-0.3012307446808511,-0.195895159574468,0.9384675,1.9769962872340423,-3.371851576595745,0.4366909893617021,47.59978355,,-0.0602234042553191,-0.042,2683.79,2690.11,-122.83741389,124.23247135,0.0,0.0,80.8,28.7,37.0,0.843,100,True
,84,8400.0,2025-09-28 21:07:48.043000+00:00,2025-09-28 14:07:48.043,00:00:12.4,76068043,0.0,0.0,0.0,0.0,0.0,0.0,0.0,0.0,0.0,0.0,1.0,0.0,0.0,0.0,0.0,-0.001,0.0,0.0,0.0,0.0,0.0653812253012048,0.3282901807228915,-3.070416506024096,-0.3186137951807229,-0.0562064867469879,0.9377386626506024,-0.7735086506024097,0.1570762265060241,-0.5307066265060241,47.59978355,,-0.061,-0.042,2683.79,2690.11,-122.83741389,124.23247135,0.0,0.0,80.8,28.7,37.0,0.843,100,True
,85,8500.0,2025-09-28 21:07:48.143000+00:00,2025-09-28 14:07:48.143,00:00:12.5,76068143,0.0,0.0,0.0,0.0,0.0,0.0,0.0,0.0,0.0,0.0,1.0,0.0,0.0,0.0,0.0,-0.001,0.0,0.0,0.0,0.0,0.0658554337931034,0.3286719103448276,-3.0704633793103446,-0.3238114137931034,-0.0646172248275862,0.9383732620689657,-0.4195792965517241,0.4606136413793104,-0.1737687365517241,47.59978355,,-0.061,-0.042,2683.79,2690.11,-122.83741389,124.23247135,0.0,0.0,80.8,28.7,37.0,0.843,100,True
,86,8600.0,2025-09-28 21:07:48.243000+00:00,2025-09-28 14:07:48.243,00:00:12.6,76068243,0.0,0.0,0.0,0.0,0.0,0.0,0.0,0.0,0.0,0.0,1.0,0.0,0.0,0.0,0.0,-0.001,0.0,0.0,0.0,0.0,0.0662061924137931,0.3288739793103448,-3.07053924137931,-0.3199941724137931,-0.0730581903448275,0.938605675862069,-0.2061186068965517,0.6077219172413793,0.0483159531034482,47.59978355,,-0.061,-0.042,2683.79,2690.11,-122.83741389,124.23247135,0.0,0.0,80.8,28.7,37.0,0.843,100,True
,87,8700.0,2025-09-28 21:07:48.343000+00:00,2025-09-28 14:07:48.343,00:00:12.7,76068343,0.0,0.0,0.0,0.0,0.0,0.0,0.0,0.0,0.0,0.0,1.0,0.0,0.0,0.0,0.0,-0.001,0.0,0.0,0.0,0.0,0.0668143185483871,0.3295003387096774,-3.0707475806451616,-0.3218960806451613,-0.0684657282258064,0.9387732661290322,-0.2450043306451613,0.2197637258064516,0.2264360080645161,47.59978355,,-0.061,-0.042,2683.79,2690.11,-122.83741389,124.23247135,0.0,0.0,80.8,28.7,37.0,0.843,100,True
,88,8800.0,2025-09-28 21:07:48.443000+00:00,2025-09-28 14:07:48.443,00:00:12.8,76068443,0.0,0.0,0.0,0.0,0.0,0.0,0.0,0.0,0.0,0.0,1.0,0.0,0.0,0.0,0.0,-0.001,0.0,0.0,0.0,0.0,0.0669904677419354,0.3295394516129032,-3.071009677419355,-0.3181150322580645,-0.0632198612903225,0.9384416129032258,0.0820507096774193,-0.1046745806451612,0.2435646774193548,47.59978355,,-0.061,-0.042,2683.79,2690.11,-122.83741389,124.23247135,0.0,0.0,80.8,28.7,37.0,0.843,100,True
,89,8900.0,2025-09-28 21:07:48.543000+00:00,2025-09-28 14:07:48.543,00:00:12.9,76068543,0.0,0.0,0.0,0.0,0.0,0.0,0.0,0.0,0.0,0.0,1.0,0.0,0.0,0.0,0.0,-0.001,0.0,0.0,0.0,0.0,0.0669685340425532,0.329443829787234,-3.071278085106383,-0.3182877234042553,-0.0622344425531914,0.9381365319148935,0.0915263489361702,0.0230529744680851,0.1188233404255319,47.59978355,,-0.061,-0.042,2683.79,2690.11,-122.83741389,124.23247135,0.0,0.0,80.8,28.7,37.0,0.843,100,True
,90,9000.0,2025-09-28 21:07:48.643000+00:00,2025-09-28 14:07:48.643,00:00:13.0,76068643,0.0,0.0,0.0,0.0,0.0,0.0,0.0,0.0,0.0,0.0,1.0,0.0,0.0,0.0,0.0,-0.001,0.0,0.0,0.0,0.0,0.0664694511111111,0.3299590666666667,-3.0717206666666668,-0.3209983777777778,-0.0643255422222222,0.9381441111111112,0.4399211199999999,0.1199139066666666,0.2754550888888888,47.59978355,,-0.061,-0.042,2683.79,2690.11,-122.83741389,124.23247135,0.0,0.0,80.8,28.7,37.0,0.843,100,True
,91,9100.0,2025-09-28 21:07:48.743000+00:00,2025-09-28 14:07:48.743,00:00:13.1,76068743,0.0,0.0,0.0,0.0,0.0,0.0,0.0,0.0,0.0,0.0,1.0,0.0,0.0,0.0,0.0,-0.001,0.0,0.0,0.0,0.0,0.0664582,0.329971,-3.07173,-0.321056,-0.0643731,0.938145,0.448077,0.12151,0.279408,47.59978355,,-0.061,-0.0412686567164179,2683.79,2690.11,-122.83741389,124.23247135,0.0,0.0,80.8,28.7,37.0,0.843731343283582,100,True
,92,9200.0,2025-09-28 21:07:48.843000+00:00,2025-09-28 14:07:48.843,00:00:13.2,76068843,0.0,0.0,0.0,0.0,0.0,0.0,0.0,0.0,0.0,0.0,1.0,0.0,0.0,0.0,0.0,-0.001,0.0,0.0,0.0,0.0,0.0653504729411764,0.3294559882352941,-3.0721365882352942,-0.3219678117647059,-0.0633341917647058,0.9374590705882352,0.9298260823529412,-0.7210891529411764,0.3515864470588235,47.59978355,,-0.061,-0.0417529411764705,2683.79,2690.11,-122.83741389,124.2459807335294,0.0,0.0,80.8,28.7,37.0,0.844,100,True
,93,9300.0,2025-09-28 21:07:48.943000+00:00,2025-09-28 14:07:48.943,00:00:13.3,76068943,0.0,0.0,0.0,0.0,0.0,0.0,0.0,0.0,0.0,0.0,1.0,0.0,0.0,0.0,0.0,-0.001,0.0,0.0,0.0,0.0,0.0636608925531914,0.3288785531914893,-3.0728667021276594,-0.3215644042553192,-0.0690149489361702,0.9373987234042552,-0.4820947340425532,-0.060369829787234,-0.028104,47.59978355,,-0.061,-0.042,2683.79,2690.11,-122.83741389,124.2504135,0.0,0.0,80.8,28.7,37.0,0.844,100,True
ride_34,94,9400.0,2025-09-28 21:07:49.043000+00:00,2025-09-28 14:07:49.043,00:00:13.4,76069043,0.0,0.0,0.0,0.0,0.0,0.0,0.0,0.0,0.0,0.0,1.0,0.0,0.0,0.0,0.0,-0.001,0.0,0.0,0.0,0.0,0.0649126,0.329051,-3.07287,-0.319845,-0.0725845,0.937759,-0.919659,0.257697,-0.0938917,47.59978355,0.0,-0.06,-0.043,2683.79,2690.11,-122.83741389,124.2504135,0.0,0.0,80.8,28.7,37.0,0.844,100,True
,95,9500.0,2025-09-28 21:07:49.143000+00:00,2025-09-28 14:07:49.143,00:00:13.5,76069143,0.0,0.0,0.0,0.0,0.0,0.0,0.0,0.0,0.0,0.0,1.0,0.0,0.0,0.0,0.0,-0.001,0.0,0.0,0.0,0.0,0.0655548304347826,0.3288729130434782,-3.0729365217391305,-0.314299347826087,-0.0803481739130434,0.9377402173913044,0.556690652173913,-0.3260174347826087,0.2683483478260869,47.59978355,,-0.0600869565217391,-0.042,2683.79,2690.11,-122.83741389,124.2504135,0.0,0.0,80.8,28.7,37.0,0.844,100,True
,96,9600.0,2025-09-28 21:07:49.243000+00:00,2025-09-28 14:07:49.243,00:00:13.6,76069243,0.0,0.0,0.0,0.0,0.0,0.0,0.0,0.0,0.0,0.0,1.0,0.0,0.0,0.0,0.0,-0.001,0.0,0.0,0.0,0.0,0.0649473244274809,0.3291059389312977,-3.073372519083969,-0.3228224198473282,-0.0571734770992366,0.9379973129770992,0.1879358625954198,0.1293099847328244,0.2061310167938931,47.59978355,,-0.061,-0.042,2683.79,2690.11,-122.83741389,124.2504135,0.0,0.0,80.8,28.7,37.0,0.844,100,True
,97,9700.0,2025-09-28 21:07:49.343000+00:00,2025-09-28 14:07:49.343,00:00:13.7,76069343,0.0,0.0,0.0,0.0,0.0,0.0,0.0,0.0,0.0,0.0,1.0,0.0,0.0,0.0,0.0,-0.001,0.0,0.0,0.0,0.0,0.0647774770992366,0.3292555572519084,-3.0737007633587785,-0.3230437938931297,-0.0641895839694656,0.9380805190839694,-0.0922274961832061,0.1813473893129771,0.0692498717557252,47.59978355,,-0.061,-0.042,2683.79,2690.11,-122.83741389,124.2504135,0.0,0.0,80.8,28.7,37.0,0.844,100,True
,98,9800.0,2025-09-28 21:07:49.443000+00:00,2025-09-28 14:07:49.443,00:00:13.8,76069443,0.0,0.0,0.0,0.0,0.0,0.0,0.0,0.0,0.0,0.0,1.0,0.0,0.0,0.0,0.0,-0.001,0.0,0.0,0.0,0.0,0.0649094835164835,0.3292397032967033,-3.0739554945054945,-0.3233796373626373,-0.071444945054945,0.9380612417582416,0.3388327802197801,0.1253619010989011,0.2047807824175824,47.59978355,,-0.061,-0.042,2683.79,2690.11,-122.83741389,124.2504135,0.0,0.0,80.8,28.7,37.0,0.844,100,True
,99,9900.0,2025-09-28 21:07:49.543000+00:00,2025-09-28 14:07:49.543,00:00:13.9,76069543,0.0,0.0,0.0,0.0,0.0,0.0,0.0,0.0,0.0,0.0,1.0,0.0,0.0,0.0,0.0,-0.001,0.0,0.0,0.0,0.0,0.06412365625,0.3304580208333333,-3.0745575,-0.3245289999999999,-0.0458166979166666,0.9387620416666668,0.1170806458333333,-0.6992567291666667,0.4530020833333333,47.59978355,,-0.061,-0.0429791666666666,2683.79,2690.11,-122.83741389,124.2504135,0.0,0.0,80.8,28.7,37.0,0.844,100,True
,100,10000.0,2025-09-28 21:07:49.643000+00:00,2025-09-28 14:07:49.643,00:00:14.0,76069643,0.0,0.0,0.0,0.0,0.0,0.0,0.0,0.0,0.0,0.0,1.0,0.0,0.0,0.0,0.0,-0.001,0.0,0.0,0.0,0.0,0.0653770215053763,0.3290717956989247,-3.0746535483870967,-0.3176749354838709,-0.0578892913978494,0.9376774623655914,-0.7097384838709678,0.0310460397849462,-0.1016780720430107,47.59978355,,-0.0611182795698924,-0.0421182795698924,2683.79,2690.11,-122.83741389,124.2504135,0.0,0.0,80.8,28.7,37.0,0.844,100,True
,101,10100.0,2025-09-28 21:07:49.743000+00:00,2025-09-28 14:07:49.743,00:00:14.1,76069743,0.0,0.0,0.0,0.0,0.0,0.0,0.0,0.0,0.0,0.0,1.0,0.0,0.0,0.0,0.0,-0.001,0.0,0.0,0.0,0.0,0.0664513156626506,0.3292015542168675,-3.07468,-0.3212849277108434,-0.0612171819277108,0.9379445301204818,-0.5629341807228916,-0.0609023722891566,0.0093027650602409,47.59978355,,-0.062,-0.043,2683.79,2690.11,-122.83741389,124.2630277720482,0.0,0.0,80.8,28.7,37.0,0.844,100,True
,102,10200.0,2025-09-28 21:07:49.843000+00:00,2025-09-28 14:07:49.843,00:00:14.2,76069843,0.0,0.0,0.0,0.0,0.0,0.0,0.0,0.0,0.0,0.0,1.0,0.0,0.0,0.0,0.0,-0.001,0.0,0.0,0.0,0.0,0.0671748329896907,0.3292129484536082,-3.074791855670103,-0.3198448041237113,-0.0625020814432989,0.9380641649484536,-0.0611138505154639,-0.05153086185567,0.083884943298969,47.59978355,,-0.0616391752577319,-0.0426391752577319,2683.79,2690.11,-122.83741389,124.30857931,0.0,0.0,80.8,28.7,37.0,0.844,100,True
,103,10300.0,2025-09-28 21:07:49.943000+00:00,2025-09-28 14:07:49.943,00:00:14.3,76069943,0.0,0.0,0.0,0.0,0.0,0.0,0.0,0.0,0.0,0.0,1.0,0.0,0.0,0.0,0.0,-0.001,0.0,0.0,0.0,0.0,0.0672314,0.329204,-3.07499,-0.320902,-0.0560025,0.938068,-0.0767553,-0.232315,-0.0925583,47.59978355,,-0.061,-0.042,2683.79,2690.11,-122.83741389,124.30857931,0.0,0.0,80.8,28.7,37.0,0.844,100,True
,104,10400.0,2025-09-28 21:07:50.043000+00:00,2025-09-28 14:07:50.043,00:00:14.4,76070043,0.0,0.0,0.0,0.0,0.0,0.0,0.0,0.0,0.0,0.0,1.0,0.0,0.0,0.0,0.0,-0.001,0.0,0.0,0.0,0.0,0.066586659090909,0.3287094090909091,-3.075244090909091,-0.3175704545454546,-0.0655190318181818,0.9377814090909092,0.1473465590909091,0.4313917272727273,0.0886098772727272,47.59978355,,-0.0604090909090909,-0.0414090909090909,2683.79,2690.11,-122.83741389,124.30857931,0.0,0.0,80.8,28.7,37.0,0.844,100,True
,105,10500.0,2025-09-28 21:07:50.143000+00:00,2025-09-28 14:07:50.143,00:00:14.5,76070143,0.0,0.0,0.0,0.0,0.0,0.0,0.0,0.0,0.0,0.0,1.0,0.0,0.0,0.0,0.0,-0.001,0.0,0.0,0.0,0.0,0.0654457693877551,0.3300956530612244,-3.0758314285714285,-0.3198765714285714,-0.0801443632653061,0.9387709183673468,0.1578855428571428,1.2100574897959184,0.131670506122449,47.59978355,,-0.06,-0.041,2683.79,2690.11,-122.83741389,124.30857931,0.0,0.0,80.8,28.7,37.0,0.844,100,True
,106,10600.0,2025-09-28 21:07:50.243000+00:00,2025-09-28 14:07:50.243,00:00:14.6,76070243,0.0,0.0,0.0,0.0,0.0,0.0,0.0,0.0,0.0,0.0,1.0,0.0,0.0,0.0,0.0,-0.001,0.0,0.0,0.0,0.0,0.0649832731707317,0.3313085853658536,-3.076339756097561,-0.3203904634146342,-0.0759862024390243,0.9390076097560976,0.6058916439024391,-0.1396790731707318,0.2836605170731707,47.59978355,,-0.06,-0.041,2683.79,2690.11,-122.83741389,124.30857931,0.0,0.0,80.8,28.7,36.91951219512195,0.844,100,True
,107,10700.0,2025-09-28 21:07:50.343000+00:00,2025-09-28 14:07:50.343,00:00:14.7,76070343,0.0,0.0,0.0,0.0,0.0,0.0,0.0,0.0,0.0,0.0,1.0,0.0,0.0,0.0,0.0,-0.001,0.0,0.0,0.0,0.0,0.0640396130434782,0.3331366956521739,-3.0767660869565217,-0.3267825217391304,-0.0498212217391304,0.9397045217391304,0.9353000434782608,1.6021535652173915,0.4201019565217391,47.59978355,,-0.0609130434782608,-0.0419130434782608,2683.79,2690.11,-122.83741389,124.30857931,0.0,0.0,80.8,28.7,36.99130434782609,0.844,100,True
,108,10800.0,2025-09-28 21:07:50.443000+00:00,2025-09-28 14:07:50.443,00:00:14.8,76070443,0.0,0.0,0.0,0.0,0.0,0.0,0.0,0.0,0.0,0.0,1.0,0.0,0.0,0.0,0.0,-0.001,0.0,0.0,0.0,0.0,0.0629816666666666,0.3332309333333333,-3.077314666666666,-0.3252373333333333,-0.0426125666666666,0.9384280666666668,-0.2691504,0.2581677333333333,-0.0479042399999999,47.59978355,,-0.0601333333333333,-0.042,2683.79,2690.11,-122.83741389,124.30857931,0.0,0.0,80.8,28.7,37.0,0.844,100,True
,109,10900.0,2025-09-28 21:07:50.543000+00:00,2025-09-28 14:07:50.543,00:00:14.9,76070543,0.0,0.0,0.0,0.0,0.0,0.0,0.0,0.0,0.0,0.0,1.0,0.0,0.0,0.0,0.0,-0.001,0.0,0.0,0.0,0.0,0.0632802388489208,0.3329485179856115,-3.0773788489208638,-0.328725726618705,-0.0665600841726618,0.937385474820144,0.9144383309352518,-2.041035179856115,0.3794298561151079,47.59978355,,-0.062,-0.042,2683.79,2690.11,-122.83741389,124.30857931,0.0,0.0,80.8,28.7,36.98848920863309,0.844,100,True
,110,11000.0,2025-09-28 21:07:50.643000+00:00,2025-09-28 14:07:50.643,00:00:15.0,76070643,0.0,0.0,0.0,0.0,0.0,0.0,0.0,0.0,0.0,0.0,1.0,0.0,0.0,0.0,0.0,-0.001,0.0,0.0,0.0,0.0,0.0636092316546762,0.3346017553956834,-3.0773716546762597,-0.3278365179856115,-0.0962112352517985,0.9386509424460432,0.7401778992805755,1.9404324460431652,0.6573039568345325,47.59978355,,-0.062,-0.042,2683.79,2690.11,-122.83741389,124.30857931,0.0,0.0,80.8,28.7,36.91654676258992,0.844,100,True
,111,11100.0,2025-09-28 21:07:50.743000+00:00,2025-09-28 14:07:50.743,00:00:15.1,76070743,0.0,0.0,0.0,0.0,0.0,0.0,0.0,0.0,0.0,0.0,1.0,0.0,0.0,0.0,0.0,-0.001,0.0,0.0,0.0,0.0,0.0633565124999999,0.336386375,-3.0778775,-0.3261462499999999,-0.0479813375,0.9382315,-0.4624208750000002,0.2160552500000001,0.1123713624999999,47.59978355,,-0.06025,-0.042,2683.79,2690.11,-122.83741389,124.30857931,0.0,0.0,80.8,28.7,36.9,0.844,100,True
,112,11200.0,2025-09-28 21:07:50.843000+00:00,2025-09-28 14:07:50.843,00:00:15.2,76070843,0.0,0.0,0.0,0.0,0.0,0.0,0.0,0.0,0.0,0.0,1.0,0.0,0.0,0.0,0.0,-0.001,0.0,0.0,0.0,0.0,0.0641230208791208,0.338635956043956,-3.0778717582417583,-0.3223642197802198,-0.0597708428571428,0.9387246373626372,0.1516173846153845,2.9223195824175825,0.2690310043956043,47.59978355,,-0.0619560439560439,-0.042,2683.79,2690.11,-122.83741389,124.459681329011,0.0,0.0,80.8,28.7,36.997802197802194,0.844,100,True
,113,11300.0,2025-09-28 21:07:50.943000+00:00,2025-09-28 14:07:50.943,00:00:15.3,76070943,0.0,0.0,0.0,0.0,0.0,0.0,0.0,0.0,0.0,0.0,1.0,0.0,0.0,0.0,0.0,-0.001,0.0,0.0,0.0,0.0,0.0632489597938144,0.3417299381443299,-3.078292268041237,-0.3303829587628866,-0.0563215278350515,0.9387935154639176,0.1198845979381443,0.6004878556701031,0.2576596597938144,47.59978355,,-0.0610927835051546,-0.0421855670103092,2683.79,2690.11,-122.83741389,124.46307688,0.0,0.0,80.8,28.7,36.9,0.844,100,True
,114,11400.0,2025-09-28 21:07:51.043000+00:00,2025-09-28 14:07:51.043,00:00:15.4,76071043,0.0,0.0,0.0,0.0,0.0,0.0,0.0,0.0,0.0,0.0,1.0,0.0,0.0,0.0,0.0,-0.001,0.0,0.0,0.0,0.0,0.0637232463414634,0.3407670243902438,-3.078502682926829,-0.3317030487804878,-0.0617705756097561,0.935790268292683,-0.498939756097561,-1.9011436585365853,-0.1601280243902439,47.59978355,,-0.0621463414634146,-0.0442926829268292,2683.79,2690.11,-122.83741389,124.46307688,0.0,0.0,80.8,28.7,36.9,0.844,100,True
,115,11500.0,2025-09-28 21:07:51.143000+00:00,2025-09-28 14:07:51.143,00:00:15.5,76071143,0.0,0.0,0.0,0.0,0.0,0.0,0.0,0.0,0.0,0.0,1.0,0.0,0.0,0.0,0.0,-0.0013370786516853,0.0,0.0,0.0,0.0,0.0667558640449438,0.3315751910112359,-3.078025168539326,-0.3302593258426966,-0.0531688640449438,0.9288954382022472,-1.982222359550562,-6.879674831460674,-1.1080366404494382,47.59978355,,-0.0640112359550561,-0.0493707865168539,2683.79,2690.11,-122.83741389,124.46307688,0.0,0.0,80.8,28.7,36.9,0.844,100,True
,116,11600.0,2025-09-28 21:07:51.243000+00:00,2025-09-28 14:07:51.243,00:00:15.6,76071243,0.0,0.0,0.0,0.0,0.0,0.0,0.0,0.0,0.0,0.0,1.0,0.0,0.0,0.0,0.0,-0.002,0.0,0.0,0.0,0.0,0.0752290580645161,0.3070390322580645,-3.0752963440860217,-0.3812588602150537,-0.069983005376344,0.9167788602150536,-5.310844731182796,-17.52427311827957,-3.948505806451613,47.59978355,,-0.0664408602150537,-0.0555591397849462,2683.79,2690.11,-122.83741389,124.46307688,0.0,0.0,80.8,28.7,36.9,0.844,100,True
,117,11700.0,2025-09-28 21:07:51.343000+00:00,2025-09-28 14:07:51.343,00:00:15.7,76071343,0.0,0.0,0.0,0.0,0.0,0.0,0.0,0.0,0.0,0.0,1.0,0.0,0.0,-0.059076923076923,0.0,-0.0009450549450549,0.0,-1.1973626373626374,-0.5116483516483517,1.0971428571428572,0.0843838901098901,0.2499985714285714,-3.0742017582417582,-0.2758830549450549,-0.0996389637362637,0.9016853846153846,1.4880681318681326,-45.67587912087912,-1.110733186813187,47.59978355,,0.0305824175824175,-0.0576373626373626,2683.7847252747256,2690.11,-122.83741389,124.46307688,0.0,0.0,80.8,28.7,36.95274725274725,0.844,100,True
,118,11800.0,2025-09-28 21:07:51.443000+00:00,2025-09-28 14:07:51.443,00:00:15.8,76071443,,,,,,,,,,,,,,-0.044752808988764,-36.50561797752809,-0.0044831460674157,-0.0064044943820224,-4.550000000000001,-0.1950561797752809,4.46247191011236,0.0742487651685393,0.1410514606741573,-3.083855168539326,0.0399297078651685,-0.0998510629213483,0.8896557528089888,10.987128539325845,-72.15065730337078,2.885589887640449,47.59978355,,0.0545955056179775,-0.1285280898876404,2683.78,2690.11,-122.83741389,124.46307688,0.0,0.0,80.8,28.63595505617977,36.93595505617977,0.844,100,True
,119,11900.0,2025-09-28 21:07:51.543000+00:00,2025-09-28 14:07:51.543,00:00:15.9,76071543,,,,,,,,,,,,,,-0.0837741935483871,-15.322580645161288,0.061,1.2768817204301075,23.556236559139784,-0.0378494623655914,27.435698924731184,0.0438560784946236,0.0153919139784946,-3.0937921505376345,-0.203676817204301,0.2068883978494623,0.8892478494623656,18.3379376344086,-59.87507634408602,-4.101376989247312,47.59978355,,0.057021505376344,1.2602688172043008,2683.7653763440862,2690.124623655914,-122.83741389,124.46307688,0.0,0.0,80.28817204301075,28.6,36.9,0.844,100,True
,120,12000.0,2025-09-28 21:07:51.643000+00:00,2025-09-28 14:07:51.643,00:00:16.0,76071643,0.95,0.0,0.0,,,,,,,0.0,0.0,,,-0.0154482758620689,207.7586206896552,0.1334137931034482,5.0,56.83413793103448,0.2134482758620689,57.10551724137931,0.0194214103448275,-0.0591239137931034,-3.0808710344827586,0.008153724137931,-0.1416948965517241,0.9068620689655172,3.4928051724137923,-37.67694137931034,-4.56598896551724,47.59978355,,-0.1695172413793103,3.983275862068965,2683.76,2690.13,-122.83741389,124.46307688,0.0,0.0,79.32413793103449,28.6,36.9,0.8431379310344828,100,True
,121,12100.0,2025-09-28 21:07:51.743000+00:00,2025-09-28 14:07:51.743,00:00:16.1,76071743,0.95,0.0,0.0,,,,,,,0.0,0.0,1.0,0.0,0.2313333333333333,556.3333333333334,0.173,8.653333333333332,71.27,0.1433333333333333,71.35333333333332,0.0254273,-0.0866971,-3.0861933333333336,-0.0763228,-0.1327542666666666,0.9265773333333334,-4.34873,-28.83183333333333,3.0345066666666662,47.59978355,,-0.524,5.855,2683.793333333333,2690.1633333333334,-122.83741389,124.46307688,0.0,0.0,78.53333333333333,28.6,36.9,0.841,100,True
,122,12200.0,2025-09-28 21:07:51.843000+00:00,2025-09-28 14:07:51.843,00:00:16.2,76071843,0.95,0.0,0.0,,,,,,,0.0,0.0,1.0,0.0,0.6183846153846153,905.3846153846154,0.1920769230769231,11.62923076923077,78.08692307692307,0.043076923076923,78.05076923076923,0.0283953307692307,-0.1246858846153846,-3.0898184615384614,-0.1701939999999999,-0.0916703846153846,0.9582355384615384,1.609565384615384,-24.632715384615388,2.9282366153846158,47.59978355,,-1.01,7.478384615384616,2683.8715384615384,2690.2415384615383,-122.83741389,124.47957355692309,0.0,0.0,78.26153846153846,28.661538461538463,36.9,0.8356923076923076,100,True
,123,12300.0,2025-09-28 21:07:51.943000+00:00,2025-09-28 14:07:51.943,00:00:16.3,76071943,0.95,0.0,0.0,,,,,,,0.0,0.0,1.0,0.0,1.0283645833333337,1298.5416666666663,0.21025,12.225625,73.2725,0.141875,73.0809375,0.011522096875,-0.1531576458333333,-3.0896122916666666,-0.2483836875,-0.2165506354166666,0.9889578020833334,24.7805,-17.3972875,2.3820735104166664,47.59978355,,-1.5494791666666667,8.546802083333333,2683.99125,2690.36125,-122.83741389,124.48988398,0.0,0.0,78.77395833333333,28.7,36.9,0.8289375,100,True
,124,12400.0,2025-09-28 21:07:52.043000+00:00,2025-09-28 14:07:52.043,00:00:16.4,76072043,0.95,0.0,0.0,,,,,,,0.0,0.0,1.0,0.0,1.4067333333333334,1651.3333333333333,0.2103333333333333,9.782333333333334,57.31966666666666,0.039,57.248333333333335,-0.0166668613333333,-0.1592548999999999,-3.0990943333333334,-0.0218763866666666,0.0748401999999999,1.0147347999999998,7.971907766666668,-1.1226753333333352,13.459303,47.59978355,,-1.7243333333333335,8.831966666666666,2684.1373333333336,2690.507333333333,-122.83741389,124.48988398,0.0,0.0,78.92333333333333,28.7,36.9,0.8239333333333333,100,True
,125,12500.0,2025-09-28 21:07:52.143000+00:00,2025-09-28 14:07:52.143,00:00:16.5,76072143,0.95,0.0,0.0,,,,,,,0.0,0.0,1.0,0.0,1.6819239130434782,1877.0,0.197695652173913,8.642065217391304,49.94967391304348,-0.0357608695652173,49.84380434782609,-0.0218214358695652,-0.1521032173913043,-3.1257071739130438,-0.0009279630434782,0.0059923695652174,1.0391971739130434,-9.615354097826089,10.740099347826083,15.30522608695652,47.59978355,,-2.0845,9.021467391304348,2684.315978260869,2690.685978260869,-122.83741389,124.48988398,0.0,0.0,79.32934782608696,28.7,36.9,0.8195652173913043,100,True
,126,12600.0,2025-09-28 21:07:52.243000+00:00,2025-09-28 14:07:52.243,00:00:16.6,76072243,0.95,0.0,0.0,,,,,,,0.0,0.0,1.0,0.0,1.842608695652174,1999.4565217391305,0.2149130434782608,8.059347826086956,45.90108695652175,0.1207608695652174,45.94184782608696,-0.010724602173913,-0.1406617173913043,2.7895295652173924,0.0644117163043478,0.0706677532608695,1.0473414130434784,-14.22803152173913,7.976753586956522,19.720104347826087,47.59978355,,-2.269717391304348,9.144619565217392,2684.491304347826,2690.861304347826,-122.83741389,124.48988398,0.0,0.0,79.02173913043478,28.7,36.9,0.8171086956521738,100,True
