ride_id,sample_idx,_elapsed_ms,ts_utc,ts_pst,video_ts_anchor,ms_today,cf_accel,cf_brake,cf_cruise,cf_turn_left,cf_turn_right,cf_carve_left,cf_carve_right,cf_ascent,cf_descent,cf_traction_loss,cf_idle,cf_forward,cf_reverse,speed_meters_per_sec,erpm,duty_cycle,current_in,current_motor,d_axis_current,q_axis_current,roll,pitch,yaw,accX,accY,accZ,gyroX,gyroY,gyroZ,gnss_lat,fault_code,d_axis_voltage,q_axis_voltage,tacho_meters,tacho_abs_meters,gnss_lon,gnss_alt,gnss_gVel,gnss_vVel,input_voltage,temp_mos_max,temp_motor,battery_level,dt_ms,_on_grid
ride_31,0,0.0,2025-09-28 20:59:59.992000+00:00,2025-09-28 13:59:59.992,00:00:05.0,75599992,0.0,0.0,0.0,0.0,0.0,0.0,0.0,0.0,0.0,0.0,1.0,0.0,0.0,0.0,0.0,0.001,0.98,3.89,0.01,3.29,0.0162436,0.267727,-1.83546,-0.265065,-0.0163061,0.954794,0.0113302,0.0497485,0.107644,47.59972295,0.0,-0.338,3.173,1163.27,1168.0,-122.83505077,122.71014294,0.0,0.0,81.2,25.8,29.2,0.872,100,True
,1,100.0,2025-09-28 21:00:00.092000+00:00,2025-09-28 14:00:00.092,00:00:05.1,75600092,0.0,0.0,0.0,0.0,0.0,0.0,0.0,0.0,0.0,0.0,1.0,0.0,0.0,0.0,0.0,0.001,0.0,0.0,0.0,0.0,0.006408752,0.3271562,-0.7707914,-0.316766,-0.003568664,0.9383862,0.0876674799999999,0.2448065999999999,0.0146228799999999,47.59972295,,-0.0052,0.0737999999999999,1163.27,1168.0,-122.83505077,122.71014294,0.0,0.0,81.2,25.8,29.2,0.872,100,True
,2,200.0,2025-09-28 21:00:00.192000+00:00,2025-09-28 14:00:00.192,00:00:05.2,75600192,0.0,0.0,0.0,0.0,0.0,0.0,0.0,0.0,0.0,0.0,1.0,0.0,0.0,0.0,0.0,0.001,0.0,0.0,0.0,0.0,0.0063908279999999,0.3272050888888889,-0.7708897111111112,-0.3184018222222222,-0.0105044444444444,0.9383698,0.0951700771111111,0.1011212888888888,-0.0407828044444444,47.59972295,,-0.006,0.073,1163.27,1168.0,-122.83505077,122.71014294,0.0,0.0,81.2,25.8,29.2,0.872,100,True
,3,300.0,2025-09-28 21:00:00.292000+00:00,2025-09-28 14:00:00.292,00:00:05.3,75600292,0.0,0.0,0.0,0.0,0.0,0.0,0.0,0.0,0.0,0.0,1.0,0.0,0.0,0.0,0.0,0.001,0.0,0.0,0.0,0.0,0.0063493651063829,0.3272005106382978,-0.7710098085106383,-0.3207743191489361,-0.0109883404255319,0.9382931276595744,0.0297573689361702,-0.1762972978723404,-0.003796229787234,47.59972295,,-0.005595744680851,0.0734042553191489,1163.27,1168.0,-122.83505077,122.71014294,0.0,0.0,81.2,25.8,29.2,0.872,100,True
,4,400.0,2025-09-28 21:00:00.392000+00:00,2025-09-28 14:00:00.392,00:00:05.4,75600392,0.0,0.0,0.0,0.0,0.0,0.0,0.0,0.0,0.0,0.0,1.0,0.0,0.0,0.0,0.0,0.001,0.0,0.0,0.0,0.0,0.0064470661870503,0.3268870215827338,-0.7710907410071942,-0.321264035971223,-0.0110975251798561,0.9380532446043164,0.098954798561151,-0.3229602517985611,0.0557426302158273,47.59972295,,-0.0053165467625899,0.07368345323741,1163.27,1168.0,-122.83505077,122.71014294,0.0,0.0,81.2,25.8,29.2,0.872,100,True
,5,500.0,2025-09-28 21:00:00.492000+00:00,2025-09-28 14:00:00.492,00:00:05.5,75600492,0.0,0.0,0.0,0.0,0.0,0.0,0.0,0.0,0.0,0.0,1.0,0.0,0.0,0.0,0.0,0.001,0.0,0.0,0.0,0.0,0.0064708921875,0.3264376458333333,-0.7711467916666667,-0.3206243125,-0.0095189572916666,0.93778290625,0.1286850520833333,-0.3630813020833333,0.0979128010416666,47.59972295,,-0.0059479166666666,0.0730520833333333,1163.27,1168.0,-122.83505077,122.71014294,0.0,0.0,81.2,25.8,29.2,0.872,100,True
,6,600.0,2025-09-28 21:00:00.592000+00:00,2025-09-28 14:00:00.592,00:00:05.6,75600592,0.0,0.0,0.0,0.0,0.0,0.0,0.0,0.0,0.0,0.0,1.0,0.0,0.0,0.0,0.0,0.001,0.0,0.0,0.0,0.0,0.0064436798701298,0.3257242727272727,-0.7712392597402598,-0.317617961038961,0.0003297632467532,0.9375851428571428,-0.2662805974025974,-0.2144279649350649,0.056218512987013,47.59972295,,-0.005,0.0738831168831168,1163.27,1168.0,-122.83505077,122.71014294,0.0,0.0,81.2,25.8,29.2,0.872,100,True
,7,700.0,2025-09-28 21:00:00.692000+00:00,2025-09-28 14:00:00.692,00:00:05.7,75600692,0.0,0.0,0.0,0.0,0.0,0.0,0.0,0.0,0.0,0.0,1.0,0.0,0.0,0.0,0.0,0.001,0.0,0.0,0.0,0.0,0.0067878898019801,0.3259585841584158,-0.7713021287128713,-0.3164273564356435,-0.0075153808910891,0.9383382178217822,-0.1639768831683168,-0.135651399009901,0.0066420188118811,47.59972295,,-0.0053168316831683,0.0733168316831683,1163.27,1168.0,-122.83505077,122.71014294,0.0,0.0,81.2,25.8,29.2,0.872,100,True
,8,800.0,2025-09-28 21:00:00.792000+00:00,2025-09-28 14:00:00.792,00:00:05.8,75600792,0.0,0.0,0.0,0.0,0.0,0.0,0.0,0.0,0.0,0.0,1.0,0.0,0.0,0.0,0.0,0.001,0.0,0.0,0.0,0.0,0.0070512839370078,0.3258225354330709,-0.7713432125984252,-0.3174534803149606,-0.0079718530708661,0.938502559055118,-0.0645196,-0.1112880472440945,0.0456745149606299,47.59972295,,-0.005755905511811,0.073755905511811,1163.27,1168.0,-122.83505077,122.70622861637796,0.0,0.0,81.2,25.8,29.2,0.872,100,True
,9,900.0,2025-09-28 21:00:00.892000+00:00,2025-09-28 14:00:00.892,00:00:05.9,75600892,0.0,0.0,0.0,0.0,0.0,0.0,0.0,0.0,0.0,0.0,1.0,0.0,0.0,0.0,0.0,0.001,0.0,0.0,0.0,0.0,0.0075110991578947,0.3258260421052631,-0.7713213473684211,-0.3144468210526316,-0.0097110949052631,0.9387943263157896,-0.0557113221052631,0.2590781263157894,0.0411110631578947,47.59972295,,-0.005,0.0730421052631579,1163.27,1168.0,-122.83505077,122.69410684,0.0,0.0,81.2,25.8,29.2,0.872,100,True
,10,1000.0,2025-09-28 21:00:00.992000+00:00,2025-09-28 14:00:00.992,00:00:06.0,75600992,0.0,0.0,0.0,0.0,0.0,0.0,0.0,0.0,0.0,0.0,1.0,0.0,0.0,0.0,0.0,0.001,0.0,0.0,0.0,0.0,0.0075768278313253,0.3260224457831325,-0.7714517831325302,-0.3169572771084337,0.0002237233012048,0.9390552530120482,0.1364522795180723,0.2360584638554216,0.0168667674698795,47.59972295,,-0.0051084337349397,0.074,1163.27,1168.0,-122.83505077,122.69410684,0.0,0.0,81.2,25.8,29.2,0.872,100,True
,11,1100.0,2025-09-28 21:00:01.092000+00:00,2025-09-28 14:00:01.092,00:00:06.1,75601092,0.0,0.0,0.0,0.0,0.0,0.0,0.0,0.0,0.0,0.0,1.0,0.0,0.0,0.0,0.0,0.001,0.0,0.0,0.0,0.0,0.0076379866292134,0.3261014494382022,-0.7715438651685393,-0.3198070786516854,-0.0067289206741573,0.9390323370786516,0.0538172921348314,-0.0124428820224719,0.0255949494382022,47.59972295,,-0.0057078651685393,0.0737078651685393,1163.27,1168.0,-122.83505077,122.69410684,0.0,0.0,81.2,25.8,29.2,0.872,100,True
,12,1200.0,2025-09-28 21:00:01.192000+00:00,2025-09-28 14:00:01.192,00:00:06.2,75601192,0.0,0.0,0.0,0.0,0.0,0.0,0.0,0.0,0.0,0.0,1.0,0.0,0.0,0.0,0.0,0.001,0.0,0.0,0.0,0.0,0.0077414831914893,0.3258734574468085,-0.7716266382978724,-0.3166592872340426,-0.0107056664893617,0.9388013936170212,-0.0124077117021276,-0.1046797351063829,0.1539195744680851,47.59972295,,-0.005,0.073,1163.27,1168.0,-122.83505077,122.69410684,0.0,0.0,81.2,25.8,29.2,0.872,100,True
,13,1300.0,2025-09-28 21:00:01.292000+00:00,2025-09-28 14:00:01.292,00:00:06.3,75601292,0.0,0.0,0.0,0.0,0.0,0.0,0.0,0.0,0.0,0.0,1.0,0.0,0.0,0.0,0.0,0.001,0.0,0.0,0.0,0.0,0.0078406264130434,0.3255698913043478,-0.7717164565217391,-0.3147380217391304,-0.0075205745652173,0.938644554347826,-0.0286690620652173,-0.1186953554347826,0.0800327097826087,47.59972295,,-0.0054673913043478,0.073,1163.27,1168.0,-122.83505077,122.69410684,0.0,0.0,81.2,25.8,29.2,0.872,100,True
,14,1400.0,2025-09-28 21:00:01.392000+00:00,2025-09-28 14:00:01.392,00:00:06.4,75601392,0.0,0.0,0.0,0.0,0.0,0.0,0.0,0.0,0.0,0.0,1.0,0.0,0.0,0.0,0.0,0.001,0.0,0.0,0.0,0.0,0.0079479947727272,0.3254699090909091,-0.7717908409090909,-0.3185198409090909,-0.011397556590909,0.938677,0.0638236275,-0.203403659090909,0.0896583795454545,47.59972295,,-0.0056136363636363,0.0733863636363636,1163.27,1168.0,-122.83505077,122.69410684,0.0,0.0,81.2,25.8,29.2,0.872,100,True
,15,1500.0,2025-09-28 21:00:01.492000+00:00,2025-09-28 14:00:01.492,00:00:06.5,75601492,0.0,0.0,0.0,0.0,0.0,0.0,0.0,0.0,0.0,0.0,1.0,0.0,0.0,0.0,0.0,0.001,0.0,0.0,0.0,0.0,0.0079782697752808,0.3253942359550562,-0.7718784382022471,-0.3190316292134831,-0.0124168419101123,0.9386858539325844,0.1394133415730337,-0.1300572797752809,0.1385153213483146,47.59972295,,-0.0052134831460674,0.074,1163.27,1168.0,-122.83505077,122.69410684,0.0,0.0,81.2,25.8,29.2,0.872,100,True
,16,1600.0,2025-09-28 21:00:01.592000+00:00,2025-09-28 14:00:01.592,00:00:06.6,75601592,0.0,0.0,0.0,0.0,0.0,0.0,0.0,0.0,0.0,0.0,1.0,0.0,0.0,0.0,0.0,0.001,0.0,0.0,0.0,0.0,0.0077790142105263,0.3253267894736842,-0.772045,-0.3165436315789474,-0.0050780689473684,0.9387077368421052,0.0289713052631579,0.0672065631578947,0.0134536315789473,47.59972295,,-0.0056842105263157,0.074,1163.27,1168.0,-122.83505077,122.69410684,0.0,0.0,81.2,25.8,29.2,0.872,100,True
,17,1700.0,2025-09-28 21:00:01.692000+00:00,2025-09-28 14:00:01.692,00:00:06.7,75601692,0.0,0.0,0.0,0.0,0.0,0.0,0.0,0.0,0.0,0.0,1.0,0.0,0.0,0.0,0.0,0.001,0.0,0.0,0.0,0.0,0.0078216858267716,0.3255884251968504,-0.7721323700787401,-0.3166777007874016,-0.005967822047244,0.9389311417322834,-0.0881690551181102,0.200715874015748,-0.0063499598425196,47.59972295,,-0.0052755905511811,0.074,1163.27,1168.0,-122.83505077,122.66757474,0.0,0.0,81.2,25.8,29.2,0.872,100,True
,18,1800.0,2025-09-28 21:00:01.792000+00:00,2025-09-28 14:00:01.792,00:00:06.8,75601792,0.0,0.0,0.0,0.0,0.0,0.0,0.0,0.0,0.0,0.0,1.0,0.0,0.0,0.0,0.0,0.001,0.0,0.0,0.0,0.0,0.0080119706569343,0.3257488321167883,-0.7721613795620438,-0.3191391824817518,-0.014307601459854,0.9390135255474452,-0.1261080916788321,0.0532400583941605,0.0493942138686131,47.59972295,,-0.005941605839416,0.074,1163.27,1168.0,-122.83505077,122.59783322,0.0,0.0,81.2,25.8,29.2,0.872,100,True
,19,1900.0,2025-09-28 21:00:01.892000+00:00,2025-09-28 14:00:01.892,00:00:06.9,75601892,0.0,0.0,0.0,0.0,0.0,0.0,0.0,0.0,0.0,0.0,1.0,0.0,0.0,0.0,0.0,0.001,0.0,0.0,0.0,0.0,0.0081928538686131,0.3258342335766423,-0.7722161240875912,-0.3169289635036496,-0.0117651197080291,0.939020094890511,-0.0243092376642335,0.1042407883211678,0.0399406372262773,47.59972295,,-0.0052116788321167,0.074,1163.27,1168.0,-122.83505077,122.59783322,0.0,0.0,81.2,25.8,29.2,0.872,100,True
,20,2000.0,2025-09-28 21:00:01.992000+00:00,2025-09-28 14:00:01.992,00:00:07.0,75601992,0.0,0.0,0.0,0.0,0.0,0.0,0.0,0.0,0.0,0.0,1.0,0.0,0.0,0.0,0.0,0.001,0.0,0.0,0.0,0.0,0.0081656067741935,0.3258788494623656,-0.7722865860215055,-0.3154153870967742,-0.0074741278494623,0.9390036774193548,0.0631192551075268,0.119528,0.0857622983870967,47.59972295,,-0.0053817204301075,0.074,1163.27,1168.0,-122.83505077,122.59783322,0.0,0.0,81.2,25.8,29.2,0.872,100,True
,21,2100.0,2025-09-28 21:00:02.092000+00:00,2025-09-28 14:00:02.092,00:00:07.1,75602092,0.0,0.0,0.0,0.0,0.0,0.0,0.0,0.0,0.0,0.0,1.0,0.0,0.0,0.0,0.0,0.001,0.0,0.0,0.0,0.0,0.0080533487096774,0.3259068064516129,-0.7723634677419355,-0.3141863548387096,-0.0024689558064516,0.938977870967742,0.1446781637096774,0.120228,0.1541611693548387,47.59972295,,-0.0059193548387096,0.074,1163.27,1168.0,-122.83505077,122.59783322,0.0,0.0,81.2,25.8,29.2,0.872,100,True
ride_31,22,2200.0,2025-09-28 21:00:02.192000+00:00,2025-09-28 14:00:02.192,00:00:07.2,75602192,0.0,0.0,0.0,0.0,0.0,0.0,0.0,0.0,0.0,0.0,1.0,0.0,0.0,0.0,0.0,0.001,0.0,0.0,0.0,0.0,0.00738167,0.326289,-0.772767,-0.317892,-0.00708241,0.938807,0.144677,0.258899,0.0235313,47.59972295,0.0,-0.006,0.073,1163.27,1168.0,-122.83505077,122.59783322,0.0,0.0,81.2,25.8,29.2,0.872,100,True
,23,2300.0,2025-09-28 21:00:02.292000+00:00,2025-09-28 14:00:02.292,00:00:07.3,75602292,0.0,0.0,0.0,0.0,0.0,0.0,0.0,0.0,0.0,0.0,1.0,0.0,0.0,0.0,0.0,0.001,0.0,0.0,0.0,0.0,0.0071749529787234,0.3263054042553192,-0.7729417446808511,-0.3201373191489362,-0.0052519170212765,0.938605510638298,-0.1867007144680851,-0.1667998723404255,0.0509819234042553,47.59972295,,-0.0059148936170212,0.0739148936170212,1163.27,1168.0,-122.83505077,122.59783322,0.0,0.0,81.2,25.8,29.2,0.873,100,True
,24,2400.0,2025-09-28 21:00:02.392000+00:00,2025-09-28 14:00:02.392,00:00:07.4,75602392,0.0,0.0,0.0,0.0,0.0,0.0,0.0,0.0,0.0,0.0,1.0,0.0,0.0,0.0,0.0,0.001,0.0,0.0,0.0,0.0,0.0073231444680851,0.3261337730496453,-0.7729729503546099,-0.3197316453900709,-0.0090520588652482,0.9384430992907802,-0.042673335035461,-0.2170821418439716,-0.010978714893617,47.59972295,,-0.0052056737588652,0.0732056737588652,1163.27,1168.0,-122.83505077,122.59783322,0.0,0.0,81.2,25.8,29.2,0.873,100,True
,25,2500.0,2025-09-28 21:00:02.492000+00:00,2025-09-28 14:00:02.492,00:00:07.5,75602492,0.0,0.0,0.0,0.0,0.0,0.0,0.0,0.0,0.0,0.0,1.0,0.0,0.0,0.0,0.0,0.001,0.0,0.0,0.0,0.0,0.007404387890625,0.32595309375,-0.77302415625,-0.3170641015625,-0.0092665057031249,0.9383116875,-0.0748710899609375,-0.15354663828125,0.0157220171874999,47.59972295,,-0.0055546875,0.0735546875,1163.27,1168.0,-122.83505077,122.59783322,0.0,0.0,81.2,25.8,29.2,0.873,100,True
,26,2600.0,2025-09-28 21:00:02.592000+00:00,2025-09-28 14:00:02.592,00:00:07.6,75602592,0.0,0.0,0.0,0.0,0.0,0.0,0.0,0.0,0.0,0.0,1.0,0.0,0.0,0.0,0.0,0.001,0.0,0.0,0.0,0.0,0.007407193076923,0.3257067142857143,-0.7731321868131869,-0.313099010989011,-0.0085461758241758,0.9382808571428572,-0.0683512253846154,0.0414086967032967,0.0444478516483516,47.59972295,,-0.006,0.074,1163.27,1168.0,-122.83505077,122.59783322,0.0,0.0,81.2,25.8,29.2,0.873,100,True
,27,2700.0,2025-09-28 21:00:02.692000+00:00,2025-09-28 14:00:02.692,00:00:07.7,75602692,0.0,0.0,0.0,0.0,0.0,0.0,0.0,0.0,0.0,0.0,1.0,0.0,0.0,0.0,0.0,0.001,0.0,0.0,0.0,0.0,0.0073271243661971,0.3255255633802816,-0.7732604084507042,-0.3148213802816901,-0.0072978729577464,0.9383674084507042,-0.0225636007042253,0.0862589239436619,0.0142379056338028,47.59972295,,-0.006,0.074,1163.27,1168.0,-122.83505077,122.59783322,0.0,0.0,81.2,25.8,29.2,0.873,100,True
,28,2800.0,2025-09-28 21:00:02.792000+00:00,2025-09-28 14:00:02.792,00:00:07.8,75602792,0.0,0.0,0.0,0.0,0.0,0.0,0.0,0.0,0.0,0.0,1.0,0.0,0.0,0.0,0.0,0.001,0.0,0.0,0.0,0.0,0.0072127597619047,0.3254672619047619,-0.7733695952380952,-0.3207677619047619,-0.0054380847619047,0.9384627857142858,-0.0525779880952381,-0.091453888095238,-0.0091172595238095,47.59972295,,-0.006,0.0738809523809523,1163.27,1168.0,-122.83505077,122.59520378785714,0.0,0.0,81.2,25.8,29.2,0.873,100,True
,29,2900.0,2025-09-28 21:00:02.892000+00:00,2025-09-28 14:00:02.892,00:00:07.9,75602892,0.0,0.0,0.0,0.0,0.0,0.0,0.0,0.0,0.0,0.0,1.0,0.0,0.0,0.0,0.0,0.001,0.0,0.0,0.0,0.0,0.0069759158695652,0.3252933260869565,-0.7736276521739129,-0.3161457391304348,-0.0070201136956521,0.9386107391304348,0.0184836782608695,-0.0906570934782608,0.0687338999999999,47.59972295,,-0.0057173913043478,0.0732826086956521,1163.27,1168.0,-122.83505077,122.57574599,0.0,0.0,81.2,25.8,29.22826086956522,0.873,100,True
,30,3000.0,2025-09-28 21:00:02.992000+00:00,2025-09-28 14:00:02.992,00:00:08.0,75602992,0.0,0.0,0.0,0.0,0.0,0.0,0.0,0.0,0.0,0.0,1.0,0.0,0.0,0.0,0.0,0.001,0.0,0.0,0.0,0.0,0.007059164347826,0.3251546956521739,-0.7737161304347826,-0.3162063043478261,-0.0045510480434782,0.9387286521739132,-0.110077404347826,-0.1169101891304347,0.0313973086956521,47.59972295,,-0.0053695652173913,0.074,1163.27,1168.0,-122.83505077,122.57574599,0.0,0.0,81.2,25.8,29.26304347826087,0.873,100,True
,31,3100.0,2025-09-28 21:00:03.092000+00:00,2025-09-28 14:00:03.092,00:00:08.1,75603092,0.0,0.0,0.0,0.0,0.0,0.0,0.0,0.0,0.0,0.0,1.0,0.0,0.0,0.0,0.0,0.001,0.0,0.0,0.0,0.0,0.00727442,0.325103,-0.77373,-0.312604,-0.00264525,0.938827,-0.0584018,-0.160178,0.115911,47.59972295,,-0.0054939759036144,0.074,1163.27,1168.0,-122.83505077,122.57574599,0.0,0.0,81.2,25.8,29.2,0.873,100,True
,32,3200.0,2025-09-28 21:00:03.192000+00:00,2025-09-28 14:00:03.192,00:00:08.2,75603192,0.0,0.0,0.0,0.0,0.0,0.0,0.0,0.0,0.0,0.0,1.0,0.0,0.0,0.0,0.0,0.001,0.0,0.0,0.0,0.0,0.0074805226530612,0.3251126326530612,-0.7737269897959184,-0.3173739693877551,-0.0092520158163265,0.9389528265306122,-0.0620849653061224,-0.1184669867346938,0.0735001142857142,47.59972295,,-0.005,0.074,1163.27,1168.0,-122.83505077,122.57574599,0.0,0.0,81.2,25.8,29.2,0.873,100,True
,33,3300.0,2025-09-28 21:00:03.292000+00:00,2025-09-28 14:00:03.292,00:00:08.3,75603292,0.0,0.0,0.0,0.0,0.0,0.0,0.0,0.0,0.0,0.0,1.0,0.0,0.0,0.0,0.0,0.001,0.0,0.0,0.0,0.0,0.0076924363095238,0.3248662857142857,-0.7737932619047619,-0.315281,-0.0095657572619047,0.93892925,-0.0183235701785714,-0.1422897607142857,-0.0090925273809523,47.59972295,,-0.0057261904761904,0.0732738095238095,1163.27,1168.0,-122.83505077,122.57574599,0.0,0.0,81.2,25.8,29.2,0.873,100,True
,34,3400.0,2025-09-28 21:00:03.392000+00:00,2025-09-28 14:00:03.392,00:00:08.4,75603392,0.0,0.0,0.0,0.0,0.0,0.0,0.0,0.0,0.0,0.0,1.0,0.0,0.0,0.0,0.0,0.001,0.0,0.0,0.0,0.0,0.007753370990099,0.3247580396039604,-0.7738929504950496,-0.3174190693069307,-0.0070093913861386,0.939008693069307,-0.0494033532673267,-0.0543489831683168,0.0270670792079208,47.59972295,,-0.0052376237623762,0.0737623762376237,1163.27,1168.0,-122.83505077,122.57574599,0.0,0.0,81.2,25.8,29.2,0.873,100,True
,35,3500.0,2025-09-28 21:00:03.492000+00:00,2025-09-28 14:00:03.492,00:00:08.5,75603492,0.0,0.0,0.0,0.0,0.0,0.0,0.0,0.0,0.0,0.0,1.0,0.0,0.0,0.0,0.0,0.001,0.0,0.0,0.0,0.0,0.0080926419354838,0.324681064516129,-0.7738963870967742,-0.315304064516129,-0.0093345851612903,0.939096258064516,-0.1537475225806451,0.0645422,0.0086332806451612,47.59972295,,-0.0056129032258064,0.0733870967741935,1163.27,1168.0,-122.83505077,122.57574599,0.0,0.0,81.2,25.8,29.2,0.873,100,True
,36,3600.0,2025-09-28 21:00:03.592000+00:00,2025-09-28 14:00:03.592,00:00:08.6,75603592,0.0,0.0,0.0,0.0,0.0,0.0,0.0,0.0,0.0,0.0,1.0,0.0,0.0,0.0,0.0,0.001,0.0,0.0,0.0,0.0,0.0084964895652173,0.3247016956521739,-0.7738924782608696,-0.3153900434782609,-0.0098719113043478,0.9391952608695652,-0.3283432173913043,0.0790481913043478,-0.0033988034782608,47.59972295,,-0.0054347826086956,0.073,1163.27,1168.0,-122.83505077,122.57574599,0.0,0.0,81.2,25.8,29.2,0.873,100,True
,37,3700.0,2025-09-28 21:00:03.692000+00:00,2025-09-28 14:00:03.692,00:00:08.7,75603692,0.0,0.0,0.0,0.0,0.0,0.0,0.0,0.0,0.0,0.0,1.0,0.0,0.0,0.0,0.0,0.0016896551724137,0.0,0.0,0.0,0.0,0.008977268275862,0.3250116206896551,-0.7739148620689655,-0.3180249310344827,-0.0112050096551724,0.9394214827586208,-0.419298,0.1452431448275862,0.0039038951724137,47.59972295,,-0.005,0.0736896551724137,1163.27,1168.0,-122.83505077,122.57574599,0.0,0.0,81.2,25.8,29.2,0.873,100,True
,38,3800.0,2025-09-28 21:00:03.792000+00:00,2025-09-28 14:00:03.792,00:00:08.8,75603792,0.0,0.0,0.0,0.0,0.0,0.0,0.0,0.0,0.0,0.0,1.0,0.0,0.0,0.0,0.0,0.0015,0.0,0.0,0.0,0.0,0.009239795,0.3250585,-0.7739635,-0.316395,-0.010064245,0.939391,-0.2039839,0.11921875,0.055551615,47.59972295,,-0.005,0.074,1163.27,1168.0,-122.83505077,122.523017675,0.0,0.0,81.2,25.8,29.25,0.873,100,True
,39,3900.0,2025-09-28 21:00:03.892000+00:00,2025-09-28 14:00:03.892,00:00:08.9,75603892,0.0,0.0,0.0,0.0,0.0,0.0,0.0,0.0,0.0,0.0,1.0,0.0,0.0,0.0,0.0,0.001,0.0,0.0,0.0,0.0,0.009299641375,0.3250575125,-0.774043475,-0.3147235875,-0.008197069125,0.939302925,0.00513592075,0.02540216125,0.0372857125,47.59972295,,-0.005,0.074,1163.27,1168.0,-122.83505077,122.47028936,0.0,0.0,81.2,25.8,29.26625,0.873,100,True
,40,4000.0,2025-09-28 21:00:03.992000+00:00,2025-09-28 14:00:03.992,00:00:09.0,75603992,0.0,0.0,0.0,0.0,0.0,0.0,0.0,0.0,0.0,0.0,1.0,0.0,0.0,0.0,0.0,0.001,0.0,0.0,0.0,0.0,0.009257372840909,0.3251364545454545,-0.7741740113636364,-0.3171337840909091,-0.0068770499999999,0.939280443181818,0.0739984884090909,-0.0216933602272727,-0.0328769397727272,47.59972295,,-0.0055340909090909,0.074,1163.27,1168.0,-122.83505077,122.47028936,0.0,0.0,81.2,25.8,29.2,0.873,100,True
,41,4100.0,2025-09-28 21:00:04.092000+00:00,2025-09-28 14:00:04.092,00:00:09.1,75604092,0.0,0.0,0.0,0.0,0.0,0.0,0.0,0.0,0.0,0.0,1.0,0.0,0.0,0.0,0.0,0.001,0.0,0.0,0.0,0.0,0.009349130597826,0.3250344510869565,-0.7742377119565217,-0.3169508858695652,-0.0072769141304347,0.939166,0.0775976554347826,-0.0659155733695652,0.0327410994565217,47.59972295,,-0.0056793478260869,0.074,1163.27,1168.0,-122.83505077,122.47028936,0.0,0.0,81.2,25.8,29.232065217391305,0.873,100,True
,42,4200.0,2025-09-28 21:00:04.192000+00:00,2025-09-28 14:00:04.192,00:00:09.2,75604192,0.0,0.0,0.0,0.0,0.0,0.0,0.0,0.0,0.0,0.0,1.0,0.0,0.0,0.0,0.0,0.001,0.0,0.0,0.0,0.0,0.0094099621195652,0.3249436902173913,-0.7742643423913044,-0.314155777173913,-0.0106780228260869,0.939066,-0.0360961489130434,-0.141896714673913,0.0434939798913043,47.59972295,,-0.0051358695652173,0.074,1163.27,1168.0,-122.83505077,122.47028936,0.0,0.0,81.2,25.8,29.286413043478262,0.873,100,True
,43,4300.0,2025-09-28 21:00:04.292000+00:00,2025-09-28 14:00:04.292,00:00:09.3,75604292,0.0,0.0,0.0,0.0,0.0,0.0,0.0,0.0,0.0,0.0,1.0,0.0,0.0,0.0,0.0,0.001,0.0,0.0,0.0,0.0,0.0094070616666666,0.3245401666666666,-0.774431,-0.3140036666666666,-0.0152042999999999,0.9387735,-0.1226299333333333,-0.2191695,0.0518771166666666,47.59972295,,-0.0058333333333333,0.0731666666666666,1163.27,1168.0,-122.83505077,122.47028936,0.0,0.0,81.2,25.8,29.3,0.873,100,True
,44,4400.0,2025-09-28 21:00:04.392000+00:00,2025-09-28 14:00:04.392,00:00:09.4,75604392,0.0,0.0,0.0,0.0,0.0,0.0,0.0,0.0,0.0,0.0,1.0,0.0,0.0,0.0,0.0,0.001,0.0,0.0,0.0,0.0,0.0093818724175824,0.3243976813186813,-0.7745601428571428,-0.3183835494505494,-0.011908445054945,0.9388264835164836,0.197134978021978,0.0310736373626373,0.0868997153846153,47.59972295,,-0.006,0.073,1163.27,1168.0,-122.83505077,122.47028936,0.0,0.0,81.2,25.8,29.3,0.873,100,True
,45,4500.0,2025-09-28 21:00:04.492000+00:00,2025-09-28 14:00:04.492,00:00:09.5,75604492,0.0,0.0,0.0,0.0,0.0,0.0,0.0,0.0,0.0,0.0,1.0,0.0,0.0,0.0,0.0,0.001,0.0,0.0,0.0,0.0,0.0093581915789473,0.3239443684210527,-0.7747238421052632,-0.3152868947368421,-0.0141433057894736,0.9388069473684212,0.1560093157894737,0.1152496526315789,0.0277058052631578,47.59972295,,-0.005,0.074,1163.27,1168.0,-122.83505077,122.47028936,0.0,0.0,81.2,25.8,29.3,0.873,100,True
,46,4600.0,2025-09-28 21:00:04.592000+00:00,2025-09-28 14:00:04.592,00:00:09.6,75604592,0.0,0.0,0.0,0.0,0.0,0.0,0.0,0.0,0.0,0.0,1.0,0.0,0.0,0.0,0.0,0.001,0.0,0.0,0.0,0.0,0.00903224,0.323627,-0.774955,-0.318147,-0.00808821,0.938842,0.359991,0.0494354,0.0770565,47.59972295,,-0.0051204819277108,0.074,1163.27,1168.0,-122.83505077,122.47028936,0.0,0.0,81.2,25.8,29.3,0.873,100,True
,47,4700.0,2025-09-28 21:00:04.692000+00:00,2025-09-28 14:00:04.692,00:00:09.7,75604692,0.0,0.0,0.0,0.0,0.0,0.0,0.0,0.0,0.0,0.0,1.0,0.0,0.0,0.0,0.0,0.001,0.0,0.0,0.0,0.0,0.0088464978021978,0.3235234505494505,-0.7750404505494505,-0.3162593736263736,-0.0082332,0.9388577252747252,0.2754167934065934,-0.0337745648351648,0.0644783868131868,47.59972295,,-0.006,0.074,1163.27,1168.0,-122.83505077,122.47028936,0.0,0.0,81.2,25.8,29.3,0.873,100,True
,48,4800.0,2025-09-28 21:00:04.792000+00:00,2025-09-28 14:00:04.792,00:00:09.8,75604792,0.0,0.0,0.0,0.0,0.0,0.0,0.0,0.0,0.0,0.0,1.0,0.0,0.0,0.0,0.0,0.001,0.0,0.0,0.0,0.0,0.0083444582417582,0.3231862197802198,-0.7752793956043956,-0.3112014835164834,-0.0070548632967032,0.9389539450549452,0.1049513516483516,-0.1753737736263736,0.0592615692307692,47.59966093901099,,-0.006,0.074,1163.27,1168.0,-122.83508919505492,122.79852774285716,0.0,0.0,81.2,25.8,29.3,0.873,100,True
,49,4900.0,2025-09-28 21:00:04.892000+00:00,2025-09-28 14:00:04.892,00:00:09.9,75604892,0.0,0.0,0.0,0.0,0.0,0.0,0.0,0.0,0.0,0.0,1.0,0.0,0.0,0.0,0.0,0.001,0.0,0.0,0.0,0.0,0.0082353152173913,0.3229683913043478,-0.7753578260869565,-0.3112442391304347,-0.0050077284782608,0.9390860652173914,0.1260611739130435,-0.1134066608695652,0.0763326913043478,47.5995662,,-0.0056739130434782,0.074,1163.27,1168.0,-122.8351479,123.30000305,0.0,0.0,81.2,25.767391304347825,29.3,0.8733260869565217,100,True
,50,5000.0,2025-09-28 21:00:04.992000+00:00,2025-09-28 14:00:04.992,00:00:10.0,75604992,0.0,0.0,0.0,0.0,0.0,0.0,0.0,0.0,0.0,0.0,1.0,0.0,0.0,0.0,0.0,0.001,0.0,0.0,0.0,0.0,0.0081761850561797,0.3227965955056179,-0.7754241910112359,-0.3132038651685393,-0.0062045474157303,0.9392000561797752,0.0749446,-0.1665223033707865,0.0340035460674157,47.5995662,,-0.0050786516853932,0.074,1163.27,1168.0,-122.8351479,123.30000305,0.0,0.0,81.2,25.707865168539325,29.3,0.874,100,True
,51,5100.0,2025-09-28 21:00:05.092000+00:00,2025-09-28 14:00:05.092,00:00:10.1,75605092,0.0,0.0,0.0,0.0,0.0,0.0,0.0,0.0,0.0,0.0,1.0,0.0,0.0,0.0,0.0,0.001,0.0,0.0,0.0,0.0,0.0078105656818181,0.3226362045454545,-0.7756780454545454,-0.3141036818181818,-0.0128866295454545,0.939552181818182,0.0761959681818181,-0.1592799318181818,0.0481935454545454,47.5995662,,-0.006,0.0737954545454545,1163.27,1168.0,-122.8351479,123.30000305,0.0,0.0,81.2,25.8,29.3,0.874,100,True
,52,5200.0,2025-09-28 21:00:05.192000+00:00,2025-09-28 14:00:05.192,00:00:10.2,75605192,0.0,0.0,0.0,0.0,0.0,0.0,0.0,0.0,0.0,0.0,1.0,0.0,0.0,0.0,0.0,0.001,0.0,0.0,0.0,0.0,0.0075724737931034,0.322515448275862,-0.7758399655172413,-0.3147204137931034,-0.0073372103448275,0.9397610689655173,0.1312632965517241,0.0233382068965517,0.121623448275862,47.5995662,,-0.0056551724137931,0.073,1163.27,1168.0,-122.8351479,123.30000305,0.0,0.0,81.2,25.8,29.3,0.874,100,True
,53,5300.0,2025-09-28 21:00:05.292000+00:00,2025-09-28 14:00:05.292,00:00:10.3,75605292,0.0,0.0,0.0,0.0,0.0,0.0,0.0,0.0,0.0,0.0,1.0,0.0,0.0,0.0,0.0,0.001,0.0,0.0,0.0,0.0,0.0073129210638297,0.3224798829787234,-0.775976914893617,-0.3107941702127659,-0.0039249321276595,0.9399817127659574,0.1656458861702127,-0.1593312021276595,0.1986631702127659,47.5995662,,-0.005,0.073,1163.27,1168.0,-122.8351479,123.30000305,0.0,0.0,81.2,25.754255319148932,29.3,0.874,100,True
,54,5400.0,2025-09-28 21:00:05.392000+00:00,2025-09-28 14:00:05.392,00:00:10.4,75605392,0.0,0.0,0.0,0.0,0.0,0.0,0.0,0.0,0.0,0.0,1.0,0.0,0.0,0.0,0.0,0.001,0.0,0.0,0.0,0.0,0.0072154097701149,0.3224282528735632,-0.7760881379310345,-0.3126719540229885,-0.0071231736781609,0.9400871954022988,0.1291266183908045,-0.1198899103448275,0.2000113103448275,47.5995662,,-0.005,0.0735632183908046,1163.27,1168.0,-122.8351479,123.30000305,0.0,0.0,81.2,25.7,29.3,0.874,100,True
,55,5500.0,2025-09-28 21:00:05.492000+00:00,2025-09-28 14:00:05.492,00:00:10.5,75605492,0.0,0.0,0.0,0.0,0.0,0.0,0.0,0.0,0.0,0.0,1.0,0.0,0.0,0.0,0.0,0.001,0.0,0.0,0.0,0.0,0.0070810365979381,0.3223772989690722,-0.7762075051546391,-0.3149731546391752,-0.004646780927835,0.9401354639175258,0.108430812371134,-0.045332,0.1254537731958762,47.5995662,,-0.0056391752577319,0.073360824742268,1163.27,1168.0,-122.8351479,123.30000305,0.0,0.0,81.2,25.763917525773195,29.3,0.874,100,True
,56,5600.0,2025-09-28 21:00:05.592000+00:00,2025-09-28 14:00:05.592,00:00:10.6,75605592,0.0,0.0,0.0,0.0,0.0,0.0,0.0,0.0,0.0,0.0,1.0,0.0,0.0,0.0,0.0,0.001,0.0,0.0,0.0,0.0,0.0069280999999999,0.3223838795180723,-0.7763703855421686,-0.3155257710843373,-0.0029204843373493,0.9401756626506024,0.0264528457831325,0.0345549819277108,0.1064726987951807,47.5995662,,-0.006,0.0737831325301204,1163.27,1168.0,-122.8351479,123.30000305,0.0,0.0,81.2,25.8,29.3,0.874,100,True
,57,5700.0,2025-09-28 21:00:05.692000+00:00,2025-09-28 14:00:05.692,00:00:10.7,75605692,0.0,0.0,0.0,0.0,0.0,0.0,0.0,0.0,0.0,0.0,1.0,0.0,0.0,0.0,0.0,0.001,0.0,0.0,0.0,0.0,0.0068798206666666,0.3223315111111111,-0.7764978444444444,-0.3172911111111111,-0.0102663911111111,0.9401244222222224,-0.0633514822222222,0.0485051066666666,-0.0138431,47.5995662,,-0.006,0.074,1163.27,1168.0,-122.8351479,123.30000305,0.0,0.0,81.2,25.70888888888889,29.3,0.874,100,True
,58,5800.0,2025-09-28 21:00:05.792000+00:00,2025-09-28 14:00:05.792,00:00:10.8,75605792,0.0,0.0,0.0,0.0,0.0,0.0,0.0,0.0,0.0,0.0,1.0,0.0,0.0,0.0,0.0,0.001,0.0,0.0,0.0,0.0,0.006932683877551,0.3223804489795918,-0.7765924285714286,-0.3166631836734694,-0.0106565510204081,0.9401678163265306,0.0660314102040816,-0.0167746367346938,0.0289505285714285,47.599713353061226,,-0.0050612244897959,0.074,1163.27,1168.0,-122.83505671673468,122.17399035081634,0.0,0.0,81.2,25.7,29.3,0.874,100,True
,59,5900.0,2025-09-28 21:00:05.892000+00:00,2025-09-28 14:00:05.892,00:00:10.9,75605892,0.0,0.0,0.0,0.0,0.0,0.0,0.0,0.0,0.0,0.0,1.0,0.0,0.0,0.0,0.0,0.001,0.0,0.0,0.0,0.0,0.00680740625,0.322422625,-0.7767505,-0.315697625,-0.00876241875,0.9401565,0.0905436,0.1197633749999999,0.108761375,47.59972295,,-0.005875,0.074125,1163.27,1168.0,-122.83505077,122.10055474,0.0,0.0,81.2,25.7,29.3,0.874,100,True
,60,6000.0,2025-09-28 21:00:05.992000+00:00,2025-09-28 14:00:05.992,00:00:11.0,75605992,0.0,0.0,0.0,0.0,0.0,0.0,0.0,0.0,0.0,0.0,1.0,0.0,0.0,0.0,0.0,0.001,0.0,0.0,0.0,0.0,0.0066962128244274,0.3225376564885496,-0.7768541221374046,-0.3150547328244275,-0.0087569454198473,0.9401464809160304,0.1576592366412213,0.0862235648854961,0.1732874427480916,47.59972295,,-0.0051221374045801,0.0748778625954198,1163.27,1168.0,-122.83505077,122.10055474,0.0,0.0,81.2,25.7,29.3,0.874,100,True
,61,6100.0,2025-09-28 21:00:06.092000+00:00,2025-09-28 14:00:06.092,00:00:11.1,75606092,0.0,0.0,0.0,0.0,0.0,0.0,0.0,0.0,0.0,0.0,1.0,0.0,0.0,0.0,0.0,0.001,0.0,0.0,0.0,0.0,0.0065797929770992,0.3225292595419847,-0.7769548854961833,-0.3148593129770992,-0.0035191667938931,0.9400182366412214,0.1623294656488549,-0.1269604045801526,0.2287027099236641,47.59972295,,-0.0058854961832061,0.0741145038167939,1163.27,1168.0,-122.83505077,122.10055474,0.0,0.0,81.2,25.7,29.3,0.874,100,True
,62,6200.0,2025-09-28 21:00:06.192000+00:00,2025-09-28 14:00:06.192,00:00:11.2,75606192,0.0,0.0,0.0,0.0,0.0,0.0,0.0,0.0,0.0,0.0,1.0,0.0,0.0,0.0,0.0,0.001,0.0,0.0,0.0,0.0,0.0064379173563218,0.3225289770114942,-0.7771048275862069,-0.3156799999999999,-0.0046838494252873,0.9399315862068964,0.0148175517241379,-0.0918233678160919,0.1120181034482758,47.59972295,,-0.006,0.074,1163.27,1168.0,-122.83505077,122.10055474,0.0,0.0,81.2,25.7,29.3,0.874,100,True
ride_31,63,6300.0,2025-09-28 21:00:06.292000+00:00,2025-09-28 14:00:06.292,00:00:11.3,75606292,0.0,0.0,0.0,0.0,0.0,0.0,0.0,0.0,0.0,0.0,1.0,0.0,0.0,0.0,0.0,0.001,0.0,0.0,0.0,0.0,0.00650373,0.322376,-0.777174,-0.314113,-0.00666802,0.939874,-0.0584018,0.0498111,0.113762,47.59972295,0.0,-0.005,0.074,1163.27,1168.0,-122.83505077,122.10055474,0.0,0.0,81.2,25.7,29.3,0.874,100,True
,64,6400.0,2025-09-28 21:00:06.392000+00:00,2025-09-28 14:00:06.392,00:00:11.4,75606392,0.0,0.0,0.0,0.0,0.0,0.0,0.0,0.0,0.0,0.0,1.0,0.0,0.0,0.0,0.0,0.001,0.0,0.0,0.0,0.0,0.006628889787234,0.3225688404255319,-0.7772562127659575,-0.3157183404255319,-0.0112601053191489,0.940025744680851,0.0076855973404255,0.0776197340425531,0.0658140691489361,47.59972295,,-0.006,0.074,1163.27,1168.0,-122.83505077,122.10055474,0.0,0.0,81.2,25.7,29.3,0.874,100,True
,65,6500.0,2025-09-28 21:00:06.492000+00:00,2025-09-28 14:00:06.492,00:00:11.5,75606492,0.0,0.0,0.0,0.0,0.0,0.0,0.0,0.0,0.0,0.0,1.0,0.0,0.0,0.0,0.0,0.001,0.0,0.0,0.0,0.0,0.006649035,0.3226895555555555,-0.7773704444444445,-0.3160373888888889,-0.0132783638888888,0.9400602777777778,0.0544889055555555,0.1124482222222222,0.1539682777777777,47.59972295,,-0.0057222222222222,0.0737222222222222,1163.27,1168.0,-122.83505077,122.10055474,0.0,0.0,81.2,25.7,29.3,0.874,100,True
,66,6600.0,2025-09-28 21:00:06.592000+00:00,2025-09-28 14:00:06.592,00:00:11.6,75606592,0.0,0.0,0.0,0.0,0.0,0.0,0.0,0.0,0.0,0.0,1.0,0.0,0.0,0.0,0.0,0.001,0.0,0.0,0.0,0.0,0.0065954275268817,0.3227573333333333,-0.7774957526881721,-0.3149998387096774,-0.0043677489247311,0.939957440860215,0.0960058607526881,-0.0642481473118279,0.0749348483870967,47.59972295,,-0.0053763440860215,0.0733763440860215,1163.27,1168.0,-122.83505077,122.10055474,0.0,0.0,81.2,25.7,29.3,0.874,100,True
,67,6700.0,2025-09-28 21:00:06.692000+00:00,2025-09-28 14:00:06.692,00:00:11.7,75606692,0.0,0.0,0.0,0.0,0.0,0.0,0.0,0.0,0.0,0.0,1.0,0.0,0.0,0.0,0.0,0.001,0.0,0.0,0.0,0.0,0.006452666,0.3227146666666666,-0.7776404,-0.3139159333333333,-0.0023625453333333,0.9398500666666668,-0.0598709706666666,-0.0209030733333333,0.0443415666666666,47.59972295,,-0.006,0.0735333333333333,1163.27,1168.0,-122.83505077,122.10055474,0.0,0.0,81.2,25.7,29.3,0.874,100,True
,68,6800.0,2025-09-28 21:00:06.792000+00:00,2025-09-28 14:00:06.792,00:00:11.8,75606792,0.0,0.0,0.0,0.0,0.0,0.0,0.0,0.0,0.0,0.0,1.0,0.0,0.0,0.0,0.0,0.001,0.0,0.0,0.0,0.0,0.0062998141791044,0.3227504776119402,-0.7777810746268657,-0.309449328358209,-0.0040285773134328,0.9398700149253733,0.0281094626865671,-0.0481448373134328,0.0369011746268656,47.59972295,,-0.0056119402985074,0.073,1163.27,1168.0,-122.83505077,122.03694911223882,0.0,0.0,81.2,25.7,29.3,0.874,100,True
,69,6900.0,2025-09-28 21:00:06.892000+00:00,2025-09-28 14:00:06.892,00:00:11.9,75606892,0.0,0.0,0.0,0.0,0.0,0.0,0.0,0.0,0.0,0.0,1.0,0.0,0.0,0.0,0.0,0.001,0.0,0.0,0.0,0.0,0.0062465282022471,0.3228872247191011,-0.7778894494382023,-0.3094587415730337,-0.0050809277528089,0.9399539438202248,0.2289657820224719,-0.1334829584269663,0.0343643516853932,47.59972295,,-0.0052022471910112,0.0734044943820224,1163.27,1168.0,-122.83505077,121.93664793,0.0,0.0,81.2,25.7,29.3,0.874,100,True
,70,7000.0,2025-09-28 21:00:06.992000+00:00,2025-09-28 14:00:06.992,00:00:12.0,75606992,0.0,0.0,0.0,0.0,0.0,0.0,0.0,0.0,0.0,0.0,1.0,0.0,0.0,0.0,0.0,0.001,0.0,0.0,0.0,0.0,0.00628139,0.323038,-0.778049,-0.313201,-0.0066187,0.940005,0.0113302,-0.300233,0.111226,47.59972295,,-0.0056813186813186,0.0746813186813186,1163.27,1168.0,-122.83505077,121.93664793,0.0,0.0,81.2,25.7,29.3,0.874,100,True
,71,7100.0,2025-09-28 21:00:07.092000+00:00,2025-09-28 14:00:07.092,00:00:12.1,75607092,0.0,0.0,0.0,0.0,0.0,0.0,0.0,0.0,0.0,0.0,1.0,0.0,0.0,0.0,0.0,0.001,0.0,0.0,0.0,0.0,0.0061573102061855,0.3229721855670103,-0.7781171649484536,-0.3121084020618557,-0.0052874150515463,0.9399309587628866,0.1800301422680412,-0.1901361092783505,0.1503565979381443,47.59972295,,-0.005,0.074,1163.27,1168.0,-122.83505077,121.93664793,0.0,0.0,81.2,25.7,29.3,0.874,100,True
,72,7200.0,2025-09-28 21:00:07.192000+00:00,2025-09-28 14:00:07.192,00:00:12.2,75607192,0.0,0.0,0.0,0.0,0.0,0.0,0.0,0.0,0.0,0.0,1.0,0.0,0.0,0.0,0.0,0.001,0.0,0.0,0.0,0.0,0.00545733625,0.3226952375,-0.7783916125,-0.3124573875,-0.0021951124999999,0.9396760875,0.3999504,-0.0557687637499999,0.14314286625,47.59972295,,-0.005,0.074,1163.27,1168.0,-122.83505077,121.93664793,0.0,0.0,81.2,25.7,29.3,0.874,100,True
,73,7300.0,2025-09-28 21:00:07.292000+00:00,2025-09-28 14:00:07.292,00:00:12.3,75607292,0.0,0.0,0.0,0.0,0.0,0.0,0.0,0.0,0.0,0.0,1.0,0.0,0.0,0.0,0.0,0.001,0.0,0.0,0.0,0.0,0.0049191306521739,0.322502036231884,-0.7785811739130435,-0.3138791956521739,-0.0005621144637681,0.9395951594202898,-0.0850610217391304,0.0938953398550724,-0.0396634123188405,47.59972295,,-0.0054420289855072,0.0735579710144927,1163.27,1168.0,-122.83505077,121.93664793,0.0,0.0,81.2,25.7,29.3,0.874,100,True
,74,7400.0,2025-09-28 21:00:07.392000+00:00,2025-09-28 14:00:07.392,00:00:12.4,75607392,0.0,0.0,0.0,0.0,0.0,0.0,0.0,0.0,0.0,0.0,1.0,0.0,0.0,0.0,0.0,0.001,0.0,0.0,0.0,0.0,0.0050288472142857,0.3225465285714285,-0.7785838285714286,-0.3135961857142857,-0.0002902561571428,0.9397208,-0.6229309571428572,0.3383251071428571,-0.1794791857142857,47.59972295,,-0.0058357142857142,0.0731642857142857,1163.27,1168.0,-122.83505077,121.93664793,0.0,0.0,81.2,25.7,29.3,0.874,100,True
,75,7500.0,2025-09-28 21:00:07.492000+00:00,2025-09-28 14:00:07.492,00:00:12.5,75607492,0.0,0.0,0.0,0.0,0.0,0.0,0.0,0.0,0.0,0.0,1.0,0.0,0.0,0.0,0.0,0.001,0.0,0.0,0.0,0.0,0.0058111829285714,0.3228879571428572,-0.7784352571428572,-0.3152404714285714,-0.0027179090142857,0.9399808,-0.5189438142857142,0.3887429642857143,-0.1389234714285714,47.59972295,,-0.0051214285714285,0.0738785714285714,1163.27,1168.0,-122.83505077,121.93664793,0.0,0.0,81.2,25.7,29.3,0.874,100,True
,76,7600.0,2025-09-28 21:00:07.592000+00:00,2025-09-28 14:00:07.592,00:00:12.6,75607592,0.0,0.0,0.0,0.0,0.0,0.0,0.0,0.0,0.0,0.0,1.0,0.0,0.0,0.0,0.0,0.001,0.0,0.0,0.0,0.0,0.0062439285714285,0.3231693095238095,-0.7784086825396825,-0.3160930952380952,-0.0102315827777777,0.9400026031746032,-0.1636034238095238,0.168362123015873,0.0258508333333333,47.59972295,,-0.005,0.074,1163.27,1168.0,-122.83505077,121.93664793,0.0,0.0,81.2,25.7,29.3,0.874,100,True
,77,7700.0,2025-09-28 21:00:07.692000+00:00,2025-09-28 14:00:07.692,00:00:12.7,75607692,0.0,0.0,0.0,0.0,0.0,0.0,0.0,0.0,0.0,0.0,1.0,0.0,0.0,0.0,0.0,0.001,0.0,0.0,0.0,0.0,0.0063516408333333,0.3233384374999999,-0.7784954791666666,-0.3158971875,-0.0143070645833333,0.939941125,0.0641133083333333,0.0217095666666666,0.0754836895833333,47.59972295,,-0.005,0.074,1163.27,1168.0,-122.83505077,121.93664793,0.0,0.0,81.23958333333333,25.7,29.3,0.874,100,True
,78,7800.0,2025-09-28 21:00:07.792000+00:00,2025-09-28 14:00:07.792,00:00:12.8,75607792,0.0,0.0,0.0,0.0,0.0,0.0,0.0,0.0,0.0,0.0,1.0,0.0,0.0,0.0,0.0,0.001,0.0,0.0,0.0,0.0,0.006204318018018,0.3234096936936936,-0.7786654234234235,-0.3144837567567567,-0.0130230308108108,0.9398560990990992,0.1379431522522522,-0.03730769009009,0.0436139477477477,47.59972295,,-0.005,0.074,1163.27,1168.0,-122.83505077,121.9131614073874,0.0,0.0,81.3,25.7,29.3,0.874,100,True
,79,7900.0,2025-09-28 21:00:07.892000+00:00,2025-09-28 14:00:07.892,00:00:12.9,75607892,0.0,0.0,0.0,0.0,0.0,0.0,0.0,0.0,0.0,0.0,1.0,0.0,0.0,0.0,0.0,0.001,0.0,0.0,0.0,0.0,0.0056393020560747,0.3233322429906542,-0.7789422242990653,-0.3096098037383177,0.0010633594392523,0.9397894485981308,0.0815092663551401,-0.1544043084112149,0.1685944785046729,47.59972295,,-0.005,0.074,1163.27,1168.0,-122.83505077,121.73610916,0.0,0.0,81.29813084112149,25.7,29.3,0.874,100,True
,80,8000.0,2025-09-28 21:00:07.992000+00:00,2025-09-28 14:00:07.992,00:00:13.0,75607992,0.0,0.0,0.0,0.0,0.0,0.0,0.0,0.0,0.0,0.0,1.0,0.0,0.0,0.0,0.0,0.001,0.0,0.0,0.0,0.0,0.005545404859813,0.3233443925233645,-0.7790534392523364,-0.3151499906542056,-0.0068016685981308,0.939811878504673,-0.2020424158878505,0.1048302710280373,-0.0718815962616822,47.59972295,,-0.005,0.074,1163.27,1168.0,-122.83505077,121.73610916,0.0,0.0,81.20467289719626,25.7,29.3,0.874,100,True
,81,8100.0,2025-09-28 21:00:08.092000+00:00,2025-09-28 14:00:08.092,00:00:13.1,75608092,0.0,0.0,0.0,0.0,0.0,0.0,0.0,0.0,0.0,0.0,1.0,0.0,0.0,0.0,0.0,0.001,0.0,0.0,0.0,0.0,0.0060480806382978,0.3237614787234043,-0.7790510425531915,-0.3111916489361702,-0.007602479574468,0.940025180851064,-0.4032779787234042,0.3281088191489361,-0.0539467202127659,47.59972295,,-0.006,0.074,1163.27,1168.0,-122.83505077,121.73610916,0.0,0.0,81.29255319148936,25.7,29.3,0.874,100,True
,82,8200.0,2025-09-28 21:00:08.192000+00:00,2025-09-28 14:00:08.192,00:00:13.2,75608192,0.0,0.0,0.0,0.0,0.0,0.0,0.0,0.0,0.0,0.0,1.0,0.0,0.0,0.0,0.0,0.001,0.0,0.0,0.0,0.0,0.0064501658,0.3241344599999999,-0.77907284,-0.31648082,-0.0086617092999999,0.93999407,-0.06388241,0.24799904,0.12134902,47.59972295,,-0.00587,0.0738699999999999,1163.27,1168.0,-122.83505077,121.73610916,0.0,0.0,81.21300000000001,25.7,29.3,0.874,100,True
,83,8300.0,2025-09-28 21:00:08.292000+00:00,2025-09-28 14:00:08.292,00:00:13.3,75608292,0.0,0.0,0.0,0.0,0.0,0.0,0.0,0.0,0.0,0.0,1.0,0.0,0.0,0.0,0.0,0.001,0.0,0.0,0.0,0.0,0.0065213148888888,0.3243502722222222,-0.7791421833333334,-0.3160931,-0.0052673774944444,0.9398376777777776,0.3510003277777778,-0.2593770722222222,0.1512785166666666,47.59972295,,-0.0050722222222222,0.073,1163.27,1168.0,-122.83505077,121.73610916,0.0,0.0,81.3,25.7,29.3,0.874,100,True
,84,8400.0,2025-09-28 21:00:08.392000+00:00,2025-09-28 14:00:08.392,00:00:13.4,75608392,0.0,0.0,0.0,0.0,0.0,0.0,0.0,0.0,0.0,0.0,1.0,0.0,0.0,0.0,0.0,0.001,0.0,0.0,0.0,0.0,0.0064217371111111,0.3243908277777778,-0.7792205166666667,-0.3163631,-0.0020139736055555,0.9397121222222222,0.2347797722222222,0.0518223722222222,0.1582901833333333,47.59972295,,-0.0056277777777777,0.073,1163.27,1168.0,-122.83505077,121.73610916,0.0,0.0,81.3,25.7,29.3,0.874,100,True
,85,8500.0,2025-09-28 21:00:08.492000+00:00,2025-09-28 14:00:08.492,00:00:13.5,75608492,0.0,0.0,0.0,0.0,0.0,0.0,0.0,0.0,0.0,0.0,1.0,0.0,0.0,0.0,0.0,0.001,0.0,0.0,0.0,0.0,0.0062799087804878,0.3244409390243902,-0.7793373902439025,-0.3160671097560975,-0.0017883310609756,0.9395161219512196,0.1263871609756097,0.1473869207317073,0.1385418414634146,47.59972295,,-0.0055975609756097,0.0734024390243902,1163.27,1168.0,-122.83505077,121.73610916,0.0,0.0,81.3,25.7,29.3,0.874,100,True
,86,8600.0,2025-09-28 21:00:08.592000+00:00,2025-09-28 14:00:08.592,00:00:13.6,75608592,0.0,0.0,0.0,0.0,0.0,0.0,0.0,0.0,0.0,0.0,1.0,0.0,0.0,0.0,0.0,0.001,0.0,0.0,0.0,0.0,0.00602864,0.3245824090909091,-0.7795098863636364,-0.3158334545454545,-0.00545527,0.9393036363636365,0.0810624,0.006733525,0.1019663636363636,47.59972295,,-0.005,0.074,1163.27,1168.0,-122.83505077,121.73610916,0.0,0.0,81.3,25.7,29.3,0.874,100,True
,87,8700.0,2025-09-28 21:00:08.692000+00:00,2025-09-28 14:00:08.692,00:00:13.7,75608692,0.0,0.0,0.0,0.0,0.0,0.0,0.0,0.0,0.0,0.0,1.0,0.0,0.0,0.0,0.0,0.001,0.0,0.0,0.0,0.0,0.0058073816494845,0.3248188144329897,-0.7796533505154639,-0.3155929278350515,-0.0071447052577319,0.9392476288659792,0.0525463381443299,0.118123643298969,0.0895636597938144,47.59972295,,-0.005,0.074,1163.27,1168.0,-122.83505077,121.73610916,0.0,0.0,81.3,25.7,29.3,0.874,100,True
,88,8800.0,2025-09-28 21:00:08.792000+00:00,2025-09-28 14:00:08.792,00:00:13.8,75608792,0.0,0.0,0.0,0.0,0.0,0.0,0.0,0.0,0.0,0.0,1.0,0.0,0.0,0.0,0.0,0.001,0.0,0.0,0.0,0.0,0.0059960939240506,0.3251059873417721,-0.7797320886075949,-0.3129155443037975,-0.0074163264556962,0.9392403544303798,-0.1667261417721519,0.3011067341772152,-0.0082876329113924,47.59972295,,-0.005,0.0737215189873417,1163.27,1168.0,-122.83505077,121.75451016050631,0.0,0.0,81.27215189873418,25.7,29.3,0.874,100,True
,89,8900.0,2025-09-28 21:00:08.892000+00:00,2025-09-28 14:00:08.892,00:00:13.9,75608892,0.0,0.0,0.0,0.0,0.0,0.0,0.0,0.0,0.0,0.0,1.0,0.0,0.0,0.0,0.0,0.001,0.0,0.0,0.0,0.0,0.0066973944086021,0.3251541612903225,-0.7796812580645162,-0.3169783010752688,-0.0029300394623655,0.9389641827956988,-0.2912522795698924,-0.1133459032258064,-0.0152626559139784,47.59972295,,-0.0054623655913978,0.073,1163.27,1168.0,-122.83505077,121.80218548,0.0,0.0,81.2,25.7,29.3,0.874,100,True
,90,9000.0,2025-09-28 21:00:08.992000+00:00,2025-09-28 14:00:08.992,00:00:14.0,75608992,0.0,0.0,0.0,0.0,0.0,0.0,0.0,0.0,0.0,0.0,1.0,0.0,0.0,0.0,0.0,0.001,0.0,0.0,0.0,0.0,0.0070798823404255,0.3249483617021276,-0.7796750638297872,-0.317101659574468,-0.003781434680851,0.938703744680851,-0.0910424042553191,-0.1512129468085106,0.1186828085106383,47.59972295,,-0.0054680851063829,0.073531914893617,1163.27,1168.0,-122.83505077,121.80218548,0.0,0.0,81.2531914893617,25.7,29.3,0.874,100,True
,91,9100.0,2025-09-28 21:00:09.092000+00:00,2025-09-28 14:00:09.092,00:00:14.1,75609092,0.0,0.0,0.0,0.0,0.0,0.0,0.0,0.0,0.0,0.0,1.0,0.0,0.0,0.0,0.0,0.001,0.0,0.0,0.0,0.0,0.007181534117647,0.3246164117647059,-0.7797564705882353,-0.3161489411764706,-0.0095271764705882,0.9385262352941176,0.1163967647058823,-0.0776901764705882,0.1286657647058823,47.59972295,,-0.005,0.074,1163.27,1168.0,-122.83505077,121.80218548,0.0,0.0,81.3,25.7,29.3,0.874,100,True
,92,9200.0,2025-09-28 21:00:09.192000+00:00,2025-09-28 14:00:09.192,00:00:14.2,75609192,0.0,0.0,0.0,0.0,0.0,0.0,0.0,0.0,0.0,0.0,1.0,0.0,0.0,0.0,0.0,0.001,0.0,0.0,0.0,0.0,0.0070449666666666,0.3243212222222222,-0.7799104444444445,-0.3159933333333333,-0.01399446,0.9385064444444444,0.3027653111111111,-0.0510597777777777,0.1377622,47.59972295,,-0.0052222222222222,0.074,1163.27,1168.0,-122.83505077,121.80218548,0.0,0.0,81.3,25.7,29.3,0.874,100,True
,93,9300.0,2025-09-28 21:00:09.292000+00:00,2025-09-28 14:00:09.292,00:00:14.3,75609292,0.0,0.0,0.0,0.0,0.0,0.0,0.0,0.0,0.0,0.0,1.0,0.0,0.0,0.0,0.0,0.001,0.0,0.0,0.0,0.0,0.0066060110869565,0.3242120869565217,-0.7801843913043478,-0.3164854130434782,-0.0035946464130434,0.9387861086956522,0.0563287141304347,0.1696845869565217,0.0795534434782608,47.59972295,,-0.0056739130434782,0.074,1163.27,1168.0,-122.83505077,121.80218548,0.0,0.0,81.3,25.7,29.3,0.874,100,True
,94,9400.0,2025-09-28 21:00:09.392000+00:00,2025-09-28 14:00:09.392,00:00:14.4,75609392,0.0,0.0,0.0,0.0,0.0,0.0,0.0,0.0,0.0,0.0,1.0,0.0,0.0,0.0,0.0,0.001,0.0,0.0,0.0,0.0,0.0066615214942528,0.3245074137931034,-0.7802510459770114,-0.3152609770114942,-0.0062185302183908,0.9392484022988504,0.0410144881609195,-0.0686386781609195,0.0973662103448275,47.59972295,,-0.0054367816091954,0.0735632183908046,1163.27,1168.0,-122.83505077,121.80218548,0.0,0.0,81.3,25.7,29.3,0.874,100,True
,95,9500.0,2025-09-28 21:00:09.492000+00:00,2025-09-28 14:00:09.492,00:00:14.5,75609492,0.0,0.0,0.0,0.0,0.0,0.0,0.0,0.0,0.0,0.0,1.0,0.0,0.0,0.0,0.0,0.001,0.0,0.0,0.0,0.0,0.0066373556842105,0.3245373684210526,-0.7803815684210527,-0.319605,-0.0092789611578947,0.9393508631578948,0.2369209705263158,0.0878418210526315,0.1577340947368421,47.59972295,,-0.0054631578947368,0.073,1163.27,1168.0,-122.83505077,121.80218548,0.0,0.0,81.3,25.7,29.3,0.874,100,True
,96,9600.0,2025-09-28 21:00:09.592000+00:00,2025-09-28 14:00:09.592,00:00:14.6,75609592,0.0,0.0,0.0,0.0,0.0,0.0,0.0,0.0,0.0,0.0,1.0,0.0,0.0,0.0,0.0,0.001,0.0,0.0,0.0,0.0,0.00656361,0.3247447368421053,-0.7805680526315789,-0.3177871052631579,-0.0024574790526315,0.939524,0.0673481578947368,0.1198077368421052,0.1131079894736842,47.59972295,,-0.0054210526315789,0.0734210526315789,1163.27,1168.0,-122.83505077,121.80218548,0.0,0.0,81.3,25.7,29.3,0.874,100,True
,97,9700.0,2025-09-28 21:00:09.692000+00:00,2025-09-28 14:00:09.692,00:00:14.7,75609692,0.0,0.0,0.0,0.0,0.0,0.0,0.0,0.0,0.0,0.0,1.0,0.0,0.0,0.0,0.0,0.001,0.0,0.0,0.0,0.0,0.006932525234375,0.324803546875,-0.7806864375,-0.3152318203124999,-0.0011279354296875,0.939461765625,-0.3810380859375,-0.1447488281249999,0.0737876953125,47.59972295,,-0.0058203125,0.074,1163.27,1168.0,-122.83505077,121.80054555484377,0.0,0.0,81.3,25.7,29.3,0.874,100,True
,98,9800.0,2025-09-28 21:00:09.792000+00:00,2025-09-28 14:00:09.792,00:00:14.8,75609792,0.0,0.0,0.0,0.0,0.0,0.0,0.0,0.0,0.0,0.0,1.0,0.0,0.0,0.0,0.0,0.001,0.0,0.0,0.0,0.0,0.008317939296875,0.324636359375,-0.7806926875,-0.3168310390625,-0.0094783112109375,0.939047703125,-0.5444732421875,-1.2929785156249998,0.0998794140625,47.59972295,,-0.0050390625,0.074,1163.27,1168.0,-122.83505077,121.79341544546874,0.0,0.0,81.3,25.7,29.3,0.874,100,True
,99,9900.0,2025-09-28 21:00:09.892000+00:00,2025-09-28 14:00:09.892,00:00:14.9,75609892,0.0,0.0,0.0,0.0,0.0,0.0,0.0,0.0,0.0,0.0,1.0,0.0,0.0,0.0,0.0,0.001,0.0,0.0,0.0,0.0,0.0086898822222222,0.3247747777777777,-0.7806727222222223,-0.3147024444444444,-0.0111734944444444,0.9394928333333332,-0.0518118388888888,0.7828091666666667,-0.0856159444444444,47.59972295,,-0.006,0.0721111111111111,1163.27,1168.0,-122.83505077,121.79305894,0.0,0.0,81.3,25.7,29.3,0.874,100,True
,100,10000.0,2025-09-28 21:00:09.992000+00:00,2025-09-28 14:00:09.992,00:00:15.0,75609992,0.0,0.0,0.0,0.0,0.0,0.0,0.0,0.0,0.0,0.0,1.0,0.0,0.0,0.0,0.0,0.001,0.0,0.0,0.0,0.0,0.0083997028723404,0.3220131063829787,-0.7806565000000001,-0.3109527021276596,-0.0128815819148936,0.9382893723404256,0.3610993936170212,0.2802221276595744,0.2151425957446808,47.59972295,,-0.006,0.074,1163.27,1168.0,-122.83505077,121.79305894,0.0,0.0,81.3,25.7,29.3,0.874,100,True
,101,10100.0,2025-09-28 21:00:10.092000+00:00,2025-09-28 14:00:10.092,00:00:15.1,75610092,0.0,0.0,0.0,0.0,0.0,0.0,0.0,0.0,0.0,0.0,1.0,0.0,0.0,0.0,0.0,0.001,0.0,0.0,0.0,0.0,0.0080043177419354,0.3231990967741935,-0.7807973548387097,-0.3177400967741935,-0.0048793948387096,0.9399929032258064,0.2524933161290322,0.7031921290322581,0.1886061258064516,47.59972295,,-0.005774193548387,0.073774193548387,1163.27,1168.0,-122.83505077,121.79305894,0.0,0.0,81.3,25.7,29.3,0.874,100,True
,102,10200.0,2025-09-28 21:00:10.192000+00:00,2025-09-28 14:00:10.192,00:00:15.2,75610192,0.0,0.0,0.0,0.0,0.0,0.0,0.0,0.0,0.0,0.0,1.0,0.0,0.0,0.0,0.0,0.001,0.0,0.0,0.0,0.0,0.0078282332352941,0.3237345588235294,-0.7808962352941176,-0.3166733529411764,-0.0137477235294117,0.9405308823529412,0.0941595235294117,0.2656911176470588,0.0836987352941176,47.59972295,,-0.005,0.0732058823529411,1163.27,1168.0,-122.83505077,121.79305894,0.0,0.0,81.3,25.7,29.3,0.874,100,True
,103,10300.0,2025-09-28 21:00:10.292000+00:00,2025-09-28 14:00:10.292,00:00:15.3,75610292,0.0,0.0,0.0,0.0,0.0,0.0,0.0,0.0,0.0,0.0,1.0,0.0,0.0,0.0,0.0,0.001,0.0,0.0,0.0,0.0,0.0077633876470588,0.3240294117647058,-0.7809756470588235,-0.3240174705882352,-0.0218031647058823,0.9406411764705882,0.1409349647058823,-0.7127691764705884,0.0379381470588235,47.59972295,,-0.005,0.0739411764705882,1163.27,1168.0,-122.83505077,121.79305894,0.0,0.0,81.3,25.7,29.3,0.874,100,True
,104,10400.0,2025-09-28 21:00:10.392000+00:00,2025-09-28 14:00:10.392,00:00:15.4,75610392,0.0,0.0,0.0,0.0,0.0,0.0,0.0,0.0,0.0,0.0,1.0,0.0,0.0,0.0,0.0,0.001,0.0,0.0,0.0,0.0,0.006394405,0.3235501046511628,-0.7813514186046512,-0.3194324186046511,-0.0092834238372093,0.9402331046511628,0.3160648720930232,0.1081996046511628,0.1718272093023256,47.59972295,,-0.0059418604651162,0.0738837209302325,1163.27,1168.0,-122.83505077,121.79305894,0.0,0.0,81.3,25.7,29.3,0.874,100,True
,105,10500.0,2025-09-28 21:00:10.492000+00:00,2025-09-28 14:00:10.492,00:00:15.5,75610492,0.0,0.0,0.0,0.0,0.0,0.0,0.0,0.0,0.0,0.0,1.0,0.0,0.0,0.0,0.0,0.001,0.0,0.0,0.0,0.0,0.0068683513513513,0.3236736486486486,-0.781392831081081,-0.3186031081081081,-0.0063289438513513,0.940031108108108,-1.453598945945946,0.2195908932432433,-0.3510110337837838,47.59972295,,-0.005,0.0722567567567567,1163.27,1168.0,-122.83505077,121.79305894,0.0,0.0,81.3,25.7,29.3,0.874,100,True
,106,10600.0,2025-09-28 21:00:10.592000+00:00,2025-09-28 14:00:10.592,00:00:15.6,75610592,0.0,0.0,0.0,0.0,0.0,0.0,0.0,0.0,0.0,0.0,1.0,0.0,0.0,0.0,0.0,0.001,0.0,0.0,0.0,0.0,0.0078046216216216,0.3238033783783783,-0.7812340472972973,-0.3181247297297297,-0.0123059641216216,0.9401527297297296,-0.0334881351351348,1.879954541891892,0.1246572094594594,47.59972295,,-0.005,0.0736081081081081,1163.27,1168.0,-122.83505077,121.79305894,0.0,0.0,81.3,25.7,29.3,0.874,100,True
,107,10700.0,2025-09-28 21:00:10.692000+00:00,2025-09-28 14:00:10.692,00:00:15.7,75610692,0.0,0.0,0.0,0.0,0.0,0.0,0.0,0.0,0.0,0.0,1.0,0.0,0.0,0.0,0.0,0.001,0.0,0.0,0.0,0.0,0.00801385525,0.3245362083333333,-0.78123415,-0.317915,-0.013929605,0.94043295,0.0750580333333333,0.662032991666667,0.1402920808333333,47.59972295,,-0.0055916666666666,0.074,1163.27,1168.0,-122.83505077,121.79305894,0.0,0.0,81.3,25.7,29.3,0.874,100,True
,108,10800.0,2025-09-28 21:00:10.792000+00:00,2025-09-28 14:00:10.792,00:00:15.8,75610792,0.0,0.0,0.0,0.0,0.0,0.0,0.0,0.0,0.0,0.0,1.0,0.0,0.0,0.0,0.0,0.001,0.0,0.0,0.0,0.0,0.0077291890526315,0.3255308315789474,-0.7813878631578948,-0.3180216842105263,-0.0042714026315789,0.9405590526315788,-0.0528129989473684,-0.4725346947368421,0.1237950715789473,47.59972295,,-0.0054631578947368,0.0734631578947368,1163.27,1168.0,-122.83505077,121.92521427905262,0.0,0.0,81.3,25.7,29.3,0.874,100,True
,109,10900.0,2025-09-28 21:00:10.892000+00:00,2025-09-28 14:00:10.892,00:00:15.9,75610892,0.0,0.0,0.0,0.0,0.0,0.0,0.0,0.0,0.0,0.0,1.0,0.0,0.0,0.0,0.0,0.001,0.0,0.0,0.0,0.0,0.007596503125,0.3255865,-0.7815411250000001,-0.3181,0.0010135349999999,0.939969,-0.11261281875,-0.593456,0.10314125125,47.59972295,,-0.005,0.073,1163.27,1168.0,-122.83505077,122.03923065,0.0,0.0,81.3,25.7,29.3,0.874,100,True
,110,11000.0,2025-09-28 21:00:10.992000+00:00,2025-09-28 14:00:10.992,00:00:16.0,75610992,0.0,0.0,0.0,0.0,0.0,0.0,0.0,0.0,0.0,0.0,1.0,0.0,0.0,0.0,0.0,0.001,0.0,0.0,0.0,0.0,0.0079679143010752,0.3249036451612903,-0.7815996881720431,-0.3166978494623655,-0.0045835603225806,0.9391604516129032,-0.2569974408602151,-0.4118530322580646,0.0165231150537634,47.59972295,,-0.005,0.073,1163.27,1168.0,-122.83505077,122.03923065,0.0,0.0,81.3,25.7,29.3,0.874,100,True
,111,11100.0,2025-09-28 21:00:11.092000+00:00,2025-09-28 14:00:11.092,00:00:16.1,75611092,0.0,0.0,0.0,0.0,0.0,0.0,0.0,0.0,0.0,0.0,1.0,0.0,0.0,0.0,0.0,0.001,0.0,0.0,0.0,0.0,0.0089339961111111,0.3246537777777777,-0.7815503888888888,-0.3162964444444444,-0.0092248566666666,0.9390778888888888,-0.2287227777777777,0.4967234444444444,0.0811865888888888,47.59972295,,-0.0053888888888888,0.0733888888888888,1163.27,1168.0,-122.83505077,122.03923065,0.0,0.0,81.3,25.7,29.3,0.874,100,True
,112,11200.0,2025-09-28 21:00:11.192000+00:00,2025-09-28 14:00:11.192,00:00:16.2,75611192,0.0,0.0,0.0,0.0,0.0,0.0,0.0,0.0,0.0,0.0,1.0,0.0,0.0,0.0,0.0,0.001,0.0,0.0,0.0,0.0,0.0097168476288659,0.325214381443299,-0.7814608762886598,-0.316553824742268,-0.0095032345360824,0.939422762886598,-0.475888618556701,0.3111843247422681,-0.0152874948453608,47.59972295,,-0.006,0.0735360824742268,1163.27,1168.0,-122.83505077,122.03923065,0.0,0.0,81.3,25.7,29.3,0.874,100,True
,113,11300.0,2025-09-28 21:00:11.292000+00:00,2025-09-28 14:00:11.292,00:00:16.3,75611292,0.0,0.0,0.0,0.0,0.0,0.0,0.0,0.0,0.0,0.0,1.0,0.0,0.0,0.0,0.0,0.001,0.0,0.0,0.0,0.0,0.0105236445783132,0.3238948072289156,-0.7813884698795182,-0.3115681807228915,-0.0098937475903614,0.938265156626506,-0.3939639036144578,-1.5321949337349396,-0.191968156626506,47.59972295,,-0.006,0.073,1163.27,1168.0,-122.83505077,122.03923065,0.0,0.0,81.3,25.7,29.3,0.874,100,True
,114,11400.0,2025-09-28 21:00:11.392000+00:00,2025-09-28 14:00:11.392,00:00:16.4,75611392,0.0,0.0,0.0,0.0,0.0,0.0,0.0,0.0,0.0,0.0,1.0,0.0,0.0,0.0,0.0,0.001,0.0,0.0,0.0,0.0,0.0107802277777777,0.3218573888888889,-0.7814722777777778,-0.3136079444444444,-0.0019044105555555,0.9375405555555556,0.2795214444444444,-0.758779027777778,0.1470451666666666,47.59972295,,-0.006,0.0737222222222222,1163.27,1168.0,-122.83505077,122.03923065,0.0,0.0,81.3,25.7,29.3,0.874,100,True
,115,11500.0,2025-09-28 21:00:11.492000+00:00,2025-09-28 14:00:11.492,00:00:16.5,75611492,0.0,0.0,0.0,0.0,0.0,0.0,0.0,0.0,0.0,0.0,1.0,0.0,0.0,0.0,0.0,0.001,0.0,0.0,0.0,0.0,0.0106655684210526,0.3207173157894736,-0.7816077894736843,-0.3101023157894736,-0.0112072694736842,0.937831052631579,0.0936172144736842,-0.2973044736842105,0.037402447368421,47.59972295,,-0.0052105263157894,0.0747894736842105,1163.27,1168.0,-122.83505077,122.03923065,0.0,0.0,81.3,25.7,29.3,0.874,100,True
,116,11600.0,2025-09-28 21:00:11.592000+00:00,2025-09-28 14:00:11.592,00:00:16.6,75611592,0.0,0.0,0.0,0.0,0.0,0.0,0.0,0.0,0.0,0.0,1.0,0.0,0.0,0.0,0.0,0.001,0.0,0.0,0.0,0.0,0.0102740124999999,0.320535875,-0.78179825,-0.31322425,-0.012057825,0.938596625,0.1374898518749999,-0.283387,0.04728025,47.59972295,,-0.005,0.074375,1163.27,1168.0,-122.83505077,122.03923065,0.0,0.0,81.3,25.7,29.3,0.874,100,True
,117,11700.0,2025-09-28 21:00:11.692000+00:00,2025-09-28 14:00:11.692,00:00:16.7,75611692,0.0,0.0,0.0,0.0,0.0,0.0,0.0,0.0,0.0,0.0,1.0,0.0,0.0,0.0,0.0,0.001,0.0,0.0,0.0,0.0,0.0096765791578947,0.3206773263157895,-0.7820375789473684,-0.3138177894736842,-0.0085954383157894,0.9395638,0.265393147368421,0.2684011473684211,0.1600449610526315,47.59972295,,-0.0055473684210526,0.074,1163.27,1168.0,-122.83505077,122.03923065,0.0,0.0,81.3,25.7,29.3,0.874,100,True
,118,11800.0,2025-09-28 21:00:11.792000+00:00,2025-09-28 14:00:11.792,00:00:16.8,75611792,0.0,0.0,0.0,0.0,0.0,0.0,0.0,0.0,0.0,0.0,1.0,0.0,0.0,0.0,0.0,0.001,0.0,0.0,0.0,0.0,0.0090674482954545,0.3212851136363636,-0.7823058636363637,-0.3150885340909091,-0.0121619826136363,0.940804465909091,0.1590667136363636,0.7254277840909091,0.1372765397727272,47.59972295,,-0.006,0.0733522727272727,1163.27,1168.0,-122.83505077,122.11502739102272,0.0,0.0,81.3,25.7,29.3,0.874,100,True
,119,11900.0,2025-09-28 21:00:11.892000+00:00,2025-09-28 14:00:11.892,00:00:16.9,75611892,0.0,0.0,0.0,0.0,0.0,0.0,0.0,0.0,0.0,0.0,1.0,0.0,0.0,0.0,0.0,0.001,0.0,0.0,0.0,0.0,0.0086827026136363,0.3220638181818182,-0.7824885795454546,-0.3147392159090909,-0.0135340431818181,0.941444568181818,0.2450915522727272,0.0908999624999999,0.0867131443181818,47.59972295,,-0.006,0.0745681818181818,1163.27,1168.0,-122.83505077,122.15625018,0.0,0.0,81.3,25.7,29.3,0.874,100,True
,120,12000.0,2025-09-28 21:00:11.992000+00:00,2025-09-28 14:00:11.992,00:00:17.0,75611992,0.0,0.0,0.0,0.0,0.0,0.0,0.0,0.0,0.0,0.0,1.0,0.0,0.0,0.0,0.0,0.001,0.0,0.0,0.0,0.0,0.00870913,0.3222781641791045,-0.7825565,-0.312810052238806,-0.0145524052238805,0.9413418134328358,0.2170501119402985,-0.0468135761194029,0.218017547761194,47.59972295,,-0.0053955223880597,0.0737910447761194,1163.27,1168.0,-122.83505077,122.15625018,0.0,0.0,81.3,25.7,29.3,0.874,100,True
,121,12100.0,2025-09-28 21:00:12.092000+00:00,2025-09-28 14:00:12.092,00:00:17.1,75612092,0.0,0.0,0.0,0.0,0.0,0.0,0.0,0.0,0.0,0.0,1.0,0.0,0.0,0.0,0.0,0.001,0.0,0.0,0.0,0.0,0.0086732140816326,0.3230900714285714,-0.7827192040816326,-0.3127304897959184,-0.0184665530612244,0.9415693571428572,-0.0068689183673469,0.7529957438775512,0.2117546224489795,47.59972295,,-0.0054795918367346,0.0739591836734693,1163.27,1168.0,-122.83505077,122.15625018,0.0,0.0,81.3,25.7,29.3,0.874,100,True
,122,12200.0,2025-09-28 21:00:12.192000+00:00,2025-09-28 14:00:12.192,00:00:17.2,75612192,0.0,0.0,0.0,0.0,0.0,0.0,0.0,0.0,0.0,0.0,1.0,0.0,0.0,0.0,0.0,0.001,0.0,0.0,0.0,0.0,0.0082732689772727,0.3234815681818181,-0.7830418409090909,-0.3163761022727273,-0.0181461102272727,0.9411426590909092,0.1059456931818181,-0.4769043181818178,0.0264749545454545,47.59972295,,-0.006,0.0738863636363636,1163.27,1168.0,-122.83505077,122.15625018,0.0,0.0,81.3,25.7,29.3,0.874,100,True
,123,12300.0,2025-09-28 21:00:12.292000+00:00,2025-09-28 14:00:12.292,00:00:17.3,75612292,0.0,0.0,0.0,0.0,0.0,0.0,0.0,0.0,0.0,0.0,1.0,0.0,0.0,0.0,0.0,0.001,0.0,0.0,0.0,0.0,0.0080004687356321,0.3221961609195402,-0.7832497126436782,-0.3143893678160919,-0.0173178908045977,0.9399431609195402,0.1204499287356321,0.0397692873563215,0.1547135172413793,47.59972295,,-0.006,0.073,1163.27,1168.0,-122.83505077,122.15625018,0.0,0.0,81.3,25.7,29.3,0.874,100,True
,124,12400.0,2025-09-28 21:00:12.392000+00:00,2025-09-28 14:00:12.392,00:00:17.4,75612392,0.0,0.0,0.0,0.0,0.0,0.0,0.0,0.0,0.0,0.0,1.0,0.0,0.0,0.0,0.0,0.001,0.0,0.0,0.0,0.0,0.0083735948888888,0.3221142,-0.7833497111111111,-0.3130890666666667,-0.0125902822222222,0.9400410444444444,-0.0961347911111111,0.9606445333333332,0.1905151555555555,47.59972295,,-0.0051777777777777,0.0738222222222222,1163.27,1168.0,-122.83505077,122.15625018,0.0,0.0,81.3,25.7,29.3,0.874,100,True
,125,12500.0,2025-09-28 21:00:12.492000+00:00,2025-09-28 14:00:12.492,00:00:17.5,75612492,0.0,0.0,0.0,0.0,0.0,0.0,0.0,0.0,0.0,0.0,1.0,0.0,0.0,0.0,0.0,0.001,0.0,0.0,0.0,0.0,0.0088970963636363,0.3223042272727273,-0.783512,-0.3039596363636364,-0.0184134227272727,0.9400567727272728,-0.4781874545454545,-0.5786244545454546,-0.0410163136363636,47.59972295,,-0.0059545454545454,0.0730454545454545,1163.27,1168.0,-122.83505077,122.15625018,0.0,0.0,81.3,25.7,29.3,0.874,100,True
,126,12600.0,2025-09-28 21:00:12.592000+00:00,2025-09-28 14:00:12.592,00:00:17.6,75612592,0.0,0.0,0.0,0.0,0.0,0.0,0.0,0.0,0.0,0.0,1.0,0.0,0.0,0.0,0.0,0.001,0.0,0.0,0.0,0.0,0.0090867157142857,0.3251410204081632,-0.7834102653061225,-0.3211751836734694,-0.010463693877551,0.9421228979591836,0.9009976326530612,1.887358408163265,0.1441537367346939,47.59972295,,-0.006,0.0739795918367346,1163.27,1168.0,-122.83505077,122.15625018,0.0,0.0,81.3,25.7,29.3,0.874,100,True
,127,12700.0,2025-09-28 21:00:12.692000+00:00,2025-09-28 14:00:12.692,00:00:17.7,75612692,0.0,0.0,0.0,0.0,0.0,0.0,0.0,0.0,0.0,0.0,1.0,0.0,0.0,0.0,0.0,0.001,0.0,0.0,0.0,0.0,0.0079090207142857,0.3260403142857143,-0.78378035,-0.3151520642857143,-0.0118054754999999,0.9417039071428572,-0.3512012285714285,1.450339742857143,-0.0857008535714285,47.59972295,,-0.006,0.074,1163.27,1168.0,-122.83505077,122.15267578692855,0.0,0.0,81.3,25.7,29.3,0.874,100,True
,128,12800.0,2025-09-28 21:00:12.792000+00:00,2025-09-28 14:00:12.792,00:00:17.8,75612792,0.0,0.0,0.0,0.0,0.0,0.0,0.0,0.0,0.0,0.0,1.0,0.0,0.0,0.0,0.0,0.001,0.0,0.0,0.0,0.0,0.0081568064285714,0.3265660285714286,-0.78379535,-0.3129527785714286,-0.0053974254999999,0.9412917642857144,-0.3013926571428571,0.7003368857142857,-0.0823947821428571,47.59972295,,-0.006,0.074,1163.27,1168.0,-122.83505077,122.11296030835716,0.0,0.0,81.3,25.7,29.3,0.874,100,True
,129,12900.0,2025-09-28 21:00:12.892000+00:00,2025-09-28 14:00:12.892,00:00:17.9,75612892,0.0,0.0,0.0,0.0,0.0,0.0,0.0,0.0,0.0,0.0,1.0,0.0,0.0,0.0,0.0,0.001,0.0,0.0,0.0,0.0,0.008217688076923,0.3269837692307692,-0.7839486153846154,-0.317515,-0.0098133073076923,0.939804346153846,-0.0792456923076923,-1.0778046923076925,0.1649706269230769,47.59972295,,-0.006,0.0731153846153846,1163.27,1168.0,-122.83505077,122.10064851,0.0,0.0,81.3,25.611538461538466,29.3,0.8748846153846154,100,True
