ride_id,sample_idx,_elapsed_ms,ts_utc,ts_pst,video_ts_anchor,ms_today,cf_accel,cf_brake,cf_cruise,cf_turn_left,cf_turn_right,cf_carve_left,cf_carve_right,cf_ascent,cf_descent,cf_traction_loss,cf_idle,cf_forward,cf_reverse,speed_meters_per_sec,erpm,duty_cycle,current_in,current_motor,d_axis_current,q_axis_current,roll,pitch,yaw,accX,accY,accZ,gyroX,gyroY,gyroZ,gnss_lat,fault_code,d_axis_voltage,q_axis_voltage,tacho_meters,tacho_abs_meters,gnss_lon,gnss_alt,gnss_gVel,gnss_vVel,input_voltage,temp_mos_max,temp_motor,battery_level,dt_ms,_on_grid
ride_18,0,0.0,2025-09-27 22:59:35.116000+00:00,2025-09-27 15:59:35.116,00:00:04.9,82775116,0.0,0.0,0.0,0.0,0.0,0.0,0.0,0.0,0.0,0.0,1.0,0.0,0.0,0.0,0.0,-0.001,0.0,-0.03,-0.02,-0.01,-1.10685,-0.0069781,-2.99465,0.00100495,0.89199,0.435174,0.0871803,-0.0895932,0.172688,47.61420733,0.0,-0.049,-0.02,2977.11,3047.32,-122.74732816,99.64720708,0.0,0.0,80.6,32.8,44.5,0.83,100,True
,1,100.0,2025-09-27 22:59:35.216000+00:00,2025-09-27 15:59:35.216,00:00:05.0,82775216,0.0,0.0,0.0,0.0,0.0,0.0,0.0,0.0,0.0,0.0,1.0,0.0,0.0,0.0,0.0,-0.001,0.0,-0.0077777777777777,-0.0051851851851851,-0.0025925925925925,-0.2602882962962962,0.2494286407407407,-2.92605,-0.248109087037037,0.1987934814814814,0.8063058518518519,-0.1239651074074073,0.0137619851851851,0.138102074074074,47.61420733,,-0.0578888888888888,-0.0355555555555555,2977.11,3047.32,-122.74732816,99.64720708,0.0,0.0,80.6,32.8,44.5,0.83,100,True
,2,200.0,2025-09-27 22:59:35.316000+00:00,2025-09-27 15:59:35.316,00:00:05.1,82775316,0.0,0.0,0.0,0.0,0.0,0.0,0.0,0.0,0.0,0.0,1.0,0.0,0.0,0.0,0.0,-0.001,0.0,0.0,0.0,0.0,0.0363483,0.3392681428571428,-2.902332857142857,-0.3321854285714286,-0.0343777285714285,0.9362434285714284,-0.1393174285714285,0.1009082285714285,0.2207277142857143,47.61420733,,-0.061,-0.041,2977.11,3047.32,-122.74732816,99.64720708,0.0,0.0,80.6,32.8,44.5,0.83,100,True
,3,300.0,2025-09-27 22:59:35.416000+00:00,2025-09-27 15:59:35.416,00:00:05.2,82775416,0.0,0.0,0.0,0.0,0.0,0.0,0.0,0.0,0.0,0.0,1.0,0.0,0.0,0.0,0.0,-0.001,0.0,0.0,0.0,0.0,0.0368321804347826,0.3393271086956522,-2.9026269565217397,-0.3309745869565217,-0.0376677913043478,0.9362583913043478,-0.3500959347826087,0.1203502826086956,0.1661304565217391,47.61420733,,-0.0618043478260869,-0.0418043478260869,2977.11,3047.32,-122.74732816,99.64720708,0.0,0.0,80.6,32.8,44.5,0.83,100,True
,4,400.0,2025-09-27 22:59:35.516000+00:00,2025-09-27 15:59:35.516,00:00:05.3,82775516,0.0,0.0,0.0,0.0,0.0,0.0,0.0,0.0,0.0,0.0,1.0,0.0,0.0,0.0,0.0,-0.001,0.0,0.0,0.0,0.0,0.03744134375,0.3394592708333333,-2.9027725,-0.3298683125,-0.04278696875,0.9363382916666666,-0.1040226041666667,0.0008855083333333,0.1782891041666666,47.61420733,,-0.062,-0.042,2977.11,3047.32,-122.74732816,99.64720708,0.0,0.0,80.6,32.8,44.5,0.83,100,True
,5,500.0,2025-09-27 22:59:35.616000+00:00,2025-09-27 15:59:35.616,00:00:05.4,82775616,0.0,0.0,0.0,0.0,0.0,0.0,0.0,0.0,0.0,0.0,1.0,0.0,0.0,0.0,0.0,-0.001,0.0,0.0,0.0,0.0,0.0376010377777777,0.3395536222222222,-2.9031148888888887,-0.3294744666666667,-0.0461413777777777,0.9363013555555556,0.0926736822222222,0.1824283066666666,0.3037202,47.61420733,,-0.0610444444444444,-0.0410444444444444,2977.11,3047.32,-122.74732816,99.64720708,0.0,0.0,80.6,32.8,44.5,0.83,100,True
,6,600.0,2025-09-27 22:59:35.716000+00:00,2025-09-27 15:59:35.716,00:00:05.5,82775716,0.0,0.0,0.0,0.0,0.0,0.0,0.0,0.0,0.0,0.0,1.0,0.0,0.0,0.0,0.0,-0.001,0.0,0.0,0.0,0.0,0.0375035620689655,0.3395259310344827,-2.903548275862069,-0.329909724137931,-0.0411598551724137,0.9361111379310344,0.1020724310344827,-0.2096697655172413,0.2331898275862069,47.61420733,,-0.061,-0.041,2977.11,3047.32,-122.74732816,99.62379845793104,0.0,0.0,80.6,32.8,44.5,0.83,100,True
,7,700.0,2025-09-27 22:59:35.816000+00:00,2025-09-27 15:59:35.816,00:00:05.6,82775816,0.0,0.0,0.0,0.0,0.0,0.0,0.0,0.0,0.0,0.0,1.0,0.0,0.0,0.0,0.0,-0.001,0.0,0.0,0.0,0.0,0.037412303960396,0.3394788415841584,-2.903978712871287,-0.3308985940594059,-0.0403484920792079,0.936002594059406,0.1396516782178218,-0.0549886465346534,0.1677296534653465,47.61420733,,-0.061,-0.0412475247524752,2977.11,3047.32,-122.74732816,99.47749457,0.0,0.0,80.6,32.8,44.5,0.83,100,True
,8,800.0,2025-09-27 22:59:35.916000+00:00,2025-09-27 15:59:35.916,00:00:05.7,82775916,0.0,0.0,0.0,0.0,0.0,0.0,0.0,0.0,0.0,0.0,1.0,0.0,0.0,0.0,0.0,-0.001,0.0,0.0,0.0,0.0,0.0373140714285714,0.3395447142857143,-2.9044728571428573,-0.3298817142857143,-0.0409600714285714,0.9359611428571428,0.0707527,0.0508252142857142,0.2128478571428571,47.61420733,,-0.061,-0.042,2977.11,3047.32,-122.74732816,99.47749457,0.0,0.0,80.6,32.8,44.5,0.83,100,True
,9,900.0,2025-09-27 22:59:36.016000+00:00,2025-09-27 15:59:36.016,00:00:05.8,82776016,0.0,0.0,0.0,0.0,0.0,0.0,0.0,0.0,0.0,0.0,1.0,0.0,0.0,0.0,0.0,-0.001,0.0,0.0,0.0,0.0,0.0373087258064516,0.3395687849462365,-2.904889139784946,-0.3305453010752688,-0.0380566451612903,0.9358760967741936,0.0296837,0.0518895,0.31683,47.61420733,,-0.0614301075268817,-0.042,2977.11,3047.32,-122.74732816,99.47749457,0.0,0.0,80.6,32.8,44.5,0.83,100,True
,10,1000.0,2025-09-27 22:59:36.116000+00:00,2025-09-27 15:59:36.116,00:00:05.9,82776116,0.0,0.0,0.0,0.0,0.0,0.0,0.0,0.0,0.0,0.0,1.0,0.0,0.0,0.0,0.0,-0.001,0.0,0.0,0.0,0.0,0.0372764891566265,0.3395856024096386,-2.905281204819277,-0.3328897469879518,-0.0380616614457831,0.935815626506024,0.0587776626506024,0.0902780240963855,0.194505421686747,47.61420733,,-0.062,-0.042,2977.11,3047.32,-122.74732816,99.47749457,0.0,0.0,80.6,32.8,44.5,0.83,100,True
,11,1100.0,2025-09-27 22:59:36.216000+00:00,2025-09-27 15:59:36.216,00:00:06.0,82776216,0.0,0.0,0.0,0.0,0.0,0.0,0.0,0.0,0.0,0.0,1.0,0.0,0.0,0.0,0.0,-0.001,0.0,0.0,0.0,0.0,0.0372568821052631,0.3396109157894736,-2.905676,-0.3309397578947368,-0.0401718768421052,0.9357637157894736,0.0423279157894736,0.0735304547368421,0.1993639368421052,47.61420733,,-0.0613263157894736,-0.042,2977.11,3047.32,-122.74732816,99.47749457,0.0,0.0,80.6,32.8,44.5,0.83,100,True
,12,1200.0,2025-09-27 22:59:36.316000+00:00,2025-09-27 15:59:36.316,00:00:06.1,82776316,0.0,0.0,0.0,0.0,0.0,0.0,0.0,0.0,0.0,0.0,1.0,0.0,0.0,0.0,0.0,-0.001,0.0,0.0,0.0,0.0,0.0373033211678832,0.339675496350365,-2.905951094890511,-0.3332124817518248,-0.0391318459854014,0.935776299270073,-0.0115546467153284,0.0159537175182481,0.2505429416058394,47.61420733,,-0.061,-0.0414963503649635,2977.11,3047.32,-122.74732816,99.47749457,0.0,0.0,80.6,32.8,44.5,0.83,100,True
,13,1300.0,2025-09-27 22:59:36.416000+00:00,2025-09-27 15:59:36.416,00:00:06.2,82776416,0.0,0.0,0.0,0.0,0.0,0.0,0.0,0.0,0.0,0.0,1.0,0.0,0.0,0.0,0.0,-0.001,0.0,0.0,0.0,0.0,0.0374021238095238,0.3397083333333333,-2.906294285714285,-0.3375606666666667,-0.036956538095238,0.9357545238095238,0.0092936476190476,-0.0718642238095238,0.276383,47.61420733,,-0.0617619047619047,-0.0413809523809523,2977.11,3047.32,-122.74732816,99.47749457,0.0,0.0,80.6,32.8,44.5,0.83,100,True
,14,1400.0,2025-09-27 22:59:36.516000+00:00,2025-09-27 15:59:36.516,00:00:06.3,82776516,0.0,0.0,0.0,0.0,0.0,0.0,0.0,0.0,0.0,0.0,1.0,0.0,0.0,0.0,0.0,-0.001,0.0,0.0,0.0,0.0,0.0373547031578947,0.3395327578947368,-2.906812105263158,-0.3360235368421053,-0.038675407368421,0.9355282,0.1377401610526316,-0.1224665726315789,0.3446395263157895,47.61420733,,-0.0619894736842105,-0.0414947368421052,2977.11,3047.32,-122.74732816,99.47749457,0.0,0.0,80.6,32.8,44.5,0.83,100,True
,15,1500.0,2025-09-27 22:59:36.616000+00:00,2025-09-27 15:59:36.616,00:00:06.4,82776616,0.0,0.0,0.0,0.0,0.0,0.0,0.0,0.0,0.0,0.0,1.0,0.0,0.0,0.0,0.0,-0.001,0.0,0.0,0.0,0.0,0.0371480831578947,0.3394751368421052,-2.907222,-0.3348917684210526,-0.0402224968421052,0.9354601157894736,0.0906333126315789,-0.0882412347368421,0.3047795157894737,47.61420733,,-0.0615578947368421,-0.041,2977.11,3047.32,-122.74732816,99.47749457,0.0,0.0,80.6,32.8,44.5,0.83,100,True
,16,1600.0,2025-09-27 22:59:36.716000+00:00,2025-09-27 15:59:36.716,00:00:06.5,82776716,0.0,0.0,0.0,0.0,0.0,0.0,0.0,0.0,0.0,0.0,1.0,0.0,0.0,0.0,0.0,-0.001,0.0,0.0,0.0,0.0,0.0370715515625,0.339543296875,-2.9075440625,-0.33363359375,-0.0389827671874999,0.93553109375,0.055163303125,-0.0571281921875,0.24543734375,47.61420733,,-0.061546875,-0.041,2977.11,3047.32,-122.74732816,99.34613196046875,0.0,0.0,80.6,32.8,44.5,0.83,100,True
,17,1700.0,2025-09-27 22:59:36.816000+00:00,2025-09-27 15:59:36.816,00:00:06.6,82776816,0.0,0.0,0.0,0.0,0.0,0.0,0.0,0.0,0.0,0.0,1.0,0.0,0.0,0.0,0.0,-0.001,0.0,0.0,0.0,0.0,0.0370459608695652,0.3395835652173913,-2.907845217391304,-0.329700652173913,-0.0383345304347826,0.9355708695652174,0.1071272086956521,-0.0342685478260869,0.2253673913043478,47.61420733,,-0.061,-0.0412173913043478,2977.11,3047.32,-122.74732816,99.18759088,0.0,0.0,80.6,32.8,44.5,0.8302173913043478,100,True
,18,1800.0,2025-09-27 22:59:36.916000+00:00,2025-09-27 15:59:36.916,00:00:06.7,82776916,0.0,0.0,0.0,0.0,0.0,0.0,0.0,0.0,0.0,0.0,1.0,0.0,0.0,0.0,0.0,-0.001,0.0,0.0,0.0,0.0,0.0369684971014492,0.3396321159420289,-2.9082292753623187,-0.3307694927536232,-0.0379399652173913,0.9355904347826088,0.1532242376811594,-0.0855530405797101,0.1709253623188406,47.61420733,,-0.061,-0.0419420289855072,2977.11,3047.32,-122.74732816,99.18759088,0.0,0.0,80.6,32.8,44.5,0.8309420289855072,100,True
,19,1900.0,2025-09-27 22:59:37.016000+00:00,2025-09-27 15:59:37.016,00:00:06.8,82777016,0.0,0.0,0.0,0.0,0.0,0.0,0.0,0.0,0.0,0.0,1.0,0.0,0.0,0.0,0.0,-0.001,0.0,0.0,0.0,0.0,0.0369481302325581,0.3396956511627907,-2.908647209302326,-0.3307848372093023,-0.0405445860465116,0.9356710930232558,0.0900547441860465,-0.017252465116279,0.2419678604651162,47.61420733,,-0.0619767441860465,-0.042,2977.11,3047.32,-122.74732816,99.18759088,0.0,0.0,80.6,32.8,44.5,0.831,100,True
,20,2000.0,2025-09-27 22:59:37.116000+00:00,2025-09-27 15:59:37.116,00:00:06.9,82777116,0.0,0.0,0.0,0.0,0.0,0.0,0.0,0.0,0.0,0.0,1.0,0.0,0.0,0.0,0.0,-0.001,0.0,0.0,0.0,0.0,0.0369936,0.3396754888888889,-2.909010444444444,-0.3345435111111111,-0.0435557911111111,0.9356796222222222,-0.0213725466666666,0.0138847288888888,0.2514251111111111,47.61420733,,-0.061,-0.0418222222222222,2977.11,3047.32,-122.74732816,99.18759088,0.0,0.0,80.6,32.8,44.5,0.831,100,True
,21,2100.0,2025-09-27 22:59:37.216000+00:00,2025-09-27 15:59:37.216,00:00:07.0,82777216,0.0,0.0,0.0,0.0,0.0,0.0,0.0,0.0,0.0,0.0,1.0,0.0,0.0,0.0,0.0,-0.001,0.0,0.0,0.0,0.0,0.0370474465116279,0.3396336744186046,-2.9093927906976744,-0.3333609069767442,-0.0377568,0.9356804418604652,0.0951476674418604,-0.095175153488372,0.2635638604651162,47.61420733,,-0.061,-0.0413023255813953,2977.11,3047.32,-122.74732816,99.18759088,0.0,0.0,80.6,32.8,44.5,0.831,100,True
,22,2200.0,2025-09-27 22:59:37.316000+00:00,2025-09-27 15:59:37.316,00:00:07.1,82777316,0.0,0.0,0.0,0.0,0.0,0.0,0.0,0.0,0.0,0.0,1.0,0.0,0.0,0.0,0.0,-0.001,0.0,0.0,0.0,0.0,0.0370429,0.3396418333333333,-2.909805,-0.3322905,-0.0394924666666666,0.9356500833333332,0.1310201083333333,0.0229329666666666,0.3375149166666666,47.61420733,,-0.0614166666666666,-0.042,2977.11,3047.32,-122.74732816,99.18759088,0.0,0.0,80.6,32.8,44.5,0.831,100,True
,23,2300.0,2025-09-27 22:59:37.416000+00:00,2025-09-27 15:59:37.416,00:00:07.2,82777416,0.0,0.0,0.0,0.0,0.0,0.0,0.0,0.0,0.0,0.0,1.0,0.0,0.0,0.0,0.0,-0.001,0.0,0.0,0.0,0.0,0.0368999123595505,0.3397035280898876,-2.9102329213483147,-0.3327445056179775,-0.0413834988764044,0.9356576853932584,0.1407917528089887,-0.0174874516853932,0.3780636292134832,47.61420733,,-0.062,-0.042,2977.11,3047.32,-122.74732816,99.18759088,0.0,0.0,80.6,32.8,44.5,0.831,100,True
,24,2400.0,2025-09-27 22:59:37.516000+00:00,2025-09-27 15:59:37.516,00:00:07.3,82777516,0.0,0.0,0.0,0.0,0.0,0.0,0.0,0.0,0.0,0.0,1.0,0.0,0.0,0.0,0.0,-0.001,0.0,0.0,0.0,0.0,0.0367617722222222,0.3397511111111111,-2.910737777777778,-0.3313960555555555,-0.0401036222222222,0.9356654444444444,0.0090896666666666,-0.0614631944444444,0.2612362222222222,47.61420733,,-0.0613888888888888,-0.042,2977.11,3047.32,-122.74732816,99.18759088,0.0,0.0,80.6,32.8,44.5,0.831,100,True
,25,2500.0,2025-09-27 22:59:37.616000+00:00,2025-09-27 15:59:37.616,00:00:07.4,82777616,0.0,0.0,0.0,0.0,0.0,0.0,0.0,0.0,0.0,0.0,1.0,0.0,0.0,0.0,0.0,-0.001,0.0,0.0,0.0,0.0,0.0368759956521739,0.3397964239130435,-2.911130760869565,-0.330856054347826,-0.040262277173913,0.9357127934782608,-0.052284,0.0094399152173912,0.183910554347826,47.61420733,,-0.0617065217391304,-0.042,2977.11,3047.32,-122.74732816,99.18759088,0.0,0.0,80.6,32.8,44.5,0.831,100,True
,26,2600.0,2025-09-27 22:59:37.716000+00:00,2025-09-27 15:59:37.716,00:00:07.5,82777716,0.0,0.0,0.0,0.0,0.0,0.0,0.0,0.0,0.0,0.0,1.0,0.0,0.0,0.0,0.0,-0.001,0.0,0.0,0.0,0.0,0.0368414785714285,0.3398237261904762,-2.911575,-0.3300658333333333,-0.0403133261904761,0.9356564761904762,0.2060682142857142,-0.1303229797619047,0.3458845833333333,47.61420733,,-0.0611309523809523,-0.0411309523809523,2977.11,3047.32,-122.74732816,99.18759088,0.0,0.0,80.6,32.8,44.5,0.831,100,True
,27,2700.0,2025-09-27 22:59:37.816000+00:00,2025-09-27 15:59:37.816,00:00:07.6,82777816,0.0,0.0,0.0,0.0,0.0,0.0,0.0,0.0,0.0,0.0,1.0,0.0,0.0,0.0,0.0,-0.001,0.0,0.0,0.0,0.0,0.0364036901098901,0.3398348241758241,-2.9121092307692305,-0.3307772527472527,-0.0394417637362637,0.9356577362637364,0.3131974285714285,-0.0891770109890109,0.3636711978021978,47.61420733,,-0.061,-0.041,2977.11,3047.32,-122.74732816,99.00914694604396,0.0,0.0,80.6,32.8,44.5,0.831,100,True
,28,2800.0,2025-09-27 22:59:37.916000+00:00,2025-09-27 15:59:37.916,00:00:07.7,82777916,0.0,0.0,0.0,0.0,0.0,0.0,0.0,0.0,0.0,0.0,1.0,0.0,0.0,0.0,0.0,-0.001,0.0,0.0,0.0,0.0,0.036091664893617,0.3397690425531914,-2.912605425531915,-0.3289871276595744,-0.0322488702127659,0.9356371489361702,0.087207359574468,-0.0754016170212766,0.249540744680851,47.61420733,,-0.062,-0.042,2977.11,3047.32,-122.74732816,99.00513697,0.0,0.0,80.6,32.8,44.5,0.831,100,True
,29,2900.0,2025-09-27 22:59:38.016000+00:00,2025-09-27 15:59:38.016,00:00:07.8,82778016,0.0,0.0,0.0,0.0,0.0,0.0,0.0,0.0,0.0,0.0,1.0,0.0,0.0,0.0,0.0,-0.001,0.0,0.0,0.0,0.0,0.0360337142857142,0.3398546428571428,-2.912997142857143,-0.3306941071428572,-0.0393822892857142,0.9357537142857144,0.0150466107142857,0.0266471071428571,0.2932751785714286,47.61420733,,-0.0618214285714285,-0.042,2977.11,3047.32,-122.74732816,99.00513697,0.0,0.0,80.6,32.8,44.5,0.831,100,True
,30,3000.0,2025-09-27 22:59:38.116000+00:00,2025-09-27 15:59:38.116,00:00:07.9,82778116,0.0,0.0,0.0,0.0,0.0,0.0,0.0,0.0,0.0,0.0,1.0,0.0,0.0,0.0,0.0,-0.001,0.0,0.0,0.0,0.0,0.0360896191489361,0.3398906453900709,-2.913332553191489,-0.3303287801418439,-0.0419040276595744,0.935848340425532,-0.0202765879432624,-0.0893385354609929,0.197563304964539,47.61420733,,-0.061,-0.042,2977.11,3047.32,-122.74732816,99.00513697,0.0,0.0,80.6,32.8,44.5,0.831,100,True
,31,3100.0,2025-09-27 22:59:38.216000+00:00,2025-09-27 15:59:38.216,00:00:08.0,82778216,0.0,0.0,0.0,0.0,0.0,0.0,0.0,0.0,0.0,0.0,1.0,0.0,0.0,0.0,0.0,-0.001,0.0,0.0,0.0,0.0,0.0360738744680851,0.339863695035461,-2.913566595744681,-0.3324280709219858,-0.041905729787234,0.9358462127659574,0.0829731283687943,-0.0889212304964539,0.2383384822695035,47.61420733,,-0.061,-0.042,2977.11,3047.32,-122.74732816,99.00513697,0.0,0.0,80.6,32.8,44.5,0.831,100,True
,32,3200.0,2025-09-27 22:59:38.316000+00:00,2025-09-27 15:59:38.316,00:00:08.1,82778316,0.0,0.0,0.0,0.0,0.0,0.0,0.0,0.0,0.0,0.0,1.0,0.0,0.0,0.0,0.0,-0.001,0.0,0.0,0.0,0.0,0.0359889804123711,0.3399175979381443,-2.9142951546391758,-0.3322974845360824,-0.0386438175257732,0.9358738350515464,0.0876217907216494,0.0403484381443298,0.1763903298969072,47.61420733,,-0.061,-0.0410721649484536,2977.11,3047.32,-122.74732816,99.00513697,0.0,0.0,80.6,32.8,44.5,0.831,100,True
,33,3300.0,2025-09-27 22:59:38.416000+00:00,2025-09-27 15:59:38.416,00:00:08.2,82778416,0.0,0.0,0.0,0.0,0.0,0.0,0.0,0.0,0.0,0.0,1.0,0.0,0.0,0.0,0.0,-0.001,0.0,0.0,0.0,0.0,0.035972409090909,0.3399307878787879,-2.914409090909091,-0.3326431212121212,-0.0381031454545454,0.9358729696969698,0.0660493454545454,0.0292074696969696,0.173325909090909,47.61420733,,-0.0611515151515151,-0.042,2977.11,3047.32,-122.74732816,99.00513697,0.0,0.0,80.6,32.8,44.5,0.831,100,True
,34,3400.0,2025-09-27 22:59:38.516000+00:00,2025-09-27 15:59:38.516,00:00:08.3,82778516,0.0,0.0,0.0,0.0,0.0,0.0,0.0,0.0,0.0,0.0,1.0,0.0,0.0,0.0,0.0,-0.001,0.0,0.0,0.0,0.0,0.0359378720930232,0.339974976744186,-2.9148013953488374,-0.3345461627906976,-0.0361332046511627,0.9358582325581396,-0.052284,-0.0764453325581395,0.1847896046511628,47.61420733,,-0.061813953488372,-0.042,2977.11,3047.32,-122.74732816,99.00513697,0.0,0.0,80.6,32.8,44.5,0.831,100,True
,35,3500.0,2025-09-27 22:59:38.616000+00:00,2025-09-27 15:59:38.616,00:00:08.4,82778616,0.0,0.0,0.0,0.0,0.0,0.0,0.0,0.0,0.0,0.0,1.0,0.0,0.0,0.0,0.0,-0.001,0.0,0.0,0.0,0.0,0.0361465714285714,0.339978,-2.9151700000000003,-0.3334807142857143,-0.0338160285714285,0.9358915714285716,-0.1020925714285714,-0.0194268857142857,0.1885756428571428,47.61420733,,-0.061,-0.0416428571428571,2977.11,3047.32,-122.74732816,99.00513697,0.0,0.0,80.6,32.8,44.5,0.831,100,True
,36,3600.0,2025-09-27 22:59:38.716000+00:00,2025-09-27 15:59:38.716,00:00:08.5,82778716,0.0,0.0,0.0,0.0,0.0,0.0,0.0,0.0,0.0,0.0,1.0,0.0,0.0,0.0,0.0,-0.001,0.0,0.0,0.0,0.0,0.0365598107526881,0.340045752688172,-2.91546376344086,-0.3319957741935483,-0.0359084913978494,0.9359651612903226,-0.2292652043010752,0.0149534258064516,0.1646233440860215,47.61420733,,-0.061,-0.0414946236559139,2977.11,3047.32,-122.74732816,98.92365621537634,0.0,0.0,80.6,32.8,44.5,0.831,100,True
,37,3700.0,2025-09-27 22:59:38.816000+00:00,2025-09-27 15:59:38.816,00:00:08.6,82778816,0.0,0.0,0.0,0.0,0.0,0.0,0.0,0.0,0.0,0.0,1.0,0.0,0.0,0.0,0.0,-0.001,0.0,0.0,0.0,0.0,0.0369789897727272,0.3400732159090909,-2.915736590909091,-0.3310239545454545,-0.0423654181818181,0.9359909772727272,-0.2219156136363636,-0.0339227454545454,0.1712882272727272,47.61420733,,-0.0616022727272727,-0.042,2977.11,3047.32,-122.74732816,98.84040414,0.0,0.0,80.6,32.8,44.5,0.831,100,True
,38,3800.0,2025-09-27 22:59:38.916000+00:00,2025-09-27 15:59:38.916,00:00:08.7,82778916,0.0,0.0,0.0,0.0,0.0,0.0,0.0,0.0,0.0,0.0,1.0,0.0,0.0,0.0,0.0,-0.001,0.0,0.0,0.0,0.0,0.0371515444444444,0.3400319444444444,-2.916085555555556,-0.3307866666666667,-0.0449647666666666,0.9359487222222224,0.0141186277777777,0.0120976722222222,0.2288101111111111,47.61420733,,-0.0612777777777777,-0.042,2977.11,3047.32,-122.74732816,98.84040414,0.0,0.0,80.6,32.8,44.5,0.831,100,True
,39,3900.0,2025-09-27 22:59:39.016000+00:00,2025-09-27 15:59:39.016,00:00:08.8,82779016,0.0,0.0,0.0,0.0,0.0,0.0,0.0,0.0,0.0,0.0,1.0,0.0,0.0,0.0,0.0,-0.001,0.0,0.0,0.0,0.0,0.0369776217391304,0.3399530434782609,-2.916506086956522,-0.3296553804347826,-0.0432854097826087,0.9358386195652174,0.0982854369565217,-0.0053672619565217,0.2984111739130434,47.61420733,,-0.061,-0.042,2977.11,3047.32,-122.74732816,98.84040414,0.0,0.0,80.6,32.8,44.5,0.831,100,True
,40,4000.0,2025-09-27 22:59:39.116000+00:00,2025-09-27 15:59:39.116,00:00:08.9,82779116,0.0,0.0,0.0,0.0,0.0,0.0,0.0,0.0,0.0,0.0,1.0,0.0,0.0,0.0,0.0,-0.001,0.0,0.0,0.0,0.0,0.0368934,0.3398731413043478,-2.916895760869565,-0.3324695434782608,-0.0414718902173913,0.9357899347826087,0.0254666891304347,-0.0194006967391304,0.1911330326086956,47.61420733,,-0.0619021739130434,-0.0410978260869565,2977.11,3047.32,-122.74732816,98.84040414,0.0,0.0,80.6,32.8,44.5,0.831,100,True
,41,4100.0,2025-09-27 22:59:39.216000+00:00,2025-09-27 15:59:39.216,00:00:09.0,82779216,0.0,0.0,0.0,0.0,0.0,0.0,0.0,0.0,0.0,0.0,1.0,0.0,0.0,0.0,0.0,-0.001,0.0,0.0,0.0,0.0,0.0369973086956521,0.3397809347826087,-2.9172564130434786,-0.3289700869565217,-0.0412713619565217,0.9357385326086956,-0.108398075,0.1204724652173913,0.3267147499999999,47.61420733,,-0.0610108695652173,-0.041,2977.11,3047.32,-122.74732816,98.84040414,0.0,0.0,80.6,32.8,44.5,0.831,100,True
,42,4200.0,2025-09-27 22:59:39.316000+00:00,2025-09-27 15:59:39.316,00:00:09.1,82779316,0.0,0.0,0.0,0.0,0.0,0.0,0.0,0.0,0.0,0.0,1.0,0.0,0.0,0.0,0.0,-0.001,0.0,0.0,0.0,0.0,0.0370761769230769,0.3398561538461538,-2.917518923076923,-0.3305127615384615,-0.0391390253846153,0.9358248153846154,-0.119098423076923,0.0676191053846153,0.2226921538461538,47.61420733,,-0.061,-0.041,2977.11,3047.32,-122.74732816,98.84040414,0.0,0.0,80.6,32.8,44.5,0.831,100,True
,43,4300.0,2025-09-27 22:59:39.416000+00:00,2025-09-27 15:59:39.416,00:00:09.2,82779416,0.0,0.0,0.0,0.0,0.0,0.0,0.0,0.0,0.0,0.0,1.0,0.0,0.0,0.0,0.0,-0.001,0.0,0.0,0.0,0.0,0.0372105329787234,0.3398190744680851,-2.917952340425532,-0.3315661382978723,-0.0366615712765957,0.9357925425531916,0.0360337117021276,0.0509733329787234,0.2273201702127659,47.61420733,,-0.0617340425531914,-0.0417340425531914,2977.11,3047.32,-122.74732816,98.84040414,0.0,0.0,80.6,32.8,44.5,0.831,100,True
,44,4400.0,2025-09-27 22:59:39.516000+00:00,2025-09-27 15:59:39.516,00:00:09.3,82779516,0.0,0.0,0.0,0.0,0.0,0.0,0.0,0.0,0.0,0.0,1.0,0.0,0.0,0.0,0.0,-0.001,0.0,0.0,0.0,0.0,0.0372343772727272,0.3397487045454546,-2.918290227272727,-0.3327032272727273,-0.0406984136363636,0.9357306590909092,0.0898220772727272,-0.0288336181818181,0.2021794545454545,47.61420733,,-0.0614318181818181,-0.0414318181818181,2977.11,3047.32,-122.74732816,98.84040414,0.0,0.0,80.6,32.8,44.5,0.831,100,True
,45,4500.0,2025-09-27 22:59:39.616000+00:00,2025-09-27 15:59:39.616,00:00:09.4,82779616,0.0,0.0,0.0,0.0,0.0,0.0,0.0,0.0,0.0,0.0,1.0,0.0,0.0,0.0,0.0,-0.001,0.0,0.0,0.0,0.0,0.0372628787610619,0.3396788938053097,-2.9185717699115044,-0.3316841061946902,-0.0431445929203539,0.9356634690265486,0.0653010628318584,-0.0890262088495575,0.2280834159292035,47.61420733,,-0.061,-0.041,2977.11,3047.32,-122.74732816,98.84040414,0.0,0.0,80.6,32.8,44.5,0.831,100,True
,46,4600.0,2025-09-27 22:59:39.716000+00:00,2025-09-27 15:59:39.716,00:00:09.5,82779716,0.0,0.0,0.0,0.0,0.0,0.0,0.0,0.0,0.0,0.0,1.0,0.0,0.0,0.0,0.0,-0.001,0.0,0.0,0.0,0.0,0.0373181619469026,0.3395987168141593,-2.9189213274336283,-0.3294794159292035,-0.0392436460176991,0.9355750619469028,0.0465724787610619,-0.1068924389380531,0.2983162477876106,47.61420733,,-0.061,-0.041,2977.11,3047.32,-122.74732816,98.83318352230089,0.0,0.0,80.6,32.8,44.5,0.831,100,True
,47,4700.0,2025-09-27 22:59:39.816000+00:00,2025-09-27 15:59:39.816,00:00:09.6,82779816,0.0,0.0,0.0,0.0,0.0,0.0,0.0,0.0,0.0,0.0,1.0,0.0,0.0,0.0,0.0,-0.001,0.0,0.0,0.0,0.0,0.0372807165413533,0.3395252330827067,-2.919412857142857,-0.330736030075188,-0.0341827932330827,0.9355082932330828,0.0940800744360902,-0.1408909586466165,0.2518624360902255,47.61420733,,-0.061,-0.041,2977.11,3047.32,-122.74732816,98.81320648,0.0,0.0,80.6,32.8,44.5,0.831,100,True
,48,4800.0,2025-09-27 22:59:39.916000+00:00,2025-09-27 15:59:39.916,00:00:09.7,82779916,0.0,0.0,0.0,0.0,0.0,0.0,0.0,0.0,0.0,0.0,1.0,0.0,0.0,0.0,0.0,-0.001,0.0,0.0,0.0,0.0,0.0372384609022556,0.3395207218045112,-2.9198414285714285,-0.3281773834586466,-0.0382209887218045,0.9355864887218044,0.0986799240601503,-0.0350965977443609,0.3032120601503759,47.61420733,,-0.061,-0.041,2977.11,3047.32,-122.74732816,98.81320648,0.0,0.0,80.6,32.8,44.5,0.831,100,True
,49,4900.0,2025-09-27 22:59:40.016000+00:00,2025-09-27 15:59:40.016,00:00:09.8,82780016,0.0,0.0,0.0,0.0,0.0,0.0,0.0,0.0,0.0,0.0,1.0,0.0,0.0,0.0,0.0,-0.001,0.0,0.0,0.0,0.0,0.0373320531914893,0.3394815744680851,-2.9203300000000003,-0.3333468510638298,-0.0437528617021276,0.9356561914893616,0.093948929787234,0.0437427,0.2484780425531915,47.61420733,,-0.061,-0.041,2977.11,3047.32,-122.74732816,98.81320648,0.0,0.0,80.6,32.8,44.5,0.831,100,True
,50,5000.0,2025-09-27 22:59:40.116000+00:00,2025-09-27 15:59:40.116,00:00:09.9,82780116,0.0,0.0,0.0,0.0,0.0,0.0,0.0,0.0,0.0,0.0,1.0,0.0,0.0,0.0,0.0,-0.001,0.0,0.0,0.0,0.0,0.0372967252747252,0.3395343626373626,-2.920745934065934,-0.3301222087912088,-0.0361285769230769,0.9357351978021978,0.1622637153846154,0.1202784967032967,0.2342250989010989,47.61420733,,-0.061,-0.041,2977.11,3047.32,-122.74732816,98.81320648,0.0,0.0,80.6,32.8,44.5,0.831,100,True
,51,5100.0,2025-09-27 22:59:40.216000+00:00,2025-09-27 15:59:40.216,00:00:10.0,82780216,0.0,0.0,0.0,0.0,0.0,0.0,0.0,0.0,0.0,0.0,1.0,0.0,0.0,0.0,0.0,-0.001,0.0,0.0,0.0,0.0,0.0368928270833333,0.33930046875,-2.9212381250000004,-0.3300521875,-0.03955559375,0.9355664791666668,0.160456865625,-0.1422587520833333,0.2992910416666667,47.61420733,,-0.061,-0.041,2977.11,3047.32,-122.74732816,98.81320648,0.0,0.0,80.6,32.71145833333333,44.5,0.831,100,True
,52,5200.0,2025-09-27 22:59:40.316000+00:00,2025-09-27 15:59:40.316,00:00:10.1,82780316,0.0,0.0,0.0,0.0,0.0,0.0,0.0,0.0,0.0,0.0,1.0,0.0,0.0,0.0,0.0,-0.001,0.0,0.0,0.0,0.0,0.036612774015748,0.3392391338582677,-2.921651338582677,-0.3336447244094488,-0.0378635118110236,0.9356500708661416,0.0768259385826771,-0.0106011212598425,0.2430603937007874,47.61420733,,-0.0611181102362204,-0.0411181102362204,2977.11,3047.32,-122.74732816,98.81320648,0.0,0.0,80.6,32.78818897637795,44.5,0.831,100,True
,53,5300.0,2025-09-27 22:59:40.416000+00:00,2025-09-27 15:59:40.416,00:00:10.2,82780416,0.0,0.0,0.0,0.0,0.0,0.0,0.0,0.0,0.0,0.0,1.0,0.0,0.0,0.0,0.0,-0.001,0.0,0.0,0.0,0.0,0.0365886007874015,0.3391666929133858,-2.9219269291338583,-0.3334762204724409,-0.0405335905511811,0.9357705433070866,-0.0329884708661417,0.044612737007874,0.25212968503937,47.61420733,,-0.0619055118110236,-0.0419055118110236,2977.11,3047.32,-122.74732816,98.81320648,0.0,0.0,80.6,32.70944881889764,44.5,0.831,100,True
ride_18,54,5400.0,2025-09-27 22:59:40.516000+00:00,2025-09-27 15:59:40.516,00:00:10.3,82780516,0.0,0.0,0.0,0.0,0.0,0.0,0.0,0.0,0.0,0.0,1.0,0.0,0.0,0.0,0.0,-0.001,0.0,0.0,0.0,0.0,0.0366354,0.339174,-2.92235,-0.328783,-0.0388712,0.935899,0.0174481,0.0504621,0.177373,47.61420733,0.0,-0.061,-0.041,2977.11,3047.32,-122.74732816,98.81320648,0.0,0.0,80.6,32.8,44.5,0.831,100,True
,55,5500.0,2025-09-27 22:59:40.616000+00:00,2025-09-27 15:59:40.616,00:00:10.4,82780616,0.0,0.0,0.0,0.0,0.0,0.0,0.0,0.0,0.0,0.0,1.0,0.0,0.0,0.0,0.0,-0.001,0.0,0.0,0.0,0.0,0.0368239925925925,0.3391769629629629,-2.922690740740741,-0.3319481851851852,-0.0432393481481481,0.9360108518518518,-0.0858586407407407,0.0505548407407407,0.1864359629629629,47.61420733,,-0.061,-0.0417407407407407,2977.11,3047.32,-122.74732816,98.81320648,0.0,0.0,80.6,32.8,44.5,0.831,100,True
,56,5600.0,2025-09-27 22:59:40.716000+00:00,2025-09-27 15:59:40.716,00:00:10.5,82780716,0.0,0.0,0.0,0.0,0.0,0.0,0.0,0.0,0.0,0.0,1.0,0.0,0.0,0.0,0.0,-0.001,0.0,0.0,0.0,0.0,0.0370337142857142,0.3390622857142857,-2.9231814285714286,-0.3330374285714286,-0.0384512714285714,0.9360507142857144,-0.0678375714285714,-0.0489424142857142,0.2360672857142857,47.61420733,,-0.061,-0.0412857142857142,2977.11,3047.32,-122.74732816,98.81320648,0.0,0.0,80.6,32.8,44.5,0.8317142857142856,100,True
,57,5700.0,2025-09-27 22:59:40.816000+00:00,2025-09-27 15:59:40.816,00:00:10.6,82780816,0.0,0.0,0.0,0.0,0.0,0.0,0.0,0.0,0.0,0.0,1.0,0.0,0.0,0.0,0.0,-0.001,0.0,0.0,0.0,0.0,0.0374230064516129,0.3390597634408602,-2.9236323655913976,-0.3317743870967742,-0.0418296204301075,0.9361496666666668,-0.1620054817204301,0.0221694720430107,0.2077636451612903,47.61420733,,-0.0602043010752688,-0.041,2977.11,3047.32,-122.74732816,99.16456904688172,0.0,0.0,80.6,32.8,44.5,0.832,100,True
,58,5800.0,2025-09-27 22:59:40.916000+00:00,2025-09-27 15:59:40.916,00:00:10.7,82780916,0.0,0.0,0.0,0.0,0.0,0.0,0.0,0.0,0.0,0.0,1.0,0.0,0.0,0.0,0.0,-0.001,0.0,0.0,0.0,0.0,0.03770377,0.3390701,-2.924007,-0.3302316,-0.04681971,0.9360769,-0.07173642,-0.0760984499999999,0.1232471,47.61420733,,-0.0608999999999999,-0.0419,2977.11,3047.32,-122.74732816,99.25478376,0.0,0.0,80.6,32.71,44.5,0.832,100,True
ride_18,59,5900.0,2025-09-27 22:59:41.016000+00:00,2025-09-27 15:59:41.016,00:00:10.8,82781016,0.0,0.0,0.0,0.0,0.0,0.0,0.0,0.0,0.0,0.0,1.0,0.0,0.0,0.0,0.0,-0.001,0.0,0.0,0.0,0.0,0.0377728,0.339025,-2.92442,-0.329721,-0.0394686,0.93593,0.16303,-0.0189458,0.235582,47.61420733,0.0,-0.06,-0.041,2977.11,3047.32,-122.74732816,99.25478376,0.0,0.0,80.6,32.7,44.5,0.832,100,True
,60,6000.0,2025-09-27 22:59:41.116000+00:00,2025-09-27 15:59:41.116,00:00:10.9,82781116,0.0,0.0,0.0,0.0,0.0,0.0,0.0,0.0,0.0,0.0,1.0,0.0,0.0,0.0,0.0,-0.001,0.0,0.0,0.0,0.0,0.0374593455555555,0.3387795555555555,-2.924886444444444,-0.3312542111111111,-0.0419161811111111,0.9356413222222224,0.2766274211111111,-0.0885327388888888,0.2762992,47.61420733,,-0.0611444444444444,-0.042,2977.11,3047.32,-122.74732816,99.25478376,0.0,0.0,80.6,32.8,44.5,0.832,100,True
,61,6100.0,2025-09-27 22:59:41.216000+00:00,2025-09-27 15:59:41.216,00:00:11.0,82781216,0.0,0.0,0.0,0.0,0.0,0.0,0.0,0.0,0.0,0.0,1.0,0.0,0.0,0.0,0.0,-0.001,0.0,0.0,0.0,0.0,0.037125405376344,0.3386085913978495,-2.925381397849462,-0.3291327311827957,-0.0394930161290322,0.935541623655914,0.0714477064516129,-0.0720902989247311,0.1912682903225806,47.61420733,,-0.061505376344086,-0.041752688172043,2977.11,3047.32,-122.74732816,99.25478376,0.0,0.0,80.6,32.8,44.5,0.832,100,True
,62,6200.0,2025-09-27 22:59:41.316000+00:00,2025-09-27 15:59:41.316,00:00:11.1,82781316,0.0,0.0,0.0,0.0,0.0,0.0,0.0,0.0,0.0,0.0,1.0,0.0,0.0,0.0,0.0,-0.001,0.0,0.0,0.0,0.0,0.0370035588235294,0.3385872352941176,-2.9258417647058823,-0.3320795294117647,-0.0406147352941176,0.9356653529411764,0.0995591117647058,-0.0186349882352941,0.2659497058823529,47.61420733,,-0.0603529411764705,-0.041,2977.11,3047.32,-122.74732816,99.25478376,0.0,0.0,80.6,32.76470588235294,44.5,0.832,100,True
,63,6300.0,2025-09-27 22:59:41.416000+00:00,2025-09-27 15:59:41.416,00:00:11.2,82781416,0.0,0.0,0.0,0.0,0.0,0.0,0.0,0.0,0.0,0.0,1.0,0.0,0.0,0.0,0.0,-0.001,0.0,0.0,0.0,0.0,0.0367715,0.338672,-2.92631,-0.3328465,-0.043093,0.935792,0.172207,-0.01787525,0.340175,47.61420733,,-0.0605,-0.041,2977.11,3047.32,-122.74732816,99.25478376,0.0,0.0,80.6,32.75,44.5,0.832,100,True
,64,6400.0,2025-09-27 22:59:41.516000+00:00,2025-09-27 15:59:41.516,00:00:11.3,82781516,0.0,0.0,0.0,0.0,0.0,0.0,0.0,0.0,0.0,0.0,1.0,0.0,0.0,0.0,0.0,-0.001,0.0,0.0,0.0,0.0,0.036656196875,0.33884696875,-2.9267177083333333,-0.3310915520833333,-0.0421092135416666,0.93598296875,0.1384744166666666,0.0618947625,0.2969342395833333,47.61420733,,-0.0605729166666666,-0.0415729166666666,2977.11,3047.32,-122.74732816,99.25478376,0.0,0.0,80.6,32.8,44.5,0.832,100,True
,65,6500.0,2025-09-27 22:59:41.616000+00:00,2025-09-27 15:59:41.616,00:00:11.4,82781616,0.0,0.0,0.0,0.0,0.0,0.0,0.0,0.0,0.0,0.0,1.0,0.0,0.0,0.0,0.0,-0.001,0.0,0.0,0.0,0.0,0.0364721023255813,0.3390757325581395,-2.927168139534884,-0.3307331860465116,-0.0380411662790697,0.9360765813953488,0.1672272325581395,0.1215368372093023,0.2819866511627907,47.61420733,,-0.0616860465116279,-0.042,2977.11,3047.32,-122.74732816,99.25478376,0.0,0.0,80.6,32.73139534883721,44.5,0.832,100,True
,66,6600.0,2025-09-27 22:59:41.716000+00:00,2025-09-27 15:59:41.716,00:00:11.5,82781716,0.0,0.0,0.0,0.0,0.0,0.0,0.0,0.0,0.0,0.0,1.0,0.0,0.0,0.0,0.0,-0.001,0.0,0.0,0.0,0.0,0.0363653515463917,0.3393358969072165,-2.9275709278350512,-0.3299095979381443,-0.0417111670103092,0.9361108350515464,0.0595862134020618,0.1213177319587628,0.2606100721649484,47.61420733,,-0.0612474226804123,-0.042,2977.11,3047.32,-122.74732816,99.25478376,0.0,0.0,80.6,32.7,44.5,0.832,100,True
,67,6700.0,2025-09-27 22:59:41.816000+00:00,2025-09-27 15:59:41.816,00:00:11.6,82781816,0.0,0.0,0.0,0.0,0.0,0.0,0.0,0.0,0.0,0.0,1.0,0.0,0.0,0.0,0.0,-0.001,0.0,0.0,0.0,0.0,0.0363756590361445,0.3396397349397591,-2.927980481927711,-0.3320165903614457,-0.0375127180722891,0.9361016024096386,0.0235659,-0.0711069927710843,0.2483527590361446,47.61420733,,-0.061,-0.042,2977.11,3047.32,-122.74732816,99.5377059840964,0.0,0.0,80.6,32.7,44.5,0.832,100,True
,68,6800.0,2025-09-27 22:59:41.916000+00:00,2025-09-27 15:59:41.916,00:00:11.7,82781916,0.0,0.0,0.0,0.0,0.0,0.0,0.0,0.0,0.0,0.0,1.0,0.0,0.0,0.0,0.0,-0.001,0.0,0.0,0.0,0.0,0.0364970659793814,0.3398115670103093,-2.9283168041237118,-0.3318858350515464,-0.0392776329896907,0.9360328865979382,-0.0374251298969072,0.1803671896907216,0.3185045154639175,47.61420733,,-0.061,-0.041041237113402,2977.11,3047.32,-122.74732816,99.56376461,0.0,0.0,80.6,32.7,44.5,0.832,100,True
,69,6900.0,2025-09-27 22:59:42.016000+00:00,2025-09-27 15:59:42.016,00:00:11.8,82782016,0.0,0.0,0.0,0.0,0.0,0.0,0.0,0.0,0.0,0.0,1.0,0.0,0.0,0.0,0.0,-0.001,0.0,0.0,0.0,0.0,0.0365040488372093,0.3398552790697675,-2.9287206976744184,-0.3316117441860465,-0.0356896395348837,0.9358192093023256,0.1476118604651163,-0.0176942697674418,0.3578562093023256,47.61420733,,-0.061,-0.041,2977.11,3047.32,-122.74732816,99.56376461,0.0,0.0,80.6,32.7,44.5,0.832,100,True
,70,7000.0,2025-09-27 22:59:42.116000+00:00,2025-09-27 15:59:42.116,00:00:11.9,82782116,0.0,0.0,0.0,0.0,0.0,0.0,0.0,0.0,0.0,0.0,1.0,0.0,0.0,0.0,0.0,-0.001,0.0,0.0,0.0,0.0,0.0365610021276595,0.3398173617021277,-2.9290878723404257,-0.3285965957446808,-0.0374308191489361,0.9356586170212766,-0.105695744680851,-0.0194236510638297,0.1888921276595744,47.61420733,,-0.061,-0.0412340425531914,2977.11,3047.32,-122.74732816,99.56376461,0.0,0.0,80.6,32.7,44.5,0.832,100,True
,71,7100.0,2025-09-27 22:59:42.216000+00:00,2025-09-27 15:59:42.216,00:00:12.0,82782216,0.0,0.0,0.0,0.0,0.0,0.0,0.0,0.0,0.0,0.0,1.0,0.0,0.0,0.0,0.0,-0.001,0.0,0.0,0.0,0.0,0.036687752173913,0.3398434492753623,-2.929374927536232,-0.3272679130434783,-0.0349468623188405,0.9356114927536232,-0.0818223768115942,0.0230154782608695,0.1721047246376811,47.61420733,,-0.0612028985507246,-0.042,2977.11,3047.32,-122.74732816,99.56376461,0.0,0.0,80.6,32.7,44.5,0.832,100,True
,72,7200.0,2025-09-27 22:59:42.316000+00:00,2025-09-27 15:59:42.316,00:00:12.1,82782316,0.0,0.0,0.0,0.0,0.0,0.0,0.0,0.0,0.0,0.0,1.0,0.0,0.0,0.0,0.0,-0.001,0.0,0.0,0.0,0.0,0.0368107956521739,0.339955768115942,-2.9296068115942027,-0.3263961739130435,-0.0367374420289855,0.9356346811594204,-0.1873165797101449,0.1747550434782608,0.128885884057971,47.61420733,,-0.061927536231884,-0.042,2977.11,3047.32,-122.74732816,99.56376461,0.0,0.0,80.6,32.7,44.5,0.832,100,True
,73,7300.0,2025-09-27 22:59:42.416000+00:00,2025-09-27 15:59:42.416,00:00:12.2,82782416,0.0,0.0,0.0,0.0,0.0,0.0,0.0,0.0,0.0,0.0,1.0,0.0,0.0,0.0,0.0,-0.001,0.0,0.0,0.0,0.0,0.0369903463157894,0.3401491789473684,-2.930130842105263,-0.3298111263157894,-0.0428268926315789,0.9356094315789474,0.1433132336842105,-0.0241134336842105,0.1626544210526316,47.61420733,,-0.061,-0.041,2977.11,3047.32,-122.74732816,99.56376461,0.0,0.0,80.6,32.7,44.5,0.832,100,True
,74,7400.0,2025-09-27 22:59:42.516000+00:00,2025-09-27 15:59:42.516,00:00:12.3,82782516,0.0,0.0,0.0,0.0,0.0,0.0,0.0,0.0,0.0,0.0,1.0,0.0,0.0,0.0,0.0,-0.001,0.0,0.0,0.0,0.0,0.0369000365853658,0.3401408902439025,-2.9304882926829268,-0.3306676829268292,-0.042866543902439,0.9355142804878048,-0.0380518134146341,-0.0712274195121951,0.1320682682926829,47.61420733,,-0.0611341463414634,-0.041,2977.11,3047.32,-122.74732816,99.56376461,0.0,0.0,80.6,32.7,44.5,0.832,100,True
,75,7500.0,2025-09-27 22:59:42.616000+00:00,2025-09-27 15:59:42.616,00:00:12.4,82782616,0.0,0.0,0.0,0.0,0.0,0.0,0.0,0.0,0.0,0.0,1.0,0.0,0.0,0.0,0.0,-0.001,0.0,0.0,0.0,0.0,0.0368455302158273,0.3401789352517986,-2.93087928057554,-0.3329097553956834,-0.0434037280575539,0.9355365107913668,0.0800260309352517,0.0512751618705035,0.2568079856115108,47.61420733,,-0.062,-0.0412086330935251,2977.11,3047.32,-122.74732816,99.56376461,0.0,0.0,80.6,32.7,44.5,0.832,100,True
,76,7600.0,2025-09-27 22:59:42.716000+00:00,2025-09-27 15:59:42.716,00:00:12.5,82782716,0.0,0.0,0.0,0.0,0.0,0.0,0.0,0.0,0.0,0.0,1.0,0.0,0.0,0.0,0.0,-0.001,0.0,0.0,0.0,0.0,0.0367680482014388,0.3402235395683453,-2.931152661870504,-0.3315227050359712,-0.0419610661870503,0.9355624100719424,0.0342602755395683,0.0518336510791366,0.31137345323741,47.61420733,,-0.062,-0.0419280575539568,2977.11,3047.32,-122.74732816,99.56376461,0.0,0.0,80.6,32.7,44.5,0.832,100,True
,77,7700.0,2025-09-27 22:59:42.816000+00:00,2025-09-27 15:59:42.816,00:00:12.6,82782816,0.0,0.0,0.0,0.0,0.0,0.0,0.0,0.0,0.0,0.0,1.0,0.0,0.0,0.0,0.0,-0.001,0.0,0.0,0.0,0.0,0.0367924968421052,0.3403278631578947,-2.931728,-0.3308997894736842,-0.0398244157894736,0.9355461789473684,0.0992871042105263,0.0488645621052631,0.3092741894736842,47.61420733,,-0.062,-0.042,2977.11,3047.32,-122.74732816,99.79086776,0.0,0.0,80.6,32.7,44.5,0.832,100,True
,78,7800.0,2025-09-27 22:59:42.916000+00:00,2025-09-27 15:59:42.916,00:00:12.7,82782916,0.0,0.0,0.0,0.0,0.0,0.0,0.0,0.0,0.0,0.0,1.0,0.0,0.0,0.0,0.0,-0.001,0.0,0.0,0.0,0.0,0.0367467333333333,0.34034984375,-2.932129166666667,-0.33090775,-0.0381049354166666,0.9354945104166666,0.0932981,-0.0939834114583333,0.24246828125,47.61420733,,-0.0619270833333333,-0.042,2977.11,3047.32,-122.74732816,99.79086776,0.0,0.0,80.6,32.7,44.5,0.832,100,True
,79,7900.0,2025-09-27 22:59:43.016000+00:00,2025-09-27 15:59:43.016,00:00:12.8,82783016,0.0,0.0,0.0,0.0,0.0,0.0,0.0,0.0,0.0,0.0,1.0,0.0,0.0,0.0,0.0,-0.001,0.0,0.0,0.0,0.0,0.0365593428571428,0.3400884285714285,-2.932557142857143,-0.3299474285714285,-0.0406845428571428,0.9353094285714286,0.0924241285714285,-0.1489784571428571,0.2330694285714285,47.61420733,,-0.0608571428571428,-0.0418571428571428,2977.11,3047.32,-122.74732816,99.79086776,0.0,0.0,80.6,32.7,44.5,0.832,100,True
,80,8000.0,2025-09-27 22:59:43.116000+00:00,2025-09-27 15:59:43.116,00:00:12.9,82783116,0.0,0.0,0.0,0.0,0.0,0.0,0.0,0.0,0.0,0.0,1.0,0.0,0.0,0.0,0.0,-0.001,0.0,0.0,0.0,0.0,0.0364420747252747,0.3398310219780219,-2.9330195604395604,-0.3302730989010989,-0.0417568813186813,0.9352403296703296,0.0634122824175824,-0.0893031538461538,0.2010260659340659,47.61420733,,-0.0603736263736263,-0.041,2977.11,3047.32,-122.74732816,99.79086776,0.0,0.0,80.6,32.7,44.5,0.832,100,True
,81,8100.0,2025-09-27 22:59:43.216000+00:00,2025-09-27 15:59:43.216,00:00:13.0,82783216,0.0,0.0,0.0,0.0,0.0,0.0,0.0,0.0,0.0,0.0,1.0,0.0,0.0,0.0,0.0,-0.001,0.0,0.0,0.0,0.0,0.0363552852631578,0.3396630947368421,-2.9333965263157893,-0.3303376421052632,-0.0406068157894736,0.9352800105263158,0.1498175663157895,-0.1522953557894736,0.2381067263157894,47.61420733,,-0.061,-0.041,2977.11,3047.32,-122.74732816,99.79086776,0.0,0.0,80.6,32.7,44.5,0.832,100,True
,82,8200.0,2025-09-27 22:59:43.316000+00:00,2025-09-27 15:59:43.316,00:00:13.1,82783316,0.0,0.0,0.0,0.0,0.0,0.0,0.0,0.0,0.0,0.0,1.0,0.0,0.0,0.0,0.0,-0.001,0.0,0.0,0.0,0.0,0.0359584454545454,0.3396238181818182,-2.9338063636363634,-0.3296189090909091,-0.041028209090909,0.9353699090909092,0.410596909090909,0.0007065454545454,0.2903213636363636,47.61420733,,-0.061,-0.041,2977.11,3047.32,-122.74732816,99.79086776,0.0,0.0,80.6,32.7,44.5,0.832,100,True
,83,8300.0,2025-09-27 22:59:43.416000+00:00,2025-09-27 15:59:43.416,00:00:13.2,82783416,0.0,0.0,0.0,0.0,0.0,0.0,0.0,0.0,0.0,0.0,1.0,0.0,0.0,0.0,0.0,-0.001,0.0,0.0,0.0,0.0,0.0353010195402298,0.3398346666666667,-2.9343210344827586,-0.3296505747126437,-0.0401889,0.9356424022988504,0.5205808620689655,0.4412231954022988,0.3844718620689655,47.61420733,,-0.061,-0.041183908045977,2977.11,3047.32,-122.74732816,99.79086776,0.0,0.0,80.6,32.7,44.5,0.832,100,True
,84,8400.0,2025-09-27 22:59:43.516000+00:00,2025-09-27 15:59:43.516,00:00:13.3,82783516,0.0,0.0,0.0,0.0,0.0,0.0,0.0,0.0,0.0,0.0,1.0,0.0,0.0,0.0,0.0,-0.001,0.0,0.0,0.0,0.0,0.0345049709677419,0.3408619462365591,-2.935201612903226,-0.3316761827956989,-0.0309134849462365,0.9363744086021506,0.0566105376344086,0.414946176344086,0.2669249569892473,47.61420733,,-0.061,-0.042,2977.11,3047.32,-122.74732816,99.79086776,0.0,0.0,80.6,32.7,44.5,0.832,100,True
,85,8500.0,2025-09-27 22:59:43.616000+00:00,2025-09-27 15:59:43.616,00:00:13.4,82783616,0.0,0.0,0.0,0.0,0.0,0.0,0.0,0.0,0.0,0.0,1.0,0.0,0.0,0.0,0.0,-0.001,0.0,0.0,0.0,0.0,0.0345411,0.341301,-2.93547,-0.334241,-0.0306409,0.936468,-0.191748,-0.0193464,0.196441,47.61420733,,-0.061,-0.042,2977.11,3047.32,-122.74732816,99.79086776,0.0,0.0,80.6,32.7,44.5,0.832,100,True
,86,8600.0,2025-09-27 22:59:43.716000+00:00,2025-09-27 15:59:43.716,00:00:13.5,82783716,0.0,0.0,0.0,0.0,0.0,0.0,0.0,0.0,0.0,0.0,1.0,0.0,0.0,0.0,0.0,-0.001,0.0,0.0,0.0,0.0,0.0350832135416666,0.3413954270833333,-2.9355873958333336,-0.3334228020833333,-0.0334018968749999,0.9362776145833334,-0.3822007916666666,-0.020643675,0.0696912197916666,47.61420733,,-0.061,-0.042,2977.11,3047.32,-122.74732816,99.79086776,0.0,0.0,80.6,32.7,44.5,0.832,100,True
,87,8700.0,2025-09-27 22:59:43.816000+00:00,2025-09-27 15:59:43.816,00:00:13.6,82783816,0.0,0.0,0.0,0.0,0.0,0.0,0.0,0.0,0.0,0.0,1.0,0.0,0.0,0.0,0.0,-0.001,0.0,0.0,0.0,0.0,0.0360510202247191,0.341433,-2.9357893258426966,-0.333592595505618,-0.0348630595505618,0.9358883595505618,-0.2486965898876404,0.1475589550561798,0.2115731955056179,47.61420733,,-0.061,-0.0414044943820224,2977.11,3047.32,-122.74732816,99.89958206865168,0.0,0.0,80.6,32.7,44.5,0.832,100,True
,88,8800.0,2025-09-27 22:59:43.916000+00:00,2025-09-27 15:59:43.916,00:00:13.7,82783916,0.0,0.0,0.0,0.0,0.0,0.0,0.0,0.0,0.0,0.0,1.0,0.0,0.0,0.0,0.0,-0.001,0.0,0.0,0.0,0.0,0.0367380425531914,0.3411988723404255,-2.936115531914893,-0.3325804042553191,-0.0392955085106383,0.935440255319149,-0.4820520319148936,-0.1683046595744681,0.1950284680851063,47.61420733,,-0.061,-0.0416808510638297,2977.11,3047.32,-122.74732816,99.97342575,0.0,0.0,80.6,32.7,44.5,0.832,100,True
,89,8900.0,2025-09-27 22:59:44.016000+00:00,2025-09-27 15:59:44.016,00:00:13.8,82784016,0.0,0.0,0.0,0.0,0.0,0.0,0.0,0.0,0.0,0.0,1.0,0.0,0.0,0.0,0.0,-0.001,0.0,0.0,0.0,0.0,0.0382466463414634,0.340801243902439,-2.9362314634146345,-0.3289115121951219,-0.0400404682926829,0.9351397804878048,-1.2487464390243903,-0.372272731707317,-0.0877084390243902,47.61420733,,-0.061,-0.042,2977.11,3047.32,-122.74732816,99.97342575,0.0,0.0,80.6,32.7,44.5,0.832,100,True
,90,9000.0,2025-09-27 22:59:44.116000+00:00,2025-09-27 15:59:44.116,00:00:13.9,82784116,0.0,0.0,0.0,0.0,0.0,0.0,0.0,0.0,0.0,0.0,1.0,0.0,0.0,0.0,0.0,-0.001,0.0,0.0,0.0,0.0,0.0397699333333333,0.3410166666666666,-2.936175,-0.3324035,-0.0354773666666666,0.9354769166666668,-0.0096665,0.3385823333333334,0.3993324166666666,47.61420733,,-0.0600833333333333,-0.042,2977.11,3047.32,-122.74732816,99.97342575,0.0,0.0,80.6,32.7,44.5,0.8329166666666666,100,True
,91,9100.0,2025-09-27 22:59:44.216000+00:00,2025-09-27 15:59:44.216,00:00:14.0,82784216,0.0,0.0,0.0,0.0,0.0,0.0,0.0,0.0,0.0,0.0,1.0,0.0,0.0,0.0,0.0,-0.001,0.0,0.0,0.0,0.0,0.0397260054347826,0.3409768369565217,-2.936611086956522,-0.3335326086956521,-0.0433156380434782,0.935273902173913,0.0235659,-0.1451180913043478,0.2491098152173913,47.61420733,,-0.061,-0.0410978260869565,2977.11,3047.32,-122.74732816,99.97342575,0.0,0.0,80.6,32.7,44.5,0.833,100,True
,92,9200.0,2025-09-27 22:59:44.316000+00:00,2025-09-27 15:59:44.316,00:00:14.1,82784316,0.0,0.0,0.0,0.0,0.0,0.0,0.0,0.0,0.0,0.0,1.0,0.0,0.0,0.0,0.0,-0.001,0.0,0.0,0.0,0.0,0.039471289010989,0.3409792747252747,-2.937072197802198,-0.3293640219780219,-0.039772234065934,0.935254131868132,0.0365927945054945,0.0073202813186813,0.2464065604395604,47.61420733,,-0.0611868131868131,-0.042,2977.11,3047.32,-122.74732816,99.97342575,0.0,0.0,80.6,32.7,44.5,0.833,100,True
,93,9300.0,2025-09-27 22:59:44.416000+00:00,2025-09-27 15:59:44.416,00:00:14.2,82784416,0.0,0.0,0.0,0.0,0.0,0.0,0.0,0.0,0.0,0.0,1.0,0.0,0.0,0.0,0.0,-0.001,0.0,0.0,0.0,0.0,0.0393017395833333,0.3409883958333333,-2.9375329166666666,-0.3316680833333333,-0.0387125479166666,0.9352435,0.0932981,0.1969392708333333,0.2394907916666666,47.61420733,,-0.0617291666666666,-0.042,2977.11,3047.32,-122.74732816,99.97342575,0.0,0.0,80.6,32.7,44.5,0.833,100,True
,94,9400.0,2025-09-27 22:59:44.516000+00:00,2025-09-27 15:59:44.516,00:00:14.3,82784516,0.0,0.0,0.0,0.0,0.0,0.0,0.0,0.0,0.0,0.0,1.0,0.0,0.0,0.0,0.0,-0.001,0.0,0.0,0.0,0.0,0.0390934431818181,0.3413741818181818,-2.9379293181818182,-0.3331615681818182,-0.0397703272727272,0.9354339545454544,0.069525759090909,0.2818043636363636,0.2407078181818182,47.61420733,,-0.061,-0.0416590909090909,2977.11,3047.32,-122.74732816,99.97342575,0.0,0.0,80.6,32.7,44.5,0.833,100,True
,95,9500.0,2025-09-27 22:59:44.616000+00:00,2025-09-27 15:59:44.616,00:00:14.4,82784616,0.0,0.0,0.0,0.0,0.0,0.0,0.0,0.0,0.0,0.0,1.0,0.0,0.0,0.0,0.0,-0.001,0.0,0.0,0.0,0.0,0.0389868,0.3417869999999999,-2.938325,-0.3316525,-0.0440726,0.935526,0.16302995,0.2260413999999999,0.233075,47.61420733,,-0.061,-0.0415,2977.11,3047.32,-122.74732816,99.97342575,0.0,0.0,80.6,32.7,44.5,0.833,100,True
,96,9600.0,2025-09-27 22:59:44.716000+00:00,2025-09-27 15:59:44.716,00:00:14.5,82784716,0.0,0.0,0.0,0.0,0.0,0.0,0.0,0.0,0.0,0.0,1.0,0.0,0.0,0.0,0.0,-0.001,0.0,0.0,0.0,0.0,0.0385555955555555,0.3424011777777778,-2.93878,-0.3341436888888888,-0.0425663133333333,0.9356458444444444,0.5918379555555555,0.5833994888888889,0.4182287333333333,47.61420733,,-0.061,-0.042,2977.11,3047.32,-122.74732816,99.97342575,0.0,0.0,80.6,32.7,44.5,0.833,100,True
,97,9700.0,2025-09-27 22:59:44.816000+00:00,2025-09-27 15:59:44.816,00:00:14.6,82784816,0.0,0.0,0.0,0.0,0.0,0.0,0.0,0.0,0.0,0.0,1.0,0.0,0.0,0.0,0.0,-0.001,0.0,0.0,0.0,0.0,0.0377412236559139,0.3430082688172043,-2.9393348387096774,-0.3329831182795699,-0.0416444569892473,0.9356026989247312,0.0707528602150537,-0.1362889354838709,0.3907142043010753,47.61420733,,-0.061,-0.042,2977.11,3047.32,-122.74732816,100.07282261494623,0.0,0.0,80.67311827956989,32.7,44.5,0.833,100,True
,98,9800.0,2025-09-27 22:59:44.916000+00:00,2025-09-27 15:59:44.916,00:00:14.7,82784916,0.0,0.0,0.0,0.0,0.0,0.0,0.0,0.0,0.0,0.0,1.0,0.0,0.0,0.0,0.0,-0.001,0.0,0.0,0.0,0.0,0.0376378931034482,0.342933,-2.939721379310345,-0.3328479310344827,-0.035439,0.935128551724138,0.2961249310344828,0.4661805862068965,0.2286323448275862,47.61420733,,-0.0618620689655172,-0.042,2977.11,3047.32,-122.74732816,100.10936558,0.0,0.0,80.7,32.7,44.5,0.833,100,True
,99,9900.0,2025-09-27 22:59:45.016000+00:00,2025-09-27 15:59:45.016,00:00:14.8,82785016,0.0,0.0,0.0,0.0,0.0,0.0,0.0,0.0,0.0,0.0,1.0,0.0,0.0,0.0,0.0,-0.001,0.0,0.0,0.0,0.0,0.0373326978494623,0.3431733010752688,-2.940119569892473,-0.3362946451612903,-0.0456497483870967,0.9349433978494625,0.3062430860215053,-0.2501372365591396,0.225383376344086,47.61420733,,-0.0610537634408602,-0.0410537634408602,2977.11,3047.32,-122.74732816,100.10936558,0.0,0.0,80.60537634408601,32.7,44.5,0.833,100,True
,100,10000.0,2025-09-27 22:59:45.116000+00:00,2025-09-27 15:59:45.116,00:00:14.9,82785116,0.0,0.0,0.0,0.0,0.0,0.0,0.0,0.0,0.0,0.0,1.0,0.0,0.0,0.0,0.0,-0.001,0.0,0.0,0.0,0.0,0.0369358244604316,0.3429412805755396,-2.940612014388489,-0.3344987410071942,-0.0390818964028777,0.9346248273381296,0.1536038338129496,0.0328839640287769,0.2313289352517985,47.61420733,,-0.061,-0.0410647482014388,2977.11,3047.32,-122.74732816,100.10936558,0.0,0.0,80.69352517985612,32.7,44.5,0.833,100,True
,101,10100.0,2025-09-27 22:59:45.216000+00:00,2025-09-27 15:59:45.216,00:00:15.0,82785216,0.0,0.0,0.0,0.0,0.0,0.0,0.0,0.0,0.0,0.0,1.0,0.0,0.0,0.0,0.0,-0.001,0.0,0.0,0.0,0.0,0.0369216517985611,0.3428110647482014,-2.940856618705036,-0.3349958633093525,-0.040420745323741,0.9344895755395684,0.0488686539568345,-0.1689675467625899,0.1920282158273381,47.61420733,,-0.061,-0.0417841726618705,2977.11,3047.32,-122.74732816,100.10936558,0.0,0.0,80.62158273381294,32.7,44.5,0.833,100,True
,102,10200.0,2025-09-27 22:59:45.316000+00:00,2025-09-27 15:59:45.316,00:00:15.1,82785316,0.0,0.0,0.0,0.0,0.0,0.0,0.0,0.0,0.0,0.0,1.0,0.0,0.0,0.0,0.0,-0.001,0.0,0.0,0.0,0.0,0.0365444909090909,0.3431439191919191,-2.9413188888888886,-0.3351089393939394,-0.0412844707070707,0.9348251616161616,0.4291958070707071,0.2175726565656565,0.3382866868686869,47.61420733,,-0.0602929292929292,-0.0412929292929293,2977.11,3047.32,-122.74732816,100.10936558,0.0,0.0,80.6,32.7,44.5,0.833,100,True
,103,10300.0,2025-09-27 22:59:45.416000+00:00,2025-09-27 15:59:45.416,00:00:15.2,82785416,0.0,0.0,0.0,0.0,0.0,0.0,0.0,0.0,0.0,0.0,1.0,0.0,0.0,0.0,0.0,-0.001,0.0,0.0,0.0,0.0,0.035953623076923,0.3430185512820513,-2.941962435897436,-0.3323149871794871,-0.0298109641025641,0.9346105256410256,0.1443201012820512,-0.7449652435897436,0.3275400384615384,47.61420733,,-0.0618205128205128,-0.0419102564102564,2977.11,3047.32,-122.74732816,100.10936558,0.0,0.0,80.69102564102565,32.7,44.5,0.833,100,True
,104,10400.0,2025-09-27 22:59:45.516000+00:00,2025-09-27 15:59:45.516,00:00:15.3,82785516,0.0,0.0,0.0,0.0,0.0,0.0,0.0,0.0,0.0,0.0,1.0,0.0,0.0,0.0,0.0,-0.001,0.0,0.0,0.0,0.0,0.0358915109890109,0.3426039010989011,-2.942367472527472,-0.3282940109890109,-0.0460027681318681,0.9344655714285716,0.0959473791208791,0.5232961208791208,0.3015573736263736,47.61396881945055,,-0.061021978021978,-0.042,2977.11,3047.32,-122.74892453450548,97.90915974307693,0.0,0.0,80.6021978021978,32.7,44.5,0.833,100,True
,105,10500.0,2025-09-27 22:59:45.616000+00:00,2025-09-27 15:59:45.616,00:00:15.4,82785616,0.0,0.0,0.0,0.0,0.0,0.0,0.0,0.0,0.0,0.0,1.0,0.0,0.0,0.0,0.0,-0.001,0.0,0.0,0.0,0.0,0.0359721326241134,0.3428149787234043,-2.942721843971631,-0.3363080921985816,-0.0366995460992907,0.9346704042553192,-0.0292922269503546,-0.2890512482269504,0.1366051560283687,47.6033551,,-0.062,-0.0419219858156028,2977.11,3047.32,-122.8199632,0.0,0.0,0.0,80.7,32.7,44.5,0.833,100,True
,106,10600.0,2025-09-27 22:59:45.716000+00:00,2025-09-27 15:59:45.716,00:00:15.5,82785716,0.0,0.0,0.0,0.0,0.0,0.0,0.0,0.0,0.0,0.0,1.0,0.0,0.0,0.0,0.0,-0.001,0.0,0.0,0.0,0.0,0.0360533382978723,0.3427511489361702,-2.942920425531915,-0.3343180212765957,-0.0426345106382978,0.934683170212766,0.2353402553191489,-0.1879625957446808,0.3117065744680851,47.6033551,,-0.062,-0.0412127659574468,2977.11,3047.32,-122.8199632,0.0,0.0,0.0,80.7,32.7,44.5,0.833,100,True
,107,10700.0,2025-09-27 22:59:45.816000+00:00,2025-09-27 15:59:45.816,00:00:15.6,82785816,0.0,0.0,0.0,0.0,0.0,0.0,0.0,0.0,0.0,0.0,1.0,0.0,0.0,0.0,0.0,-0.001,0.0,0.0,0.0,0.0,0.0350154888888888,0.3423073333333333,-2.943695555555556,-0.3346496666666667,-0.0401261777777777,0.9344163333333334,0.5954276666666667,-0.3200943333333333,0.4505851111111111,47.61179572333333,,-0.062,-0.0417777777777777,2977.11,3047.32,-122.76346928,78.13119602555555,0.0,0.0,80.62222222222222,32.7,44.5,0.833,100,True
,108,10800.0,2025-09-27 22:59:45.916000+00:00,2025-09-27 15:59:45.916,00:00:15.7,82785916,0.0,0.0,0.0,0.0,0.0,0.0,0.0,0.0,0.0,0.0,1.0,0.0,0.0,0.0,0.0,-0.001,0.0,0.0,0.0,0.0,0.0340409302325581,0.3419357674418605,-2.9444116279069767,-0.3344787209302325,-0.0388498232558139,0.934365976744186,0.1339256976744185,-0.0431363023255813,0.2579946046511627,47.61420733,,-0.0610697674418604,-0.0410697674418604,2977.11,3047.32,-122.74732816,100.45439489,0.0,0.0,80.69302325581396,32.7,44.5,0.833,100,True
,109,10900.0,2025-09-27 22:59:46.016000+00:00,2025-09-27 15:59:46.016,00:00:15.8,82786016,0.0,0.0,0.0,0.0,0.0,0.0,0.0,0.0,0.0,0.0,1.0,0.0,0.0,0.0,0.0,-0.001,0.0,0.0,0.0,0.0,0.0339021554347826,0.3423611413043478,-2.944813586956521,-0.3329927391304348,-0.0321962619565217,0.9350155652173912,0.0712631902173913,0.2604023043478261,0.1705023478260869,47.61420733,,-0.061,-0.042,2977.11,3047.32,-122.74732816,100.45439489,0.0,0.0,80.7,32.7,44.5,0.833,100,True
,110,11000.0,2025-09-27 22:59:46.116000+00:00,2025-09-27 15:59:46.116,00:00:15.9,82786116,0.0,0.0,0.0,0.0,0.0,0.0,0.0,0.0,0.0,0.0,1.0,0.0,0.0,0.0,0.0,-0.001,0.0,0.0,0.0,0.0,0.0341285379310344,0.342756724137931,-2.945136206896552,-0.332757724137931,-0.0346278689655172,0.9354232413793104,-0.122016,0.272644448275862,0.1873345517241379,47.61420733,,-0.061,-0.0418275862068965,2977.11,3047.32,-122.74732816,100.45439489,0.0,0.0,80.68275862068965,32.7,44.5,0.833,100,True
,111,11100.0,2025-09-27 22:59:46.216000+00:00,2025-09-27 15:59:46.216,00:00:16.0,82786216,0.0,0.0,0.0,0.0,0.0,0.0,0.0,0.0,0.0,0.0,1.0,0.0,0.0,0.0,0.0,-0.001,0.0,0.0,0.0,0.0,0.0346431066666666,0.3430560666666666,-2.9453784444444446,-0.3361589333333333,-0.0413177111111111,0.9355854222222222,-0.1870995111111111,-0.3008901555555555,0.1989151555555555,47.61420733,,-0.061,-0.0416222222222222,2977.11,3047.32,-122.74732816,100.45439489,0.0,0.0,80.6,32.7,44.5,0.833,100,True
,112,11200.0,2025-09-27 22:59:46.316000+00:00,2025-09-27 15:59:46.316,00:00:16.1,82786316,0.0,0.0,0.0,0.0,0.0,0.0,0.0,0.0,0.0,0.0,1.0,0.0,0.0,0.0,0.0,-0.001,0.0,0.0,0.0,0.0,0.0349734220588235,0.3418006029411765,-2.945613823529412,-0.3340484558823529,-0.0624274617647058,0.9305633529411764,-0.3524063823529411,-1.0734633529411766,0.2016908235294117,47.61420733,,-0.061,-0.0427205882352941,2977.11,3047.32,-122.74732816,100.45439489,0.0,0.0,80.62794117647059,32.7,44.5,0.833,100,True
,113,11300.0,2025-09-27 22:59:46.416000+00:00,2025-09-27 15:59:46.416,00:00:16.2,82786416,0.0,0.0,0.0,0.0,0.0,0.0,0.0,0.0,0.0,0.0,1.0,0.0,0.0,0.0,0.0,-0.001,0.0,0.0,0.0,0.0,0.0349959409090909,0.340325659090909,-2.945837045454545,-0.3321716818181818,-0.1247090045454545,0.919713340909091,-0.42505225,0.5114139318181817,0.1348175,47.61420733,,-0.061,-0.042,2977.11,3047.32,-122.74732816,100.45439489,0.0,0.0,80.7,32.7,44.5,0.833,100,True
,114,11400.0,2025-09-27 22:59:46.516000+00:00,2025-09-27 15:59:46.516,00:00:16.3,82786516,0.0,0.0,0.0,0.0,0.0,0.0,0.0,0.0,0.0,0.0,1.0,0.0,0.0,0.0,0.0,-0.001,0.0,0.0,0.0,0.0,0.0373656933333333,0.3403221333333333,-2.946136888888889,-0.3337224444444444,-0.02914332,0.9354254444444444,-1.1306512666666668,-0.4277426222222222,-0.0355705955555555,47.61420733,,-0.061,-0.042,2977.11,3047.32,-122.74732816,100.45439489,0.0,0.0,80.7,32.7,44.5,0.833,100,True
,115,11500.0,2025-09-27 22:59:46.616000+00:00,2025-09-27 15:59:46.616,00:00:16.4,82786616,0.0,0.0,0.0,0.0,0.0,0.0,0.0,0.0,0.0,0.0,1.0,0.0,0.0,0.0,0.0,-0.001,0.0,0.0,0.0,0.0,0.0388281225806451,0.3409976774193548,-2.9461406451612904,-0.3321478064516129,-0.025549864516129,0.9363810645161292,-0.5411599419354839,0.7003670967741935,0.1335913806451613,47.61420733,,-0.061,-0.042,2977.11,3047.32,-122.74732816,100.45439489,0.0,0.0,80.7,32.7,44.5,0.833,100,True
,116,11600.0,2025-09-27 22:59:46.716000+00:00,2025-09-27 15:59:46.716,00:00:16.5,82786716,0.0,0.0,0.0,0.0,0.0,0.0,0.0,0.0,0.0,0.0,1.0,0.0,0.0,0.0,0.0,-0.001,0.0,0.0,0.0,0.0,0.0396095941860465,0.3414187674418604,-2.946207209302325,-0.337980511627907,-0.0555462616279069,0.936511069767442,0.5730886686046512,-1.4564216279069768,0.2396482325581395,47.61420733,,-0.061,-0.042,2977.11,3047.32,-122.74732816,100.53997433709304,0.0,0.0,80.7,32.7,44.5,0.833,100,True
,117,11700.0,2025-09-27 22:59:46.816000+00:00,2025-09-27 15:59:46.816,00:00:16.6,82786816,0.0,0.0,0.0,0.0,0.0,0.0,0.0,0.0,0.0,0.0,1.0,0.0,0.0,0.0,0.0,-0.001,0.0,0.0,0.0,0.0,0.0396637538461538,0.3398268571428571,-2.9465068131868133,-0.3334104285714285,-0.0804901593406593,0.9354931538461538,0.968795,-1.3972162087912088,0.562017065934066,47.61420733,,-0.061,-0.042,2977.11,3047.32,-122.74732816,100.69180884,0.0,0.0,80.7,32.7,44.5,0.833,100,True
,118,11800.0,2025-09-27 22:59:46.916000+00:00,2025-09-27 15:59:46.916,00:00:16.7,82786916,0.0,0.0,0.0,0.0,0.0,0.0,0.0,0.0,0.0,0.0,1.0,0.0,0.0,0.0,0.0,-0.001,0.0,0.0,0.0,0.0,0.0395445842696629,0.339119595505618,-2.947048764044944,-0.3295557865168539,-0.0501812370786516,0.935426213483146,-0.2183563932584269,-1.1082744382022471,0.4712717640449437,47.61420733,,-0.0603932584269662,-0.042,2977.11,3047.32,-122.74732816,100.69180884,0.0,0.0,80.7,32.7,44.5,0.833,100,True
,119,11900.0,2025-09-27 22:59:47.016000+00:00,2025-09-27 15:59:47.016,00:00:16.8,82787016,0.0,0.0,0.0,0.0,0.0,0.0,0.0,0.0,0.0,0.0,1.0,0.0,0.0,0.0,0.0,-0.001,0.0,0.0,0.0,0.0,0.0404524784946236,0.3386672903225806,-2.947412688172043,-0.3288297849462365,-0.0489422817204301,0.9358386129032258,-0.1686847258064515,0.3439531182795701,0.464233376344086,47.61420733,,-0.06,-0.0413010752688172,2977.11,3047.32,-122.74732816,100.69180884,0.0,0.0,80.7,32.7,44.5,0.833,100,True
,120,12000.0,2025-09-27 22:59:47.116000+00:00,2025-09-27 15:59:47.116,00:00:16.9,82787116,0.0,0.0,0.0,0.0,0.0,0.0,0.0,0.0,0.0,0.0,1.0,0.0,0.0,0.0,0.0,-0.001,0.0,0.0,0.0,0.0,0.040347475,0.34039475,-2.947725,-0.336821,-0.0516896,0.93749275,0.5725579749999999,1.57616,0.48198425,47.61420733,,-0.06075,-0.04175,2977.11,3047.32,-122.74732816,100.69180884,0.0,0.0,80.7,32.7,44.5,0.833,100,True
,121,12100.0,2025-09-27 22:59:47.216000+00:00,2025-09-27 15:59:47.216,00:00:17.0,82787216,0.0,0.0,0.0,0.0,0.0,0.0,0.0,0.0,0.0,0.0,1.0,0.0,0.0,0.0,0.0,-0.001,0.0,0.0,0.0,0.0,0.040165979527559,0.3420482598425197,-2.9479137007874017,-0.3361368346456693,-0.0625784834645669,0.9382510866141732,0.5330503070866142,0.7415537007874016,0.4343718188976378,47.61420733,,-0.061,-0.042,2977.11,3047.32,-122.74732816,100.69180884,0.0,0.0,80.7,32.7,44.5,0.833,100,True
,122,12200.0,2025-09-27 22:59:47.316000+00:00,2025-09-27 15:59:47.316,00:00:17.1,82787316,0.0,0.0,0.0,0.0,0.0,0.0,0.0,0.0,0.0,0.0,1.0,0.0,0.0,0.0,0.0,-0.001,0.0,0.0,0.0,0.0,0.0399124580882352,0.3431980882352941,-2.9482386029411765,-0.3340575,-0.0749499419117647,0.9381998897058824,0.3632516911764706,0.1479845955882353,0.401806,47.61420733,,-0.061,-0.042,2977.11,3047.32,-122.74732816,100.69180884,0.0,0.0,80.7,32.7,44.5,0.833,100,True
,123,12300.0,2025-09-27 22:59:47.416000+00:00,2025-09-27 15:59:47.416,00:00:17.2,82787416,0.0,0.0,0.0,0.0,0.0,0.0,0.0,0.0,0.0,0.0,1.0,0.0,0.0,0.0,0.0,-0.001,0.0,0.0,0.0,0.0,0.0394370474747474,0.3441530303030303,-2.94876797979798,-0.3355530707070707,-0.077956201010101,0.9376914545454546,0.3920006868686869,-0.0278467676767676,0.4022676060606061,47.61420733,,-0.061,-0.042,2977.11,3047.32,-122.74732816,100.69180884,0.0,0.0,80.7,32.7,44.5,0.833,100,True
,124,12400.0,2025-09-27 22:59:47.516000+00:00,2025-09-27 15:59:47.516,00:00:17.3,82787516,0.0,0.0,0.0,0.0,0.0,0.0,0.0,0.0,0.0,0.0,1.0,0.0,0.0,0.0,0.0,-0.001,0.0,0.0,0.0,0.0,0.0388737790697674,0.3444653255813953,-2.9494346511627905,-0.3427346511627906,-0.0260896744186046,0.9364657906976744,0.8454214418604651,-1.302248976744186,0.6693133023255814,47.61420733,,-0.061,-0.042,2977.11,3047.32,-122.74732816,100.69180884,0.0,0.0,80.7,32.7,44.5,0.833,100,True
,125,12500.0,2025-09-27 22:59:47.616000+00:00,2025-09-27 15:59:47.616,00:00:17.4,82787616,0.0,0.0,0.0,0.0,0.0,0.0,0.0,0.0,0.0,0.0,1.0,0.0,0.0,0.0,0.0,-0.001,0.0,0.0,0.0,0.0,0.0389912333333333,0.3404713333333333,-2.9499733333333333,-0.335299,-0.0387155333333333,0.9333226666666666,0.2531553333333334,-0.926582,0.4712066666666666,47.61420733,,-0.0613333333333333,-0.0423333333333333,2977.11,3047.32,-122.74732816,100.69180884,0.0,0.0,80.7,32.7,44.5,0.833,100,True
,126,12600.0,2025-09-27 22:59:47.716000+00:00,2025-09-27 15:59:47.716,00:00:17.5,82787716,0.0,0.0,0.0,0.0,0.0,0.0,0.0,0.0,0.0,0.0,1.0,0.0,0.0,0.0,0.0,-0.001,0.0,0.0,0.0,0.0,0.0396688777777777,0.3370217777777777,-2.950211111111112,-0.3325894444444444,-0.0319966,0.9317175555555556,-0.79297,-4.85183,-0.0214791111111111,47.61420733,,-0.0606666666666666,-0.0452222222222222,2977.11,3047.32,-122.74732816,100.69180884,0.0,0.0,80.7,32.7,44.5,0.833,100,True
,127,12700.0,2025-09-27 22:59:47.816000+00:00,2025-09-27 15:59:47.816,00:00:17.6,82787816,0.0,0.0,0.0,0.0,0.0,0.0,0.0,0.0,0.0,0.0,1.0,0.0,0.0,0.0,0.0,0.0006463414634146,0.0,0.0,0.0,0.0,0.0425762341463414,0.3192935121951219,-2.949959146341464,-0.3351215243902439,-0.0014353073170731,0.9219956585365854,-4.536743170731707,-17.39618548780488,-1.6123319634146345,47.61420733,,-0.0606463414634146,-0.0419634146341463,2977.11,3047.32,-122.74732816,100.63714427231707,0.0,0.0,80.7,32.7,44.5,0.833,100,True
,128,12800.0,2025-09-27 22:59:47.916000+00:00,2025-09-27 15:59:47.916,00:00:17.7,82787916,0.0,0.0,0.0,0.0,0.0,0.0,0.0,0.0,0.0,0.0,1.0,0.0,0.0,0.0,0.0,-0.0007692307692307,0.0,0.0,0.0,0.0,0.0561570769230769,0.2747567692307692,-2.946106153846154,-0.2942671538461538,-0.2361783384615384,0.9068073846153846,-5.595904615384615,-42.37914615384615,-3.177082307692308,47.61420733,,-0.0772307692307692,0.0045384615384615,2977.11,3047.32,-122.74732816,100.59219785,0.0,0.0,80.7,32.7,44.5,0.833,100,True
,129,12900.0,2025-09-27 22:59:48.016000+00:00,2025-09-27 15:59:48.016,00:00:17.8,82788016,0.0,0.0,0.0,0.0,0.0,0.0,0.0,0.0,0.0,0.0,1.0,0.0,0.0,0.0,0.0,-0.0075999999999999,0.0,0.0,0.0,0.0,0.05083816,0.1752644,-2.951724,-0.053336288,-0.14367728,0.8908512,16.106024000000005,-67.92794,2.441098000000001,47.61420733,,-0.0448,-0.1858,2977.11,3047.32,-122.74732816,100.59219785,0.0,0.0,80.7,32.7,44.5,0.833,100,True
