ride_id,sample_idx,_elapsed_ms,ts_utc,ts_pst,video_ts_anchor,ms_today,cf_accel,cf_brake,cf_cruise,cf_turn_left,cf_turn_right,cf_carve_left,cf_carve_right,cf_ascent,cf_descent,cf_traction_loss,cf_idle,cf_forward,cf_reverse,speed_meters_per_sec,erpm,duty_cycle,current_in,current_motor,d_axis_current,q_axis_current,roll,pitch,yaw,accX,accY,accZ,gyroX,gyroY,gyroZ,gnss_lat,fault_code,d_axis_voltage,q_axis_voltage,tacho_meters,tacho_abs_meters,gnss_lon,gnss_alt,gnss_gVel,gnss_vVel,input_voltage,temp_mos_max,temp_motor,battery_level,dt_ms,_on_grid
ride_51,0,0.0,2025-10-02 20:54:40.363000+00:00,2025-10-02 13:54:40.363,00:00:05.2,75280363,0.0,0.0,0.0,0.0,0.0,0.0,0.0,0.0,0.0,0.0,1.0,0.0,0.0,0.0,0.0,0.001,0.52,2.19,-0.01,2.22,0.0645131,0.308498,1.51858,-0.306924,-0.0632344,0.94356,-0.052284,0.0505247,0.18349,47.59983475,0.0,-0.161,1.667,1918.3,1926.74,-122.82570734,103.01206214,0.0,0.0,81.2,26.5,30.6,0.868,100,True
,1,100.0,2025-10-02 20:54:40.463000+00:00,2025-10-02 13:54:40.463,00:00:05.3,75280463,0.0,0.0,0.0,0.0,0.0,0.0,0.0,0.0,0.0,0.0,1.0,0.0,0.0,0.0,0.0,0.001,0.0,0.0,0.0,0.0,0.0501082072289156,0.3400964819277108,2.387369156626506,-0.3286897951807229,-0.0452310048192771,0.9354997710843374,-0.0592863084337349,0.2394569204819276,0.1017379445783132,47.59983475,,-0.066,0.034,1918.3,1926.74,-122.82570734,103.01189887638554,0.0,0.0,81.2,26.5,30.6,0.868,100,True
,2,200.0,2025-10-02 20:54:40.563000+00:00,2025-10-02 13:54:40.563,00:00:05.4,75280563,0.0,0.0,0.0,0.0,0.0,0.0,0.0,0.0,0.0,0.0,1.0,0.0,0.0,0.0,0.0,0.001,0.0,0.0,0.0,0.0,0.0502583144444444,0.3403179666666667,2.387201888888889,-0.3308704888888888,-0.04718921,0.9355185777777778,-0.0675105988888889,0.0145279644444444,0.0102937255555555,47.59983475,,-0.066,0.034,1918.3,1926.74,-122.82570734,103.00980366,0.0,0.0,81.2,26.5,30.6,0.868,100,True
,3,300.0,2025-10-02 20:54:40.663000+00:00,2025-10-02 13:54:40.663,00:00:05.5,75280663,0.0,0.0,0.0,0.0,0.0,0.0,0.0,0.0,0.0,0.0,1.0,0.0,0.0,0.0,0.0,0.001,0.0,0.0,0.0,0.0,0.0505059966666666,0.3402421333333333,2.387032,-0.3311494666666666,-0.0500596933333333,0.9352234,-0.0050216966666666,0.0430269266666666,0.1349141,47.59983475,,-0.066,0.034,1918.3,1926.74,-122.82570734,103.00980366,0.0,0.0,81.2,26.46333333333333,30.636666666666667,0.868,100,True
,4,400.0,2025-10-02 20:54:40.763000+00:00,2025-10-02 13:54:40.763,00:00:05.6,75280763,0.0,0.0,0.0,0.0,0.0,0.0,0.0,0.0,0.0,0.0,1.0,0.0,0.0,0.0,0.0,0.001,0.0,0.0,0.0,0.0,0.0504502,0.340061,2.38688,-0.331171,-0.0481355,0.934927,0.0871803,-0.0895932,0.172688,47.59983475,,-0.0655425531914893,0.034,1918.3,1926.74,-122.82570734,103.00980366,0.0,0.0,81.2,26.4,30.654255319148938,0.868,100,True
,5,500.0,2025-10-02 20:54:40.863000+00:00,2025-10-02 13:54:40.863,00:00:05.7,75280863,0.0,0.0,0.0,0.0,0.0,0.0,0.0,0.0,0.0,0.0,1.0,0.0,0.0,0.0,0.0,0.001,0.0,0.0,0.0,0.0,0.0503967035294117,0.3401290235294117,2.386655176470588,-0.330512094117647,-0.0472806517647058,0.934922388235294,0.0067832329411764,-0.0088193517647058,0.1789150352941176,47.59983475,,-0.0655764705882352,0.034,1918.3,1926.74,-122.82570734,103.00980366,0.0,0.0,81.2,26.4,30.657647058823528,0.868,100,True
,6,600.0,2025-10-02 20:54:40.963000+00:00,2025-10-02 13:54:40.963,00:00:05.8,75280963,0.0,0.0,0.0,0.0,0.0,0.0,0.0,0.0,0.0,0.0,1.0,0.0,0.0,0.0,0.0,0.001,0.0,0.0,0.0,0.0,0.0502139688888888,0.3402351777777778,2.3863264444444443,-0.3292216,-0.0460270355555555,0.9349076222222222,0.2539403555555555,0.0512725755555555,0.2565580888888888,47.59983475,,-0.0652888888888889,0.034,1918.3,1926.74,-122.82570734,103.00980366,0.0,0.0,81.2,26.47111111111111,30.7,0.868,100,True
,7,700.0,2025-10-02 20:54:41.063000+00:00,2025-10-02 13:54:41.063,00:00:05.9,75281063,0.0,0.0,0.0,0.0,0.0,0.0,0.0,0.0,0.0,0.0,1.0,0.0,0.0,0.0,0.0,0.001,0.0,0.0,0.0,0.0,0.0496833613636363,0.3401999772727272,2.385974090909091,-0.3334550909090909,-0.0469113227272727,0.9348147045454546,0.3094172045454545,0.1681496090909091,0.1729109999999999,47.59983475,,-0.065840909090909,0.034,1918.3,1926.74,-122.82570734,103.00980366,0.0,0.0,81.2,26.41590909090909,30.7,0.868,100,True
,8,800.0,2025-10-02 20:54:41.163000+00:00,2025-10-02 13:54:41.163,00:00:06.0,75281163,0.0,0.0,0.0,0.0,0.0,0.0,0.0,0.0,0.0,0.0,1.0,0.0,0.0,0.0,0.0,0.001,0.0,0.0,0.0,0.0,0.049059304347826,0.3404255,2.3856115217391305,-0.3298375869565217,-0.0458231456521739,0.9349522391304348,0.1602894782608696,-0.0066398108695652,0.0997348304347826,47.59983475,,-0.066,0.034,1918.3,1926.74,-122.82570734,103.00980366,0.0,0.0,81.2,26.4,30.60652173913044,0.868,100,True
,9,900.0,2025-10-02 20:54:41.263000+00:00,2025-10-02 13:54:41.263,00:00:06.1,75281263,0.0,0.0,0.0,0.0,0.0,0.0,0.0,0.0,0.0,0.0,1.0,0.0,0.0,0.0,0.0,0.001,0.0,0.0,0.0,0.0,0.0489096947368421,0.3405488631578947,2.385392105263158,-0.3306727894736842,-0.049559187368421,0.9349412315789474,0.0127982505263158,0.2567884726315789,0.1053963726315789,47.59983475,,-0.066,0.034,1918.3,1926.74,-122.82570734,103.00980366,0.0,0.0,81.2,26.4,30.69894736842105,0.868,100,True
,10,1000.0,2025-10-02 20:54:41.363000+00:00,2025-10-02 13:54:41.363,00:00:06.2,75281363,0.0,0.0,0.0,0.0,0.0,0.0,0.0,0.0,0.0,0.0,1.0,0.0,0.0,0.0,0.0,0.001,0.0,0.0,0.0,0.0,0.0489225549450549,0.340874032967033,2.3852294505494505,-0.3332891208791209,-0.0431794879120879,0.9350441978021978,0.1055176263736263,-0.0725136087912087,0.1878932637362637,47.59983475,,-0.066,0.034,1918.3,1926.74,-122.82570734,103.00980366,0.0,0.0,81.2,26.4,30.6,0.868,100,True
,11,1100.0,2025-10-02 20:54:41.463000+00:00,2025-10-02 13:54:41.463,00:00:06.3,75281463,0.0,0.0,0.0,0.0,0.0,0.0,0.0,0.0,0.0,0.0,1.0,0.0,0.0,0.0,0.0,0.001,0.0,0.0,0.0,0.0,0.0487609526315789,0.3408145789473684,2.385016842105263,-0.3293992631578947,-0.0479793578947368,0.9348327368421052,0.2363042105263158,0.0219289684210526,0.2694193157894737,47.59983475,,-0.066,0.034,1918.3,1926.74,-122.82570734,102.9934108726316,0.0,0.0,81.2,26.4,30.621052631578948,0.868,100,True
,12,1200.0,2025-10-02 20:54:41.563000+00:00,2025-10-02 13:54:41.563,00:00:06.4,75281563,0.0,0.0,0.0,0.0,0.0,0.0,0.0,0.0,0.0,0.0,1.0,0.0,0.0,0.0,0.0,0.001,0.0,0.0,0.0,0.0,0.048298137804878,0.3409100731707317,2.384700731707317,-0.3311233292682927,-0.0451566390243902,0.9347662926829268,0.2053849390243902,-0.0470186134146341,0.1618813536585366,47.59983475,,-0.0663048780487804,0.034,1918.3,1926.74,-122.82570734,102.93193792,0.0,0.0,81.2,26.4,30.7,0.868,100,True
,13,1300.0,2025-10-02 20:54:41.663000+00:00,2025-10-02 13:54:41.663,00:00:06.5,75281663,0.0,0.0,0.0,0.0,0.0,0.0,0.0,0.0,0.0,0.0,1.0,0.0,0.0,0.0,0.0,0.001,0.0,0.0,0.0,0.0,0.0479342308510638,0.3409080106382978,2.384391914893617,-0.3295267659574468,-0.0488225542553191,0.9346807340425533,0.1597106595744681,0.050663379787234,0.1970348510638297,47.59983475,,-0.0665425531914893,0.0344574468085106,1918.3,1926.74,-122.82570734,102.93193792,0.0,0.0,81.2,26.4,30.654255319148938,0.868,100,True
,14,1400.0,2025-10-02 20:54:41.763000+00:00,2025-10-02 13:54:41.763,00:00:06.6,75281763,0.0,0.0,0.0,0.0,0.0,0.0,0.0,0.0,0.0,0.0,1.0,0.0,0.0,0.0,0.0,0.001,0.0,0.0,0.0,0.0,0.0476524860465116,0.3409577674418604,2.3840861627906977,-0.3307596976744186,-0.0488164360465116,0.9346906395348836,0.1198133104651162,0.0905613511627907,0.1982145697674418,47.59983475,,-0.066,0.0344302325581395,1918.3,1926.74,-122.82570734,102.93193792,0.0,0.0,81.2,26.4,30.6,0.868,100,True
,15,1500.0,2025-10-02 20:54:41.863000+00:00,2025-10-02 13:54:41.863,00:00:06.7,75281863,0.0,0.0,0.0,0.0,0.0,0.0,0.0,0.0,0.0,0.0,1.0,0.0,0.0,0.0,0.0,0.001,0.0,0.0,0.0,0.0,0.04739939,0.3410489,2.383795,-0.3319631,-0.04445917,0.9347338,0.13599249,0.07135463,0.1667583,47.59983475,,-0.066,0.034,1918.3,1926.74,-122.82570734,102.93193792,0.0,0.0,81.2,26.47,30.6,0.868,100,True
,16,1600.0,2025-10-02 20:54:41.963000+00:00,2025-10-02 13:54:41.963,00:00:06.8,75281963,0.0,0.0,0.0,0.0,0.0,0.0,0.0,0.0,0.0,0.0,1.0,0.0,0.0,0.0,0.0,0.001,0.0,0.0,0.0,0.0,0.04696925,0.3410732391304347,2.3834978260869564,-0.3300744239130435,-0.0482538673913043,0.934731304347826,0.272428152173913,0.0508038619565217,0.2107574456521739,47.59983475,,-0.066,0.0347934782608695,1918.3,1926.74,-122.82570734,102.93193792,0.0,0.0,81.2,26.42065217391304,30.67934782608696,0.868,100,True
,17,1700.0,2025-10-02 20:54:42.063000+00:00,2025-10-02 13:54:42.063,00:00:06.9,75282063,0.0,0.0,0.0,0.0,0.0,0.0,0.0,0.0,0.0,0.0,1.0,0.0,0.0,0.0,0.0,0.001,0.0,0.0,0.0,0.0,0.046560004347826,0.340995402173913,2.383175869565217,-0.3295504673913043,-0.0462019358695652,0.9346346739130434,0.1850915434782608,0.1132915260869565,0.2941636847826087,47.59983475,,-0.066,0.0341195652173913,1918.3,1926.74,-122.82570734,102.93193792,0.0,0.0,81.2,26.4,30.7,0.868,100,True
,18,1800.0,2025-10-02 20:54:42.163000+00:00,2025-10-02 13:54:42.163,00:00:07.0,75282163,0.0,0.0,0.0,0.0,0.0,0.0,0.0,0.0,0.0,0.0,1.0,0.0,0.0,0.0,0.0,0.001,0.0,0.0,0.0,0.0,0.0462147348484848,0.3410416363636364,2.382937727272727,-0.3306921136363636,-0.0463723257575757,0.9346523409090908,0.2590555303030303,0.1211953106060606,0.2486150681818181,47.59983475,,-0.066,0.034,1918.3,1926.74,-122.82570734,102.93193792,0.0,0.0,81.2,26.4,30.63257575757576,0.868,100,True
,19,1900.0,2025-10-02 20:54:42.263000+00:00,2025-10-02 13:54:42.263,00:00:07.1,75282263,0.0,0.0,0.0,0.0,0.0,0.0,0.0,0.0,0.0,0.0,1.0,0.0,0.0,0.0,0.0,0.001,0.0,0.0,0.0,0.0,0.0456549680412371,0.3414374432989691,2.382575567010309,-0.3320275567010309,-0.0446972360824742,0.9349155670103092,0.2169458144329896,0.2851037422680412,0.1864457216494845,47.59983475,,-0.0654123711340206,0.034,1918.3,1926.74,-122.82570734,102.93193792,0.0,0.0,81.2,26.4,30.6,0.868,100,True
,20,2000.0,2025-10-02 20:54:42.363000+00:00,2025-10-02 13:54:42.363,00:00:07.2,75282363,0.0,0.0,0.0,0.0,0.0,0.0,0.0,0.0,0.0,0.0,1.0,0.0,0.0,0.0,0.0,0.001,0.0,0.0,0.0,0.0,0.0450953075949367,0.3421129620253165,2.3821925316455697,-0.3308981139240506,-0.0447658139240506,0.935282911392405,0.156912,0.5066420379746835,0.1604674050632911,47.59983475,,-0.065759493670886,0.034759493670886,1918.3,1926.74,-122.82570734,102.93193792,0.0,0.0,81.2,26.4,30.6,0.868,100,True
,21,2100.0,2025-10-02 20:54:42.463000+00:00,2025-10-02 13:54:42.463,00:00:07.3,75282463,0.0,0.0,0.0,0.0,0.0,0.0,0.0,0.0,0.0,0.0,1.0,0.0,0.0,0.0,0.0,0.001,0.0,0.0,0.0,0.0,0.0450357134228187,0.3427913422818792,2.382048456375839,-0.3330115570469799,-0.0476135966442953,0.9355250268456377,0.0465137838926174,0.6930079597315436,0.206447932885906,47.59983475,,-0.066,0.0344563758389261,1918.3,1926.74,-122.82570734,102.93193792,0.0,0.0,81.2,26.4,30.6,0.868,100,True
,22,2200.0,2025-10-02 20:54:42.563000+00:00,2025-10-02 13:54:42.563,00:00:07.4,75282563,0.0,0.0,0.0,0.0,0.0,0.0,0.0,0.0,0.0,0.0,1.0,0.0,0.0,0.0,0.0,0.001,0.0,0.0,0.0,0.0,0.0449618841269841,0.3436426349206349,2.381908888888889,-0.335485746031746,-0.0469337666666666,0.935685634920635,-0.0107466952380952,0.6611746349206349,0.2438682857142857,47.59983475,,-0.0657460317460317,0.034,1918.3,1926.74,-122.82570734,102.96688896761904,0.0,0.0,81.2,26.4,30.6,0.868,100,True
,23,2300.0,2025-10-02 20:54:42.663000+00:00,2025-10-02 13:54:42.663,00:00:07.5,75282663,0.0,0.0,0.0,0.0,0.0,0.0,0.0,0.0,0.0,0.0,1.0,0.0,0.0,0.0,0.0,0.001,0.0,0.0,0.0,0.0,0.0446641868131868,0.3447752307692308,2.381682857142857,-0.3360215934065934,-0.0393988593406593,0.9356395274725274,0.0924913505494505,0.1587058681318681,0.2306866923076923,47.59983475,,-0.065065934065934,0.034,1918.3,1926.74,-122.82570734,103.06955767,0.0,0.0,81.2,26.4,30.606593406593408,0.868,100,True
,24,2400.0,2025-10-02 20:54:42.763000+00:00,2025-10-02 13:54:42.763,00:00:07.6,75282763,0.0,0.0,0.0,0.0,0.0,0.0,0.0,0.0,0.0,0.0,1.0,0.0,0.0,0.0,0.0,0.001,0.0,0.0,0.0,0.0,0.044437494117647,0.3444381176470588,2.381408235294117,-0.3333704117647059,-0.0442005470588235,0.934520411764706,0.0184544470588235,-0.2509574882352941,0.0976959823529411,47.59983475,,-0.066,0.034,1918.3,1926.74,-122.82570734,103.06955767,0.0,0.0,81.2,26.4,30.7,0.868,100,True
,25,2500.0,2025-10-02 20:54:42.863000+00:00,2025-10-02 13:54:42.863,00:00:07.7,75282863,0.0,0.0,0.0,0.0,0.0,0.0,0.0,0.0,0.0,0.0,1.0,0.0,0.0,0.0,0.0,0.001,0.0,0.0,0.0,0.0,0.0446300934782608,0.3441884347826087,2.381230652173913,-0.3346106304347826,-0.0430624673913043,0.9339264782608696,-0.2282386086956521,-0.0435768391304347,0.0593458347826087,47.59983475,,-0.0656739130434782,0.034,1918.3,1926.74,-122.82570734,103.06955767,0.0,0.0,81.2,26.4,30.7,0.868,100,True
,26,2600.0,2025-10-02 20:54:42.963000+00:00,2025-10-02 13:54:42.963,00:00:07.8,75282963,0.0,0.0,0.0,0.0,0.0,0.0,0.0,0.0,0.0,0.0,1.0,0.0,0.0,0.0,0.0,0.001,0.0,0.0,0.0,0.0,0.0449806068181818,0.3440743409090909,2.3811181818181817,-0.3339122272727273,-0.0455678568181818,0.9337041136363636,-0.2245866363636363,0.0603769431818181,0.0579614704545454,47.59983475,,-0.0654318181818181,0.034,1918.3,1926.74,-122.82570734,103.06955767,0.0,0.0,81.2,26.4,30.7,0.868,100,True
,27,2700.0,2025-10-02 20:54:43.063000+00:00,2025-10-02 13:54:43.063,00:00:07.9,75283063,0.0,0.0,0.0,0.0,0.0,0.0,0.0,0.0,0.0,0.0,1.0,0.0,0.0,0.0,0.0,0.001,0.0,0.0,0.0,0.0,0.04522455,0.344132,2.380965,-0.3361645,-0.0455199,0.9337015,-0.3024639999999999,0.1200265999999999,0.1344563999999999,47.59983475,,-0.0665,0.0345,1918.3,1926.74,-122.82570734,103.06955767,0.0,0.0,81.2,26.4,30.65,0.868,100,True
,28,2800.0,2025-10-02 20:54:43.163000+00:00,2025-10-02 13:54:43.163,00:00:08.0,75283163,0.0,0.0,0.0,0.0,0.0,0.0,0.0,0.0,0.0,0.0,1.0,0.0,0.0,0.0,0.0,0.001,0.0,0.0,0.0,0.0,0.04574355,0.34421,2.3808675,-0.335478875,-0.047355,0.933729,-0.36011625,0.0669517,0.0785693937499999,47.59983475,,-0.066375,0.03375,1918.3,1926.74,-122.82570734,103.06955767,0.0,0.0,81.2,26.4,30.6,0.868,100,True
,29,2900.0,2025-10-02 20:54:43.263000+00:00,2025-10-02 13:54:43.263,00:00:08.1,75283263,0.0,0.0,0.0,0.0,0.0,0.0,0.0,0.0,0.0,0.0,1.0,0.0,0.0,0.0,0.0,0.001,0.0,0.0,0.0,0.0,0.0463897347826086,0.3439253913043478,2.380814347826087,-0.3330131884057971,-0.0465855608695652,0.9335301594202898,-0.5638870579710145,-0.0945741739130434,-0.0166012475362318,47.59983475,,-0.066,0.0335072463768115,1918.3,1926.74,-122.82570734,103.06955767,0.0,0.0,81.2,26.4,30.6,0.868,100,True
,30,3000.0,2025-10-02 20:54:43.363000+00:00,2025-10-02 13:54:43.363,00:00:08.2,75283363,0.0,0.0,0.0,0.0,0.0,0.0,0.0,0.0,0.0,0.0,1.0,0.0,0.0,0.0,0.0,0.001,0.0,0.0,0.0,0.0,0.0469796636363636,0.3435750909090909,2.380733636363636,-0.3338765454545455,-0.043591809090909,0.9333693636363636,-0.4970384545454546,-0.3014112727272727,-0.0038692272727272,47.59983475,,-0.0663636363636363,0.034,1918.3,1926.74,-122.82570734,103.06955767,0.0,0.0,81.2,26.4,30.6,0.868,100,True
,31,3100.0,2025-10-02 20:54:43.463000+00:00,2025-10-02 13:54:43.463,00:00:08.3,75283463,0.0,0.0,0.0,0.0,0.0,0.0,0.0,0.0,0.0,0.0,1.0,0.0,0.0,0.0,0.0,0.001,0.0,0.0,0.0,0.0,0.0473936913043478,0.3432243043478261,2.38056,-0.3343328695652174,-0.0474040826086956,0.9333977826086955,-0.1284,-0.3336158695652174,0.120772,47.59983475,,-0.0665217391304347,0.034,1918.3,1926.74,-122.82570734,103.06955767,0.0,0.0,81.2,26.4,30.6,0.868,100,True
,32,3200.0,2025-10-02 20:54:43.563000+00:00,2025-10-02 13:54:43.563,00:00:08.4,75283563,0.0,0.0,0.0,0.0,0.0,0.0,0.0,0.0,0.0,0.0,1.0,0.0,0.0,0.0,0.0,0.001,0.0,0.0,0.0,0.0,0.0475590333333333,0.3426245555555555,2.380312888888889,-0.3333359555555555,-0.04400382,0.933445,-0.1693752888888889,-0.2084099777777777,0.1152096622222222,47.59983475,,-0.066,0.034,1918.3,1926.74,-122.82570734,103.12125312911112,0.0,0.0,81.2,26.4,30.6,0.868,100,True
,33,3300.0,2025-10-02 20:54:43.663000+00:00,2025-10-02 13:54:43.663,00:00:08.5,75283663,0.0,0.0,0.0,0.0,0.0,0.0,0.0,0.0,0.0,0.0,1.0,0.0,0.0,0.0,0.0,0.001,0.0,0.0,0.0,0.0,0.0476373466666666,0.3422175111111111,2.380027111111111,-0.3299314444444444,-0.0433667422222222,0.9338044222222224,0.0446332444444444,-0.2346616666666666,0.1341806933333333,47.59983475,,-0.066,0.034,1918.3,1926.74,-122.82570734,103.15903058,0.0,0.0,81.2,26.4,30.6,0.868,100,True
,34,3400.0,2025-10-02 20:54:43.763000+00:00,2025-10-02 13:54:43.763,00:00:08.6,75283763,0.0,0.0,0.0,0.0,0.0,0.0,0.0,0.0,0.0,0.0,1.0,0.0,0.0,0.0,0.0,0.001,0.0,0.0,0.0,0.0,0.0476198,0.34215,2.37994,-0.327623,-0.044275,0.933941,0.156912,-0.299645,0.16872,47.59983475,,-0.0654586466165413,0.034,1918.3,1926.74,-122.82570734,103.15903058,0.0,0.0,81.2,26.4,30.6,0.868,100,True
,35,3500.0,2025-10-02 20:54:43.863000+00:00,2025-10-02 13:54:43.863,00:00:08.7,75283863,0.0,0.0,0.0,0.0,0.0,0.0,0.0,0.0,0.0,0.0,1.0,0.0,0.0,0.0,0.0,0.001,0.0,0.0,0.0,0.0,0.0476013051546391,0.3420699896907216,2.3798113402061856,-0.3307023917525773,-0.0447049649484536,0.934105443298969,0.0959193893814432,-0.2720257628865979,0.1172806484536082,47.59983475,,-0.0654020618556701,0.034,1918.3,1926.74,-122.82570734,103.15903058,0.0,0.0,81.2,26.4,30.6,0.868,100,True
,36,3600.0,2025-10-02 20:54:43.963000+00:00,2025-10-02 13:54:43.963,00:00:08.8,75283963,0.0,0.0,0.0,0.0,0.0,0.0,0.0,0.0,0.0,0.0,1.0,0.0,0.0,0.0,0.0,0.001,0.0,0.0,0.0,0.0,0.0476301710843373,0.3418826867469879,2.3795390361445783,-0.3340690602409638,-0.0433142313253012,0.9344456385542168,-0.026977903253012,-0.0888786120481927,0.0777111939759036,47.59983475,,-0.066,0.034,1918.3,1926.74,-122.82570734,103.15903058,0.0,0.0,81.2,26.4,30.650602409638555,0.868,100,True
,37,3700.0,2025-10-02 20:54:44.063000+00:00,2025-10-02 13:54:44.063,00:00:08.9,75284063,0.0,0.0,0.0,0.0,0.0,0.0,0.0,0.0,0.0,0.0,1.0,0.0,0.0,0.0,0.0,0.001,0.0,0.0,0.0,0.0,0.0477426266666666,0.3416901333333333,2.379348555555556,-0.3316663222222222,-0.0448589611111111,0.9345442444444444,-0.1578497088888888,-0.0428154911111111,0.0312998633333333,47.59983475,,-0.066,0.034,1918.3,1926.74,-122.82570734,103.15903058,0.0,0.0,81.2,26.4,30.634444444444444,0.868,100,True
,38,3800.0,2025-10-02 20:54:44.163000+00:00,2025-10-02 13:54:44.163,00:00:09.0,75284163,0.0,0.0,0.0,0.0,0.0,0.0,0.0,0.0,0.0,0.0,1.0,0.0,0.0,0.0,0.0,0.001,0.0,0.0,0.0,0.0,0.0479110225806451,0.3415765161290322,2.379163870967742,-0.3321463225806451,-0.0464381258064516,0.9345996774193548,-0.0412745064516129,-0.1938999548387097,0.1306210451612903,47.59983475,,-0.066,0.034,1918.3,1926.74,-122.82570734,103.15903058,0.0,0.0,81.2,26.4,30.6,0.868,100,True
,39,3900.0,2025-10-02 20:54:44.263000+00:00,2025-10-02 13:54:44.263,00:00:09.1,75284263,0.0,0.0,0.0,0.0,0.0,0.0,0.0,0.0,0.0,0.0,1.0,0.0,0.0,0.0,0.0,0.001,0.0,0.0,0.0,0.0,0.0480894356321839,0.3413485977011494,2.378997701149425,-0.3298305747126436,-0.0483583850574712,0.934521908045977,-0.0488115827586206,-0.0466532850574712,0.1227924827586206,47.59983475,,-0.066,0.034,1918.3,1926.74,-122.82570734,103.15903058,0.0,0.0,81.2,26.4,30.68735632183908,0.868,100,True
,40,4000.0,2025-10-02 20:54:44.363000+00:00,2025-10-02 13:54:44.363,00:00:09.2,75284363,0.0,0.0,0.0,0.0,0.0,0.0,0.0,0.0,0.0,0.0,1.0,0.0,0.0,0.0,0.0,0.001,0.0,0.0,0.0,0.0,0.0481847239130434,0.3411893369565217,2.378815543478261,-0.3273523369565217,-0.0476836760869565,0.9345128369565218,-0.1258601239130434,-0.2232665641304348,0.1224754239130434,47.59983475,,-0.066,0.034,1918.3,1926.74,-122.82570734,103.15903058,0.0,0.0,81.2,26.4,30.60326086956522,0.868,100,True
,41,4100.0,2025-10-02 20:54:44.463000+00:00,2025-10-02 13:54:44.463,00:00:09.3,75284463,0.0,0.0,0.0,0.0,0.0,0.0,0.0,0.0,0.0,0.0,1.0,0.0,0.0,0.0,0.0,0.001,0.0,0.0,0.0,0.0,0.0485839724137931,0.3410192068965517,2.3786786206896555,-0.3324604827586206,-0.0457793862068965,0.9345003448275864,-0.2546882620689655,-0.0869221275862069,0.1978086,47.59983475,,-0.0650344827586207,0.034,1918.3,1926.74,-122.82570734,103.15887699068966,0.0,0.0,81.2,26.4,30.6,0.868,100,True
,42,4200.0,2025-10-02 20:54:44.563000+00:00,2025-10-02 13:54:44.563,00:00:09.4,75284563,0.0,0.0,0.0,0.0,0.0,0.0,0.0,0.0,0.0,0.0,1.0,0.0,0.0,0.0,0.0,0.001,0.0,0.0,0.0,0.0,0.0488968,0.340661,2.37836,-0.329422,-0.0467534,0.934454,-0.0645196,-0.0208989,0.0447494,47.59983475,,-0.0658279569892473,0.034,1918.3,1926.74,-122.82570734,103.15457649,0.0,0.0,81.2,26.4,30.6,0.868,100,True
,43,4300.0,2025-10-02 20:54:44.663000+00:00,2025-10-02 13:54:44.663,00:00:09.5,75284663,0.0,0.0,0.0,0.0,0.0,0.0,0.0,0.0,0.0,0.0,1.0,0.0,0.0,0.0,0.0,0.001,0.0,0.0,0.0,0.0,0.048920774117647,0.3405833411764706,2.378303176470588,-0.3291175882352941,-0.0472614835294117,0.9344361411764706,0.0159213035294117,-0.0582677035294117,0.0951190211764705,47.59983475,,-0.0652705882352941,0.034,1918.3,1926.74,-122.82570734,103.15457649,0.0,0.0,81.2,26.4,30.627058823529413,0.868,100,True
,44,4400.0,2025-10-02 20:54:44.763000+00:00,2025-10-02 13:54:44.763,00:00:09.6,75284763,0.0,0.0,0.0,0.0,0.0,0.0,0.0,0.0,0.0,0.0,1.0,0.0,0.0,0.0,0.0,0.001,0.0,0.0,0.0,0.0,0.0488703260869565,0.3403182391304348,2.3780508695652176,-0.3279128695652174,-0.0474241869565217,0.9344202173913044,0.1701034695652173,-0.1306273086956521,0.1780536304347826,47.59983475,,-0.066,0.034,1918.3,1926.74,-122.82570734,103.15457649,0.0,0.0,81.2,26.4,30.7,0.868,100,True
,45,4500.0,2025-10-02 20:54:44.863000+00:00,2025-10-02 13:54:44.863,00:00:09.7,75284863,0.0,0.0,0.0,0.0,0.0,0.0,0.0,0.0,0.0,0.0,1.0,0.0,0.0,0.0,0.0,0.001,0.0,0.0,0.0,0.0,0.0486284431818181,0.3400367045454545,2.3777897727272728,-0.32833875,-0.0451928545454545,0.934401181818182,0.0446114772727272,-0.20004095,0.1072803863636363,47.59983475,,-0.066,0.0345227272727272,1918.3,1926.74,-122.82570734,103.15457649,0.0,0.0,81.2,26.4,30.647727272727277,0.868,100,True
,46,4600.0,2025-10-02 20:54:44.963000+00:00,2025-10-02 13:54:44.963,00:00:09.8,75284963,0.0,0.0,0.0,0.0,0.0,0.0,0.0,0.0,0.0,0.0,1.0,0.0,0.0,0.0,0.0,0.001,0.0,0.0,0.0,0.0,0.0484020333333333,0.3396593333333333,2.377493333333333,-0.3286066666666666,-0.0444000333333333,0.9344313333333332,-0.0270007333333333,-0.1125829333333333,0.2063653333333333,47.59983475,,-0.066,0.0343333333333333,1918.3,1926.74,-122.82570734,103.15457649,0.0,0.0,81.2,26.4,30.6,0.868,100,True
,47,4700.0,2025-10-02 20:54:45.063000+00:00,2025-10-02 13:54:45.063,00:00:09.9,75285063,0.0,0.0,0.0,0.0,0.0,0.0,0.0,0.0,0.0,0.0,1.0,0.0,0.0,0.0,0.0,0.001,0.0,0.0,0.0,0.0,0.0482418309782608,0.3394541847826087,2.377291956521739,-0.3286126413043478,-0.0436451380434782,0.9345084130434782,0.0345562467391304,-0.1538774983695652,0.2482353206521739,47.59983475,,-0.066,0.034,1918.3,1926.74,-122.82570734,103.15457649,0.0,0.0,81.2,26.4,30.6,0.868,100,True
,48,4800.0,2025-10-02 20:54:45.163000+00:00,2025-10-02 13:54:45.163,00:00:10.0,75285163,0.0,0.0,0.0,0.0,0.0,0.0,0.0,0.0,0.0,0.0,1.0,0.0,0.0,0.0,0.0,0.001,0.0,0.0,0.0,0.0,0.0481252548913043,0.3393009239130434,2.377139782608696,-0.3290572065217391,-0.0428082902173913,0.9345540652173912,0.1482498336956521,-0.3441867918478261,0.2402076032608695,47.59983475,,-0.066,0.034,1918.3,1926.74,-122.82570734,103.15457649,0.0,0.0,81.2,26.4,30.6,0.868,100,True
,49,4900.0,2025-10-02 20:54:45.263000+00:00,2025-10-02 13:54:45.263,00:00:10.1,75285263,0.0,0.0,0.0,0.0,0.0,0.0,0.0,0.0,0.0,0.0,1.0,0.0,0.0,0.0,0.0,0.001,0.0,0.0,0.0,0.0,0.0477363663157894,0.3390831894736842,2.376680421052632,-0.3233903999999999,-0.0458924915789473,0.9350298,0.16303,-0.1766212842105263,0.2371959684210526,47.59983475,,-0.066,0.034,1918.3,1926.74,-122.82570734,103.15457649,0.0,0.0,81.2,26.4,30.6,0.868,100,True
,50,5000.0,2025-10-02 20:54:45.363000+00:00,2025-10-02 13:54:45.363,00:00:10.2,75285363,0.0,0.0,0.0,0.0,0.0,0.0,0.0,0.0,0.0,0.0,1.0,0.0,0.0,0.0,0.0,0.001,0.0,0.0,0.0,0.0,0.0473828277777777,0.3389101666666667,2.3763188888888886,-0.3271738888888889,-0.0486926,0.9351913888888888,0.1746520555555555,-0.0150675444444444,0.2345226111111111,47.59983475,,-0.066,0.034,1918.3,1926.74,-122.82570734,103.15457649,0.0,0.0,81.2,26.4,30.6,0.868,100,True
,51,5100.0,2025-10-02 20:54:45.463000+00:00,2025-10-02 13:54:45.463,00:00:10.3,75285463,0.0,0.0,0.0,0.0,0.0,0.0,0.0,0.0,0.0,0.0,1.0,0.0,0.0,0.0,0.0,0.001,0.0,0.0,0.0,0.0,0.0466878172413793,0.3389376551724138,2.37591,-0.3283192413793103,-0.0423792379310344,0.9353698620689656,0.3372133793103448,0.0389498862068965,0.231823,47.59983475,,-0.066,0.034,1918.3,1926.74,-122.82570734,103.14728233827586,0.0,0.0,81.2,26.4,30.6,0.868,100,True
,52,5200.0,2025-10-02 20:54:45.563000+00:00,2025-10-02 13:54:45.563,00:00:10.4,75285563,0.0,0.0,0.0,0.0,0.0,0.0,0.0,0.0,0.0,0.0,1.0,0.0,0.0,0.0,0.0,0.001,0.0,0.0,0.0,0.0,0.0463782436619718,0.3391121971830986,2.37563647887324,-0.3315432957746478,-0.0464734239436619,0.9355940563380282,0.1230726985915492,0.0502525676056338,0.2532263464788732,47.59983475,,-0.0658028169014084,0.034,1918.3,1926.74,-122.82570734,103.11227041,0.0,0.0,81.2,26.4,30.6,0.8681971830985915,100,True
,53,5300.0,2025-10-02 20:54:45.663000+00:00,2025-10-02 13:54:45.663,00:00:10.5,75285663,0.0,0.0,0.0,0.0,0.0,0.0,0.0,0.0,0.0,0.0,1.0,0.0,0.0,0.0,0.0,0.001,0.0,0.0,0.0,0.0,0.046412328169014,0.3393129014084507,2.3755167605633805,-0.329219352112676,-0.050567438028169,0.935779971830986,-0.0414819492957746,0.2948406661971831,0.0672097267605633,47.59983475,,-0.0650985915492957,0.034,1918.3,1926.74,-122.82570734,103.11227041,0.0,0.0,81.2,26.4,30.6,0.8689014084507042,100,True
,54,5400.0,2025-10-02 20:54:45.763000+00:00,2025-10-02 13:54:45.763,00:00:10.6,75285763,0.0,0.0,0.0,0.0,0.0,0.0,0.0,0.0,0.0,0.0,1.0,0.0,0.0,0.0,0.0,0.001,0.0,0.0,0.0,0.0,0.0464812742424242,0.339557303030303,2.375356666666667,-0.3254761515151515,-0.0492067727272727,0.9358594242424244,0.0263434393939393,0.237794,0.034129603030303,47.59983475,,-0.0656515151515151,0.034,1918.3,1926.74,-122.82570734,103.11227041,0.0,0.0,81.2,26.4,30.6,0.869,100,True
,55,5500.0,2025-10-02 20:54:45.863000+00:00,2025-10-02 13:54:45.863,00:00:10.7,75285863,0.0,0.0,0.0,0.0,0.0,0.0,0.0,0.0,0.0,0.0,1.0,0.0,0.0,0.0,0.0,0.001,0.0,0.0,0.0,0.0,0.0465102,0.3397411044776119,2.3751711940298508,-0.3251225223880597,-0.0471999567164179,0.9357808059701492,0.0798754044776119,0.1895400597014925,0.0865642089552238,47.59983475,,-0.066,0.034,1918.3,1926.74,-122.82570734,103.11227041,0.0,0.0,81.2,26.4,30.6,0.869,100,True
,56,5600.0,2025-10-02 20:54:45.963000+00:00,2025-10-02 13:54:45.963,00:00:10.8,75285963,0.0,0.0,0.0,0.0,0.0,0.0,0.0,0.0,0.0,0.0,1.0,0.0,0.0,0.0,0.0,0.001,0.0,0.0,0.0,0.0,0.0465118888888888,0.3398978518518518,2.374965555555556,-0.327676037037037,-0.0462575962962963,0.9356043703703704,0.0552818851851851,0.200684,0.1621046666666666,47.59983475,,-0.066,0.034,1918.3,1926.74,-122.82570734,103.11227041,0.0,0.0,81.2,26.4,30.6,0.869,100,True
,57,5700.0,2025-10-02 20:54:46.063000+00:00,2025-10-02 13:54:46.063,00:00:10.9,75286063,0.0,0.0,0.0,0.0,0.0,0.0,0.0,0.0,0.0,0.0,1.0,0.0,0.0,0.0,0.0,0.001,0.0,0.0,0.0,0.0,0.0465603333333333,0.3401771111111111,2.374743333333333,-0.3295212222222222,-0.0487490777777777,0.9355162222222222,-0.1042101888888889,0.252144,0.123518,47.59983475,,-0.066,0.034,1918.3,1926.74,-122.82570734,103.11227041,0.0,0.0,81.2,26.4,30.6,0.869,100,True
,58,5800.0,2025-10-02 20:54:46.163000+00:00,2025-10-02 13:54:46.163,00:00:11.0,75286163,0.0,0.0,0.0,0.0,0.0,0.0,0.0,0.0,0.0,0.0,1.0,0.0,0.0,0.0,0.0,0.001,0.0,0.0,0.0,0.0,0.0468493378640776,0.3406629805825242,2.374503689320388,-0.3272496504854369,-0.0398464941747572,0.935264504854369,-0.1230851650485437,-0.0283681213592232,0.1782285436893203,47.59983475,,-0.066,0.034,1918.3,1926.74,-122.82570734,103.11227041,0.0,0.0,81.2,26.4,30.6,0.869,100,True
,59,5900.0,2025-10-02 20:54:46.263000+00:00,2025-10-02 13:54:46.263,00:00:11.1,75286263,0.0,0.0,0.0,0.0,0.0,0.0,0.0,0.0,0.0,0.0,1.0,0.0,0.0,0.0,0.0,0.001,0.0,0.0,0.0,0.0,0.0469344528,0.3408711439999999,2.37434848,-0.329457328,-0.0398232696,0.935100512,0.0689875839999999,0.0491197928,0.265061728,47.59983475,,-0.066,0.034,1918.3,1926.74,-122.82570734,103.11227041,0.0,0.0,81.2,26.4,30.6,0.869,100,True
,60,6000.0,2025-10-02 20:54:46.363000+00:00,2025-10-02 13:54:46.363,00:00:11.2,75286363,0.0,0.0,0.0,0.0,0.0,0.0,0.0,0.0,0.0,0.0,1.0,0.0,0.0,0.0,0.0,0.001,0.0,0.0,0.0,0.0,0.046885278125,0.3409964609374999,2.3741296875,-0.33265253125,-0.0426316234375,0.9349105234375,0.0705415625,0.0588683578124999,0.2505865625,47.59983475,,-0.066,0.034,1918.3,1926.74,-122.82570734,103.11227041,0.0,0.0,81.2,26.4,30.6,0.869,100,True
,61,6100.0,2025-10-02 20:54:46.463000+00:00,2025-10-02 13:54:46.463,00:00:11.3,75286463,0.0,0.0,0.0,0.0,0.0,0.0,0.0,0.0,0.0,0.0,1.0,0.0,0.0,0.0,0.0,0.001,0.0,0.0,0.0,0.0,0.0468439722222222,0.3410441666666666,2.3738784444444443,-0.3341590777777778,-0.0459016755555555,0.9346748555555556,-0.0542552911111111,0.02540706,0.1612763444444444,47.59983475,,-0.066,0.034,1918.3,1926.74,-122.82570734,103.10721661866668,0.0,0.0,81.2,26.4,30.6,0.869,100,True
,62,6200.0,2025-10-02 20:54:46.563000+00:00,2025-10-02 13:54:46.563,00:00:11.4,75286563,0.0,0.0,0.0,0.0,0.0,0.0,0.0,0.0,0.0,0.0,1.0,0.0,0.0,0.0,0.0,0.001,0.0,0.0,0.0,0.0,0.0469015683453237,0.3410619424460431,2.3737110791366907,-0.3322716978417266,-0.0477208848920863,0.934556071942446,-0.0405532030935251,0.0999500517985611,0.0919655,47.59983475,,-0.066,0.034,1918.3,1926.74,-122.82570734,103.09658623,0.0,0.0,81.2,26.4,30.6,0.869,100,True
ride_51,63,6300.0,2025-10-02 20:54:46.663000+00:00,2025-10-02 13:54:46.663,00:00:11.5,75286663,0.0,0.0,0.0,0.0,0.0,0.0,0.0,0.0,0.0,0.0,1.0,0.0,0.0,0.0,0.0,0.001,0.0,0.0,0.0,0.0,0.046852,0.34129,2.37356,-0.331094,-0.046777,0.934646,0.00521243,0.0490348,0.0379155,47.59983475,0.0,-0.066,0.034,1918.3,1926.74,-122.82570734,103.09658623,0.0,0.0,81.2,26.4,30.6,0.869,100,True
,64,6400.0,2025-10-02 20:54:46.763000+00:00,2025-10-02 13:54:46.763,00:00:11.6,75286763,0.0,0.0,0.0,0.0,0.0,0.0,0.0,0.0,0.0,0.0,1.0,0.0,0.0,0.0,0.0,0.001,0.0,0.0,0.0,0.0,0.0468228888888888,0.3414025925925926,2.373374814814815,-0.3313532592592593,-0.0466801851851851,0.9346208148148148,0.0188075929629629,0.2061682814814814,0.1912758703703703,47.59983475,,-0.066,0.034,1918.3,1926.74,-122.82570734,103.09658623,0.0,0.0,81.2,26.4,30.6,0.869,100,True
,65,6500.0,2025-10-02 20:54:46.863000+00:00,2025-10-02 13:54:46.863,00:00:11.7,75286863,0.0,0.0,0.0,0.0,0.0,0.0,0.0,0.0,0.0,0.0,1.0,0.0,0.0,0.0,0.0,0.001,0.0,0.0,0.0,0.0,0.0467268902985074,0.3417956194029851,2.3731499253731343,-0.3302070597014925,-0.0455125350746268,0.9347657686567163,-0.0808774097014925,0.1930027985074627,0.2207259179104477,47.59983475,,-0.066,0.034,1918.3,1926.74,-122.82570734,103.09658623,0.0,0.0,81.2,26.4,30.6,0.869,100,True
,66,6600.0,2025-10-02 20:54:46.963000+00:00,2025-10-02 13:54:46.963,00:00:11.8,75286963,0.0,0.0,0.0,0.0,0.0,0.0,0.0,0.0,0.0,0.0,1.0,0.0,0.0,0.0,0.0,0.001,0.0,0.0,0.0,0.0,0.0467380311111111,0.3423094666666667,2.3729145555555555,-0.3301043777777778,-0.0433236133333333,0.9348539111111112,-0.1719438222222222,0.1201327777777777,0.1448665344444444,47.59983475,,-0.066,0.034,1918.3,1926.74,-122.82570734,103.09658623,0.0,0.0,81.2,26.4,30.6,0.869,100,True
,67,6700.0,2025-10-02 20:54:47.063000+00:00,2025-10-02 13:54:47.063,00:00:11.9,75287063,0.0,0.0,0.0,0.0,0.0,0.0,0.0,0.0,0.0,0.0,1.0,0.0,0.0,0.0,0.0,0.001,0.0,0.0,0.0,0.0,0.0469318168539325,0.3426222921348315,2.3727116853932584,-0.3316888876404494,-0.0388651999999999,0.9345843146067416,0.0348218651685393,0.2812257752808988,0.130059402247191,47.59983475,,-0.066,0.034,1918.3,1926.74,-122.82570734,103.09658623,0.0,0.0,81.2,26.4,30.6,0.869,100,True
,68,6800.0,2025-10-02 20:54:47.163000+00:00,2025-10-02 13:54:47.163,00:00:12.0,75287163,0.0,0.0,0.0,0.0,0.0,0.0,0.0,0.0,0.0,0.0,1.0,0.0,0.0,0.0,0.0,0.001,0.0,0.0,0.0,0.0,0.0469213965517241,0.3430217655172414,2.3725590344827587,-0.3303176758620689,-0.0360364689655172,0.9345633103448276,0.0239271310344827,0.5705305793103448,0.1409489379310345,47.59983475,,-0.066,0.0336413793103448,1918.3,1926.74,-122.82570734,103.09658623,0.0,0.0,81.2,26.4,30.6,0.869,100,True
,69,6900.0,2025-10-02 20:54:47.263000+00:00,2025-10-02 13:54:47.263,00:00:12.1,75287263,0.0,0.0,0.0,0.0,0.0,0.0,0.0,0.0,0.0,0.0,1.0,0.0,0.0,0.0,0.0,0.001,0.0,0.0,0.0,0.0,0.0469976536585365,0.3436689674796748,2.3724613821138214,-0.3295006422764228,-0.0373858121951219,0.934785138211382,-0.353534487804878,0.6888485609756098,-0.0074297863414634,47.59983475,,-0.066,0.0330569105691056,1918.3,1926.74,-122.82570734,103.09658623,0.0,0.0,81.2,26.4,30.60569105691057,0.869,100,True
,70,7000.0,2025-10-02 20:54:47.363000+00:00,2025-10-02 13:54:47.363,00:00:12.2,75287363,0.0,0.0,0.0,0.0,0.0,0.0,0.0,0.0,0.0,0.0,1.0,0.0,0.0,0.0,0.0,0.001,0.0,0.0,0.0,0.0,0.0483298487804878,0.3441827886178861,2.372623983739837,-0.331352674796748,-0.0516731292682926,0.9347013983739836,-0.4102271707317073,-0.1647148536585364,0.0062804087804878,47.59983475,,-0.066,0.0338699186991869,1918.3,1926.74,-122.82570734,103.09658623,0.0,0.0,81.2,26.4,30.6869918699187,0.869,100,True
,71,7100.0,2025-10-02 20:54:47.463000+00:00,2025-10-02 13:54:47.463,00:00:12.3,75287463,0.0,0.0,0.0,0.0,0.0,0.0,0.0,0.0,0.0,0.0,1.0,0.0,0.0,0.0,0.0,0.001,0.0,0.0,0.0,0.0,0.0493817866666666,0.3456099333333333,2.372435333333333,-0.3458422,-0.0423044733333333,0.9349689333333332,0.0933847999999999,-1.0136656666666668,0.6266608026666667,47.59983475,,-0.066,0.034,1918.3,1926.74,-122.82570734,103.09658623,0.0,0.0,81.2,26.4,30.60666666666667,0.869,100,True
,72,7200.0,2025-10-02 20:54:47.563000+00:00,2025-10-02 13:54:47.563,00:00:12.4,75287563,0.0,0.0,0.0,0.0,0.0,0.0,0.0,0.0,0.0,0.0,1.0,0.0,0.0,0.0,0.0,0.001,0.0,0.0,0.0,0.0,0.0482393813953488,0.3411689651162791,2.371767093023256,-0.3298179418604651,-0.0678456465116279,0.9317191395348836,0.1086966744186046,1.9857444069767445,-0.3390799544186046,47.59983475,,-0.066,0.034,1918.3,1926.74,-122.82570734,103.19030054,0.0,0.0,81.2,26.4,30.6,0.869,100,True
,73,7300.0,2025-10-02 20:54:47.663000+00:00,2025-10-02 13:54:47.663,00:00:12.5,75287663,0.0,0.0,0.0,0.0,0.0,0.0,0.0,0.0,0.0,0.0,1.0,0.0,0.0,0.0,0.0,0.001,0.0,0.0,0.0,0.0,0.0477158158730158,0.3424244126984127,2.371506507936508,-0.3296722857142857,-0.0442802428571428,0.9332740158730158,-0.3324775873015873,0.2953291825396825,0.0003275215873015,47.59983475,,-0.066,0.034,1918.3,1926.74,-122.82570734,103.19030054,0.0,0.0,81.2,26.4,30.6,0.869,100,True
,74,7400.0,2025-10-02 20:54:47.763000+00:00,2025-10-02 13:54:47.763,00:00:12.6,75287763,0.0,0.0,0.0,0.0,0.0,0.0,0.0,0.0,0.0,0.0,1.0,0.0,0.0,0.0,0.0,0.001,0.0,0.0,0.0,0.0,0.047749255026455,0.3423138306878306,2.3714165608465607,-0.3315675238095238,-0.0484811952380952,0.9333607883597884,-0.218554835978836,0.0733970661375661,0.0297848655026455,47.59983475,,-0.066,0.034,1918.3,1926.74,-122.82570734,103.19030054,0.0,0.0,81.2,26.4,30.6,0.869,100,True
,75,7500.0,2025-10-02 20:54:47.863000+00:00,2025-10-02 13:54:47.863,00:00:12.7,75287863,0.0,0.0,0.0,0.0,0.0,0.0,0.0,0.0,0.0,0.0,1.0,0.0,0.0,0.0,0.0,0.001,0.0,0.0,0.0,0.0,0.0477746346456692,0.3423128661417323,2.371272204724409,-0.3328932283464567,-0.0499060212598425,0.9336053622047245,-0.1472753385826771,0.0526258212598425,0.0656441204724409,47.59983475,,-0.066,0.034,1918.3,1926.74,-122.82570734,103.19030054,0.0,0.0,81.2,26.4,30.6,0.869,100,True
,76,7600.0,2025-10-02 20:54:47.963000+00:00,2025-10-02 13:54:47.963,00:00:12.8,75287963,0.0,0.0,0.0,0.0,0.0,0.0,0.0,0.0,0.0,0.0,1.0,0.0,0.0,0.0,0.0,0.001,0.0,0.0,0.0,0.0,0.0477770755905511,0.3426238897637795,2.370972992125984,-0.3325979527559055,-0.0434295645669291,0.934299062992126,-0.1973651023622047,0.604389364566929,0.1197241992125984,47.59983475,,-0.066,0.034,1918.3,1926.74,-122.82570734,103.19030054,0.0,0.0,81.2,26.4,30.6,0.869,100,True
,77,7700.0,2025-10-02 20:54:48.063000+00:00,2025-10-02 13:54:48.063,00:00:12.9,75288063,0.0,0.0,0.0,0.0,0.0,0.0,0.0,0.0,0.0,0.0,1.0,0.0,0.0,0.0,0.0,0.001,0.0,0.0,0.0,0.0,0.048326884962406,0.3445474511278195,2.370917894736842,-0.3386139022556391,-0.0547314887218045,0.9353451278195488,0.0234190233082706,0.2465963533834586,0.2614933383458646,47.59983475,,-0.066,0.034,1918.3,1926.74,-122.82570734,103.19030054,0.0,0.0,81.2,26.4,30.6,0.869,100,True
,78,7800.0,2025-10-02 20:54:48.163000+00:00,2025-10-02 13:54:48.163,00:00:13.0,75288163,0.0,0.0,0.0,0.0,0.0,0.0,0.0,0.0,0.0,0.0,1.0,0.0,0.0,0.0,0.0,0.001,0.0,0.0,0.0,0.0,0.0484906574468085,0.3446939787234042,2.3707455319148933,-0.3380658085106383,-0.044892829787234,0.934941829787234,-0.1788906063829787,-0.6662886170212766,0.1451187787234042,47.59983475,,-0.066,0.033531914893617,1918.3,1926.74,-122.82570734,103.19030054,0.0,0.0,81.2,26.4,30.6,0.869,100,True
,79,7900.0,2025-10-02 20:54:48.263000+00:00,2025-10-02 13:54:48.263,00:00:13.1,75288263,0.0,0.0,0.0,0.0,0.0,0.0,0.0,0.0,0.0,0.0,1.0,0.0,0.0,0.0,0.0,0.001,0.0,0.0,0.0,0.0,0.0483563758241758,0.3429838021978021,2.370462857142857,-0.334929989010989,-0.0353685329670329,0.9336384395604396,-0.2760155824175824,-1.1187943406593408,0.0305255252747252,47.59983475,,-0.066,0.0332747252747252,1918.3,1926.74,-122.82570734,103.19030054,0.0,0.0,81.2,26.4,30.6,0.869,100,True
,80,8000.0,2025-10-02 20:54:48.363000+00:00,2025-10-02 13:54:48.363,00:00:13.2,75288363,0.0,0.0,0.0,0.0,0.0,0.0,0.0,0.0,0.0,0.0,1.0,0.0,0.0,0.0,0.0,0.001,0.0,0.0,0.0,0.0,0.0480119363636363,0.3399925454545454,2.370125909090909,-0.3323310454545454,-0.0536525878787878,0.932736606060606,0.2993425606060605,-0.0395891424242424,0.1876328939393939,47.59983475,,-0.0657424242424242,0.034,1918.3,1926.74,-122.82570734,103.19030054,0.0,0.0,81.2,26.4,30.6,0.869,100,True
,81,8100.0,2025-10-02 20:54:48.463000+00:00,2025-10-02 13:54:48.463,00:00:13.3,75288463,0.0,0.0,0.0,0.0,0.0,0.0,0.0,0.0,0.0,0.0,1.0,0.0,0.0,0.0,0.0,0.001,0.0,0.0,0.0,0.0,0.0478034979591836,0.3399437346938775,2.3699620408163264,-0.3261804285714285,-0.0598290551020408,0.9335038979591838,0.2845665755102041,-0.299050387755102,0.087240775510204,47.59983475,,-0.0650204081632653,0.034,1918.3,1926.74,-122.82570734,103.19184171510204,0.0,0.0,81.2,26.4,30.6,0.869,100,True
,82,8200.0,2025-10-02 20:54:48.563000+00:00,2025-10-02 13:54:48.563,00:00:13.4,75288563,0.0,0.0,0.0,0.0,0.0,0.0,0.0,0.0,0.0,0.0,1.0,0.0,0.0,0.0,0.0,0.001,0.0,0.0,0.0,0.0,0.0468250151898734,0.3397134810126582,2.3695678481012656,-0.3305556329113924,-0.051570575949367,0.9345734303797468,-0.0172255063291139,-0.2018948227848101,0.1091672101265822,47.59983475,,-0.066,0.034,1918.3,1926.74,-122.82570734,103.26581812,0.0,0.0,81.2,26.4,30.6,0.869,100,True
,83,8300.0,2025-10-02 20:54:48.663000+00:00,2025-10-02 13:54:48.663,00:00:13.5,75288663,0.0,0.0,0.0,0.0,0.0,0.0,0.0,0.0,0.0,0.0,1.0,0.0,0.0,0.0,0.0,0.001,0.0,0.0,0.0,0.0,0.04738585,0.33944125,2.3692725,-0.3290875,-0.049605925,0.935177,-0.44957625,0.5217382500000001,0.055411425,47.59983475,,-0.066,0.034,1918.3,1926.74,-122.82570734,103.26581812,0.0,0.0,81.2,26.4,30.6,0.869,100,True
,84,8400.0,2025-10-02 20:54:48.763000+00:00,2025-10-02 13:54:48.763,00:00:13.6,75288763,0.0,0.0,0.0,0.0,0.0,0.0,0.0,0.0,0.0,0.0,1.0,0.0,0.0,0.0,0.0,0.001,0.0,0.0,0.0,0.0,0.0477891358024691,0.3404714197530864,2.369008271604938,-0.3293825308641975,-0.0512388419753086,0.9362111851851852,-0.3087715432098765,1.228609135802469,0.0264966790123456,47.59983475,,-0.066,0.034,1918.3,1926.74,-122.82570734,103.26581812,0.0,0.0,81.2,26.4,30.6,0.869,100,True
,85,8500.0,2025-10-02 20:54:48.863000+00:00,2025-10-02 13:54:48.863,00:00:13.7,75288863,0.0,0.0,0.0,0.0,0.0,0.0,0.0,0.0,0.0,0.0,1.0,0.0,0.0,0.0,0.0,0.001,0.0,0.0,0.0,0.0,0.0483056633093525,0.3416202805755395,2.36887,-0.3325524244604316,-0.0423817107913669,0.9366955539568346,-0.7618944820143885,0.5886300719424461,0.0587470287769784,47.59983475,,-0.066,0.034,1918.3,1926.74,-122.82570734,103.26581812,0.0,0.0,81.2,26.4,30.6,0.869,100,True
,86,8600.0,2025-10-02 20:54:48.963000+00:00,2025-10-02 13:54:48.963,00:00:13.8,75288963,0.0,0.0,0.0,0.0,0.0,0.0,0.0,0.0,0.0,0.0,1.0,0.0,0.0,0.0,0.0,0.001,0.0,0.0,0.0,0.0,0.048879,0.3418678888888888,2.368863333333333,-0.3330498333333334,-0.0436205222222222,0.9363381111111112,-0.9092613333333333,-1.3411625222222223,-0.1370008055555555,47.59983475,,-0.066,0.034,1918.3,1926.74,-122.82570734,103.26581812,0.0,0.0,81.2,26.4,30.6,0.869,100,True
,87,8700.0,2025-10-02 20:54:49.063000+00:00,2025-10-02 13:54:49.063,00:00:13.9,75289063,0.0,0.0,0.0,0.0,0.0,0.0,0.0,0.0,0.0,0.0,1.0,0.0,0.0,0.0,0.0,0.001,0.0,0.0,0.0,0.0,0.0493910551724137,0.3376736206896552,2.368744827586206,-0.3279228965517241,-0.0698442758620689,0.9339874137931036,-0.5542486206896552,0.0128608758620689,0.0413309655172413,47.59983475,,-0.066,0.034,1918.3,1926.74,-122.82570734,103.26581812,0.0,0.0,81.2,26.4,30.6,0.869,100,True
,88,8800.0,2025-10-02 20:54:49.163000+00:00,2025-10-02 13:54:49.163,00:00:14.0,75289163,0.0,0.0,0.0,0.0,0.0,0.0,0.0,0.0,0.0,0.0,1.0,0.0,0.0,0.0,0.0,0.001,0.0,0.0,0.0,0.0,0.0501211971014492,0.3373357826086956,2.3686976811594205,-0.3282623478260869,-0.045099,0.9346592898550724,-0.1849588115942028,-0.1460083014492753,0.1126115391304347,47.59983475,,-0.0657971014492753,0.034,1918.3,1926.74,-122.82570734,103.26581812,0.0,0.0,81.2,26.4,30.6,0.869,100,True
,89,8900.0,2025-10-02 20:54:49.263000+00:00,2025-10-02 13:54:49.263,00:00:14.1,75289263,0.0,0.0,0.0,0.0,0.0,0.0,0.0,0.0,0.0,0.0,1.0,0.0,0.0,0.0,0.0,0.001,0.0,0.0,0.0,0.0,0.0504204724637681,0.3371814347826087,2.368617971014493,-0.3260993043478261,-0.041164,0.9351317536231885,-0.1388617101449275,-0.0958486637681159,0.0571313217391304,47.59983475,,-0.0650724637681159,0.034,1918.3,1926.74,-122.82570734,103.26581812,0.0,0.0,81.2,26.4,30.6,0.869,100,True
,90,9000.0,2025-10-02 20:54:49.363000+00:00,2025-10-02 13:54:49.363,00:00:14.2,75289363,0.0,0.0,0.0,0.0,0.0,0.0,0.0,0.0,0.0,0.0,1.0,0.0,0.0,0.0,0.0,0.001,0.0,0.0,0.0,0.0,0.0516005,0.33647,2.36845,-0.327196,-0.0403215,0.935725,-0.267598,-0.229986,0.13498,47.59983475,,-0.0650223880597015,0.034,1918.3,1926.74,-122.82570734,103.26581812,0.0,0.0,81.2,26.4,30.6,0.869,100,True
,91,9100.0,2025-10-02 20:54:49.463000+00:00,2025-10-02 13:54:49.463,00:00:14.3,75289463,0.0,0.0,0.0,0.0,0.0,0.0,0.0,0.0,0.0,0.0,1.0,0.0,0.0,0.0,0.0,0.001,0.0,0.0,0.0,0.0,0.0516005,0.33647,2.36845,-0.327196,-0.0403215,0.935725,-0.267598,-0.229986,0.13498,47.59983475,,-0.0657686567164179,0.034,1918.3,1926.74,-122.82570734,103.26581812,0.0,0.0,81.2,26.4,30.6,0.869,100,True
,92,9200.0,2025-10-02 20:54:49.563000+00:00,2025-10-02 13:54:49.563,00:00:14.4,75289563,0.0,0.0,0.0,0.0,0.0,0.0,0.0,0.0,0.0,0.0,1.0,0.0,0.0,0.0,0.0,0.001,0.0,0.0,0.0,0.0,0.0514728863157894,0.3361090210526316,2.368174,-0.3278278947368421,-0.0467333431578947,0.9358978631578948,-0.225837747368421,-0.5361048631578947,0.0323686909473684,47.59983475,,-0.066,0.034,1918.3,1926.74,-122.82570734,103.30824646694737,0.0,0.0,81.2,26.4,30.6,0.869,100,True
,93,9300.0,2025-10-02 20:54:49.663000+00:00,2025-10-02 13:54:49.663,00:00:14.5,75289663,0.0,0.0,0.0,0.0,0.0,0.0,0.0,0.0,0.0,0.0,1.0,0.0,0.0,0.0,0.0,0.001,0.0,0.0,0.0,0.0,0.0516097168539325,0.3359239438202247,2.3679868539325843,-0.3289456853932584,-0.045099604494382,0.9362523483146068,0.2211882921348315,0.1659366966292135,0.2396416786516854,47.59983475,,-0.0651685393258427,0.0348314606741573,1918.3,1926.74,-122.82570734,103.32423396,0.0,0.0,81.2,26.4,30.6,0.869,100,True
,94,9400.0,2025-10-02 20:54:49.763000+00:00,2025-10-02 13:54:49.763,00:00:14.6,75289763,0.0,0.0,0.0,0.0,0.0,0.0,0.0,0.0,0.0,0.0,1.0,0.0,0.0,0.0,0.0,0.001,0.0,0.0,0.0,0.0,0.0512606431818181,0.3368866704545454,2.367631931818182,-0.3283087727272727,-0.0419372397727272,0.9370663409090908,0.0947291079545454,0.46564775,0.1711343977272727,47.59983475,,-0.065965909090909,0.0340340909090909,1918.3,1926.74,-122.82570734,103.32423396,0.0,0.0,81.2,26.4,30.6,0.869,100,True
,95,9500.0,2025-10-02 20:54:49.863000+00:00,2025-10-02 13:54:49.863,00:00:14.7,75289863,0.0,0.0,0.0,0.0,0.0,0.0,0.0,0.0,0.0,0.0,1.0,0.0,0.0,0.0,0.0,0.001,0.0,0.0,0.0,0.0,0.0511414720930232,0.3375659186046512,2.3673568604651165,-0.3291026279069767,-0.0470317523255814,0.9372188372093024,-0.0687721093023255,0.372868,0.1040113162790697,47.59983475,,-0.0669651162790697,0.034,1918.3,1926.74,-122.82570734,103.32423396,0.0,0.0,81.2,26.4,30.6,0.869,100,True
,96,9600.0,2025-10-02 20:54:49.963000+00:00,2025-10-02 13:54:49.963,00:00:14.8,75289963,0.0,0.0,0.0,0.0,0.0,0.0,0.0,0.0,0.0,0.0,1.0,0.0,0.0,0.0,0.0,0.001,0.0,0.0,0.0,0.0,0.0516240084210526,0.3374730105263158,2.367259263157895,-0.3278241157894737,-0.0434444894736842,0.9366470105263158,-0.3534944,-0.3342246631578948,-0.0420847305263157,47.59983475,,-0.066,0.0338210526315789,1918.3,1926.74,-122.82570734,103.32423396,0.0,0.0,81.2,26.4,30.6,0.869,100,True
,97,9700.0,2025-10-02 20:54:50.063000+00:00,2025-10-02 13:54:50.063,00:00:14.9,75290063,0.0,0.0,0.0,0.0,0.0,0.0,0.0,0.0,0.0,0.0,1.0,0.0,0.0,0.0,0.0,0.001,0.0,0.0,0.0,0.0,0.052204,0.337184,2.36721,-0.326829,-0.0421735,0.936202,-0.343448,-0.160641,0.0706522,47.59983475,,-0.066,0.0332471910112359,1918.3,1926.74,-122.82570734,103.32423396,0.0,0.0,81.2,26.4,30.6,0.869,100,True
,98,9800.0,2025-10-02 20:54:50.163000+00:00,2025-10-02 13:54:50.163,00:00:15.0,75290163,0.0,0.0,0.0,0.0,0.0,0.0,0.0,0.0,0.0,0.0,1.0,0.0,0.0,0.0,0.0,0.001,0.0,0.0,0.0,0.0,0.0521038032967033,0.3374773736263736,2.3671374725274728,-0.3271756813186813,-0.0421931549450549,0.9363524945054944,-0.0311240329670329,0.1954877472527472,0.1415386659340659,47.59983475,,-0.066,0.034,1918.3,1926.74,-122.82570734,103.32423396,0.0,0.0,81.2,26.4,30.6,0.869,100,True
,99,9900.0,2025-10-02 20:54:50.263000+00:00,2025-10-02 13:54:50.263,00:00:15.1,75290263,0.0,0.0,0.0,0.0,0.0,0.0,0.0,0.0,0.0,0.0,1.0,0.0,0.0,0.0,0.0,0.001,0.0,0.0,0.0,0.0,0.05174185,0.3383591875,2.3668984375,-0.3284399375,-0.04562904375,0.936678359375,0.330747234375,0.7062693125,0.237601453125,47.59983475,,-0.066,0.034,1918.3,1926.74,-122.82570734,103.32423396,0.0,0.0,81.2,26.4,30.6,0.869,100,True
,100,10000.0,2025-10-02 20:54:50.363000+00:00,2025-10-02 13:54:50.363,00:00:15.2,75290363,0.0,0.0,0.0,0.0,0.0,0.0,0.0,0.0,0.0,0.0,1.0,0.0,0.0,0.0,0.0,0.001,0.0,0.0,0.0,0.0,0.0513719711111111,0.3391242444444444,2.3666342222222223,-0.3298856888888888,-0.05243634,0.9366968222222222,-0.0414367844444444,0.3942749911111111,0.1790204222222222,47.59983475,,-0.066,0.034,1918.3,1926.74,-122.82570734,103.32423396,0.0,0.0,81.2,26.4,30.6,0.869,100,True
,101,10100.0,2025-10-02 20:54:50.463000+00:00,2025-10-02 13:54:50.463,00:00:15.3,75290463,0.0,0.0,0.0,0.0,0.0,0.0,0.0,0.0,0.0,0.0,1.0,0.0,0.0,0.0,0.0,0.001,0.0,0.0,0.0,0.0,0.0512699703296703,0.3389757032967033,2.366294945054945,-0.3306903076923077,-0.0519957439560439,0.9357964065934068,0.1126294362637362,-0.0192403186813186,0.2068017032967033,47.59983475,,-0.066,0.034,1918.3,1926.74,-122.82570734,103.3408618668132,0.0,0.0,81.2,26.4,30.6,0.869,100,True
,102,10200.0,2025-10-02 20:54:50.563000+00:00,2025-10-02 13:54:50.563,00:00:15.4,75290563,0.0,0.0,0.0,0.0,0.0,0.0,0.0,0.0,0.0,0.0,1.0,0.0,0.0,0.0,0.0,0.001,0.0,0.0,0.0,0.0,0.0507685494382022,0.3384004494382022,2.3657973033707864,-0.3314797752808988,-0.0527401876404494,0.9349726292134832,0.2726528235955056,0.0852230516853932,0.2691142696629213,47.59983475,,-0.066,0.034,1918.3,1926.74,-122.82570734,103.38728144,0.0,0.0,81.2,26.4,30.6,0.869,100,True
,103,10300.0,2025-10-02 20:54:50.663000+00:00,2025-10-02 13:54:50.663,00:00:15.5,75290663,0.0,0.0,0.0,0.0,0.0,0.0,0.0,0.0,0.0,0.0,1.0,0.0,0.0,0.0,0.0,0.001,0.0,0.0,0.0,0.0,0.0507069043010752,0.3388696344086021,2.3655690322580645,-0.3289275268817204,-0.049016605376344,0.9353399569892472,-0.0473514956989247,0.4920234623655914,0.1490692688172042,47.59983475,,-0.066,0.0335268817204301,1918.3,1926.74,-122.82570734,103.38728144,0.0,0.0,81.2,26.4,30.6,0.869,100,True
,104,10400.0,2025-10-02 20:54:50.763000+00:00,2025-10-02 13:54:50.763,00:00:15.6,75290763,0.0,0.0,0.0,0.0,0.0,0.0,0.0,0.0,0.0,0.0,1.0,0.0,0.0,0.0,0.0,0.001,0.0,0.0,0.0,0.0,0.0509191344827586,0.3396793103448275,2.365443103448276,-0.329785172413793,-0.0484454931034482,0.9357299310344828,-0.0440604275862069,-0.0309932413793103,0.0018634620689655,47.59983475,,-0.066,0.0335862068965517,1918.3,1926.74,-122.82570734,103.38728144,0.0,0.0,81.2,26.4,30.6,0.869,100,True
,105,10500.0,2025-10-02 20:54:50.863000+00:00,2025-10-02 13:54:50.863,00:00:15.7,75290863,0.0,0.0,0.0,0.0,0.0,0.0,0.0,0.0,0.0,0.0,1.0,0.0,0.0,0.0,0.0,0.001,0.0,0.0,0.0,0.0,0.0512446333333333,0.339401376344086,2.3653205376344086,-0.3294587741935483,-0.0490517430107526,0.9352046021505376,0.0292592473118279,-0.0508183655913978,0.0632742236559139,47.59983475,,-0.066,0.034,1918.3,1926.74,-122.82570734,103.38728144,0.0,0.0,81.2,26.4,30.6,0.869,100,True
,106,10600.0,2025-10-02 20:54:50.963000+00:00,2025-10-02 13:54:50.963,00:00:15.8,75290963,0.0,0.0,0.0,0.0,0.0,0.0,0.0,0.0,0.0,0.0,1.0,0.0,0.0,0.0,0.0,0.001,0.0,0.0,0.0,0.0,0.0512596253731343,0.3394997089552239,2.365136940298507,-0.3308550895522388,-0.0443790843283582,0.9351867985074628,-0.1766492940298507,0.2637039253731343,0.084713047761194,47.59983475,,-0.066,0.034,1918.3,1926.74,-122.82570734,103.38728144,0.0,0.0,81.2,26.4,30.6,0.869,100,True
,107,10700.0,2025-10-02 20:54:51.063000+00:00,2025-10-02 13:54:51.063,00:00:15.9,75291063,0.0,0.0,0.0,0.0,0.0,0.0,0.0,0.0,0.0,0.0,1.0,0.0,0.0,0.0,0.0,0.001,0.0,0.0,0.0,0.0,0.0512970384615384,0.3397500989010989,2.364949010989011,-0.3288232747252747,-0.0449341208791208,0.935198945054945,-0.1708448703296703,0.07333,0.0816862923076923,47.59983475,,-0.066,0.034,1918.3,1926.74,-122.82570734,103.38728144,0.0,0.0,81.2,26.4,30.6,0.869,100,True
,108,10800.0,2025-10-02 20:54:51.163000+00:00,2025-10-02 13:54:51.163,00:00:16.0,75291163,0.0,0.0,0.0,0.0,0.0,0.0,0.0,0.0,0.0,0.0,1.0,0.0,0.0,0.0,0.0,0.001,0.0,0.0,0.0,0.0,0.0512390576470588,0.3394204588235294,2.364681411764706,-0.3243102352941177,-0.0474613223529411,0.9347056235294118,-0.025527934117647,-0.2615412705882353,0.1901240352941176,47.59983475,,-0.066,0.034,1918.3,1926.74,-122.82570734,103.38728144,0.0,0.0,81.2,26.4,30.6,0.869,100,True
,109,10900.0,2025-10-02 20:54:51.263000+00:00,2025-10-02 13:54:51.263,00:00:16.1,75291263,0.0,0.0,0.0,0.0,0.0,0.0,0.0,0.0,0.0,0.0,1.0,0.0,0.0,0.0,0.0,0.001,0.0,0.0,0.0,0.0,0.0510023821052631,0.3416669263157895,2.3644336842105265,-0.3328756842105263,-0.0521745052631578,0.936413105263158,0.3962721263157894,2.0653616210526318,0.4193977157894737,47.59983475,,-0.066,0.034,1918.3,1926.74,-122.82570734,103.38728144,0.0,0.0,81.2,26.4,30.6,0.869,100,True
,110,11000.0,2025-10-02 20:54:51.363000+00:00,2025-10-02 13:54:51.363,00:00:16.2,75291363,0.0,0.0,0.0,0.0,0.0,0.0,0.0,0.0,0.0,0.0,1.0,0.0,0.0,0.0,0.0,0.001,0.0,0.0,0.0,0.0,0.0505485608695652,0.3437489782608695,2.364128913043478,-0.3350728260869565,-0.0541836326086956,0.9368204130434784,0.0463304347826086,-0.3754415217391305,0.19752945,47.59983475,,-0.066,0.034,1918.3,1926.74,-122.82570734,103.38728144,0.0,0.0,81.2,26.4,30.6,0.869,100,True
,111,11100.0,2025-10-02 20:54:51.463000+00:00,2025-10-02 13:54:51.463,00:00:16.3,75291463,0.0,0.0,0.0,0.0,0.0,0.0,0.0,0.0,0.0,0.0,1.0,0.0,0.0,0.0,0.0,0.001,0.0,0.0,0.0,0.0,0.0509040279069767,0.3425650465116279,2.363995581395349,-0.3327947674418605,-0.0467921813953488,0.9349138837209302,0.1065544186046511,-0.2737552976744188,0.1532619395348837,47.59983475,,-0.066,0.0331395348837209,1918.3,1926.74,-122.82570734,103.38728144,0.0,0.0,81.2,26.4,30.6,0.869,100,True
,112,11200.0,2025-10-02 20:54:51.563000+00:00,2025-10-02 13:54:51.563,00:00:16.4,75291563,0.0,0.0,0.0,0.0,0.0,0.0,0.0,0.0,0.0,0.0,1.0,0.0,0.0,0.0,0.0,0.001,0.0,0.0,0.0,0.0,0.0505600782608695,0.3418458695652174,2.363779565217392,-0.3326331739130435,-0.0476736869565217,0.9340500434782608,0.4904138260869565,-0.6894891913043478,0.1434484347826086,47.59983475,,-0.066,0.033,1918.3,1926.74,-122.82570734,103.36439323304349,0.0,0.0,81.2,26.4,30.6,0.869,100,True
,113,11300.0,2025-10-02 20:54:51.663000+00:00,2025-10-02 13:54:51.663,00:00:16.5,75291663,0.0,0.0,0.0,0.0,0.0,0.0,0.0,0.0,0.0,0.0,1.0,0.0,0.0,0.0,0.0,0.001,0.0,0.0,0.0,0.0,0.0502764117647058,0.3355226274509804,2.3633154901960784,-0.3408317254901961,-0.006338795490196,0.9298106274509804,-0.7406897450980393,-8.261431176470587,-0.2910910137254902,47.59983475,,-0.0673921568627451,0.0300588235294117,1918.3,1926.74,-122.82570734,103.36335286,0.0,0.0,81.2,26.4,30.6,0.869,100,True
,114,11400.0,2025-10-02 20:54:51.763000+00:00,2025-10-02 13:54:51.763,00:00:16.6,75291763,0.0,0.0,0.0,0.0,0.0,0.0,0.0,0.0,0.0,0.0,1.0,0.0,0.0,0.0,-9.078947368421051,0.0009210526315789,0.0,-0.1152631578947368,-0.0347368421052631,0.1113157894736842,0.058471,0.306625,2.36526,-0.321347,0.0270772,0.914872,-11.9631,-20.3717,-4.81672,47.59983475,,-0.0710526315789473,0.0097631578947368,1918.3,1926.74,-122.82570734,103.36335286,0.0,0.0,81.2,26.4,30.6,0.869,100,True
,115,11500.0,2025-10-02 20:54:51.863000+00:00,2025-10-02 13:54:51.863,00:00:16.7,75291863,0.0,0.0,0.0,0.0,0.0,0.0,0.0,0.0,0.0,0.0,1.0,0.0,0.0,-0.0342857142857142,-110.71428571428572,-0.0016483516483516,-0.0032967032967032,-2.923736263736264,-0.4465934065934066,2.867142857142857,0.0688161538461538,0.2800354395604395,2.365883076923077,-0.2637502967032967,-0.0472140747252747,0.908157934065934,-12.221231868131868,-39.34304065934066,-4.924238681318681,47.59983475,,-0.0468131868131868,-0.1514065934065934,1918.2967032967035,1926.743296703297,-122.82570734,103.36335286,0.0,0.0,81.2,26.36703296703297,30.6,0.869,100,True
,116,11600.0,2025-10-02 20:54:51.963000+00:00,2025-10-02 13:54:51.963,00:00:16.8,75291963,,,,,,,,,,,,,,-0.0989677419354838,-34.903225806451616,0.0381935483870967,0.6316129032258064,7.309677419354838,-0.2670967741935484,15.986774193548388,0.0862380129032258,0.1617399774193548,2.361253870967742,-0.0039255161290322,-0.171103,0.8869001612903226,4.689206451612906,-87.37115483870967,0.5556900000000002,47.59983475,,0.0009677419354838,0.3933548387096773,1918.2858064516129,1926.754193548387,-122.82570734,103.36335286,0.0,0.0,80.8225806451613,26.3,30.6,0.869,100,True
,117,11700.0,2025-10-02 20:54:52.063000+00:00,2025-10-02 13:54:52.063,00:00:16.9,75292063,0.95,0.0,0.0,,,,,,,0.0,0.0,,,-0.0175730337078651,214.6067415730337,0.1129887640449438,3.9905617977528087,45.70561797752809,0.0930337078651685,47.82977528089888,0.0501482,0.008734508988764,2.3510897752808986,-0.2993721235955056,-0.0278747528089887,0.8766098539325843,29.303166292134836,-79.59321123595505,-6.664229550561799,47.59983475,,-0.175191011235955,3.1204269662921345,1918.2696629213483,1926.770337078652,-122.82570734,103.36335286,0.0,0.0,80.09325842696629,26.35168539325843,30.6,0.869,100,True
,118,11800.0,2025-10-02 20:54:52.163000+00:00,2025-10-02 13:54:52.163,00:00:17.0,75292163,0.95,0.0,0.0,,,,,,,0.0,0.0,,,0.1874285714285714,557.2857142857142,0.1205714285714285,5.258571428571429,53.88,0.0771428571428571,53.80857142857143,0.0119926285714285,-0.0678275285714285,2.359355714285714,-0.5042894285714286,-0.0268674285714285,0.8890094285714286,14.89174,-40.974171428571424,-11.790795285714289,47.59983475,,-0.4021428571428571,4.892142857142857,1918.2771428571427,1926.7971428571427,-122.82570734,103.36335286,0.0,0.0,80.07142857142857,26.4,30.6,0.8677142857142857,100,True
,119,11900.0,2025-10-02 20:54:52.263000+00:00,2025-10-02 13:54:52.263,00:00:17.1,75292263,0.95,0.0,0.0,,,,,,,0.0,0.0,,,0.4941935483870968,842.741935483871,0.1150967741935483,3.934516129032258,39.784516129032255,-0.0316129032258064,39.71548387096774,0.0092513677419354,-0.0900306806451612,2.368106129032258,-0.0814511612903225,-0.1241381677419354,0.9197772258064516,-8.076755483870969,-10.743566451612905,1.5057913870967743,47.59983475,,-0.4606129032258064,5.061451612903226,1918.3490322580644,1926.8690322580644,-122.82570734,103.36335286,0.0,0.0,80.27419354838709,26.374193548387098,30.6,0.8647096774193548,100,True
,120,12000.0,2025-10-02 20:54:52.363000+00:00,2025-10-02 13:54:52.363,00:00:17.2,75292363,0.95,0.0,0.0,,,,,,,0.0,0.0,,,0.8862967032967033,942.6813186813188,0.1297912087912087,4.375494505494506,41.12483516483516,0.0568131868131868,41.14142857142857,0.0479200406593406,-0.0889746637362637,2.3487516483516484,0.1149071802197802,-0.003636,0.9712264175824176,-19.62212967032967,1.282928681318681,5.447852197802198,47.59983475,,-0.5522527472527473,5.446428571428571,1918.5172527472528,1927.0372527472528,-122.82570734,103.36335286,0.0,0.0,80.13186813186813,26.334065934065933,30.6,0.8603186813186813,100,True
,121,12100.0,2025-10-02 20:54:52.463000+00:00,2025-10-02 13:54:52.463,00:00:17.3,75292463,0.95,0.0,0.0,0.0,0.9,0.0,,,,0.0,0.0,,,0.943,1048.3478260869565,0.1514347826086956,5.465652173913044,45.87739130434783,0.087391304347826,45.904782608695655,0.0784482652173913,-0.0891419652173913,2.338426086956522,0.0621936608695652,0.0030529565217391,0.9968135652173914,-14.47331304347826,-4.093868260869566,0.8801108695652173,47.59983475,,-0.7658695652173914,6.0876086956521736,1918.57,1927.09,-122.82570734,103.36335286,0.0,0.0,79.82608695652173,26.4,30.6,0.859,100,True
,122,12200.0,2025-10-02 20:54:52.563000+00:00,2025-10-02 13:54:52.563,00:00:17.4,75292563,0.95,0.0,0.0,0.0,0.9,0.0,,,,0.0,0.0,,,1.015867469879518,1215.879518072289,0.1765662650602409,7.390843373493976,53.30228915662651,0.0926506024096385,53.31180722891567,0.0886425530120482,-0.097970421686747,2.345907951807229,-0.0107414048192771,-0.053342826506024,1.009523253012048,-1.7866963855421687,-11.89081746987952,-7.913020843373494,47.59983465168675,,-1.0791686746987952,7.106987951807229,1918.6336144578315,1927.1536144578315,-122.8257011,103.40120717518072,0.4114787334939759,0.0,79.36867469879518,26.4,30.6,0.8572650602409638,100,True
,123,12300.0,2025-10-02 20:54:52.663000+00:00,2025-10-02 13:54:52.663,00:00:17.5,75292663,0.95,0.0,0.0,0.0,0.9,0.0,,,,0.0,0.0,,,1.2076666666666664,1463.5555555555557,0.1871666666666666,8.100000000000001,53.23166666666667,0.0005555555555555,53.153888888888886,0.0897279666666666,-0.1123328333333333,2.361495,-0.1292888611111111,-0.0264561222222222,1.0159288888888889,-1.0109587777777778,-11.526983333333332,-11.560216666666667,47.59983458,,-1.3210555555555556,7.893222222222223,1918.7594444444444,1927.2794444444444,-122.82569655,103.42880928,0.71151531,0.0,79.34444444444445,26.4,30.6,0.8538333333333333,100,True
,124,12400.0,2025-10-02 20:54:52.763000+00:00,2025-10-02 13:54:52.763,00:00:17.6,75292763,0.95,0.0,0.0,0.0,0.9,0.0,,,,0.0,0.0,,,1.561797872340425,1701.936170212766,0.1983723404255319,7.563297872340426,47.50808510638298,0.0178723404255319,47.447978723404255,0.0840273904255319,-0.1197132765957446,2.386213085106383,0.0882270957446808,0.0085202170212765,1.0223346808510638,2.5536946382978725,-3.782782978723404,-19.775668085106386,47.59983458,,-1.5321489361702127,8.313446808510639,1919.013404255319,1927.533404255319,-122.82569655,103.42880928,0.71151531,0.0,79.4,26.4,30.6,0.8474148936170213,100,True
,125,12500.0,2025-10-02 20:54:52.863000+00:00,2025-10-02 13:54:52.863,00:00:17.7,75292863,0.95,0.0,0.0,0.0,0.9,0.0,,,,0.0,0.0,,,1.755978260869565,1879.8260869565215,0.212445652173913,7.607282608695652,45.54119565217391,0.1180434782608695,45.53521739130435,0.0653947076086956,-0.118010152173913,2.422615,-0.0308403836956522,-0.0257922054347826,1.0277380434782608,5.430816086956522,2.156323260869565,-17.252535869565214,47.59983458,,-1.8717065217391304,8.737173913043478,1919.2108695652173,1927.7308695652173,-122.82569655,103.42880928,0.71151531,0.0,79.22391304347826,26.4,30.6,0.8433586956521739,100,True
,126,12600.0,2025-10-02 20:54:52.963000+00:00,2025-10-02 13:54:52.963,00:00:17.8,75292963,0.95,0.0,0.0,0.0,0.9,0.0,,,,0.0,0.0,,,1.772,2019.2747252747251,0.2267142857142857,8.803626373626374,49.20516483516484,0.1202197802197802,49.20516483516484,0.0640082461538461,-0.1160804065934065,2.4459605494505494,-0.0926479208791208,0.0184061736263736,1.0296790109890108,-8.304744175824176,-3.2797664835164837,-10.27570989010989,47.59983458,,-2.3834065934065936,9.360076923076925,1919.23,1927.75,-122.82569655,103.42880928,0.71151531,0.0,79.00439560439561,26.4,30.6,0.843,100,True
,127,12700.0,2025-10-02 20:54:53.063000+00:00,2025-10-02 13:54:53.063,00:00:17.9,75293063,0.95,0.0,0.0,0.0,0.9,0.0,,,,0.0,0.0,,,1.9387319587628864,2213.9896907216494,0.2484639175257731,10.338762886597936,52.98257731958763,0.0676288659793814,52.99556701030928,0.0838301278350515,-0.1179359690721649,2.469576391752577,-0.1204851958762886,-0.0859733731958763,1.027881237113402,-9.928873195876289,-1.7245909278350515,-15.658860824742268,47.59983458,,-2.9022680412371136,10.18781443298969,1919.449381443299,1927.989381443299,-122.82569655,103.42880928,0.71151531,0.0,78.64639175257732,26.5,30.6,0.8382268041237113,100,True
