ride_id,sample_idx,_elapsed_ms,ts_utc,ts_pst,ms_today,cf_accel,cf_brake,cf_cruise,cf_turn_left,cf_turn_right,cf_carve_left,cf_carve_right,cf_ascent,cf_descent,cf_traction_loss,cf_idle,cf_forward,cf_reverse,speed_meters_per_sec,erpm,duty_cycle,current_in,current_motor,d_axis_current,q_axis_current,roll,pitch,yaw,accX,accY,accZ,gyroX,gyroY,gyroZ,gnss_lat,fault_code,d_axis_voltage,q_axis_voltage,tacho_meters,tacho_abs_meters,gnss_lon,gnss_alt,gnss_gVel,gnss_vVel,input_voltage,temp_mos_max,temp_motor,battery_level,dt_ms,_on_grid
ride_47,0,0.0,2025-10-02 20:43:41.978000+00:00,2025-10-02 13:43:41.978,74621978,0.0,0.0,0.0,0.0,0.0,0.0,0.0,0.0,0.0,0.0,1.0,0.0,0.0,0.0,0.0,-0.001,0.0,-0.04,-0.02,0.05,0.0,0.0,0.0,0.0,0.0,0.0,0.0,0.0,0.0,47.5983895,0.0,-0.052,0.015,-0.122,0.235,-122.8307683,104.30000305,0.0,0.0,83.6,20.8,19.9,0.99,100,True
,1,100.0,2025-10-02 20:43:42.078000+00:00,2025-10-02 13:43:42.078,74622078,0.0,0.0,0.0,0.0,0.0,0.0,0.0,0.0,0.0,0.0,1.0,0.0,0.0,0.0,0.0,-0.001,0.0,0.0,0.0,0.0,0.0470544255639097,0.4005395563909774,0.131042015037594,-0.3826755187969924,-0.0414076842105263,0.9124313984962408,-0.1567994060150375,0.1128084796992481,-0.159339932330827,47.5983895,,-0.0599398496240601,-0.0429398496240601,-0.122,0.235,-122.8307683,104.30000305,0.0,0.0,83.6,20.8,19.9,0.99,100,True
,2,200.0,2025-10-02 20:43:42.178000+00:00,2025-10-02 13:43:42.178,74622178,0.0,0.0,0.0,0.0,0.0,0.0,0.0,0.0,0.0,0.0,1.0,0.0,0.0,0.0,0.0,-0.001,0.0,0.0,0.0,0.0,0.0472422451127819,0.4006215112781955,0.1312172030075188,-0.3841695037593985,-0.0392087368421052,0.912423879699248,-0.2092294812030075,0.0602269759398496,-0.1542015864661654,47.5983895,,-0.059187969924812,-0.042187969924812,-0.122,0.235,-122.8307683,104.30000305,0.0,0.0,83.6,20.8,19.9,0.99,100,True
,3,300.0,2025-10-02 20:43:42.278000+00:00,2025-10-02 13:43:42.278,74622278,0.0,0.0,0.0,0.0,0.0,0.0,0.0,0.0,0.0,0.0,1.0,0.0,0.0,0.0,0.0,-0.001,0.0,0.0,0.0,0.0,0.0479631516129032,0.4007258709677419,0.1316924516129032,-0.3845776774193548,-0.0386630322580645,0.9124711935483872,-0.4571474838709677,0.0461325677419354,-0.2456484516129032,47.5983895,,-0.059,-0.0428064516129032,-0.122,0.235,-122.8307683,104.30000305,0.0,0.0,83.6,20.8,19.9,0.99,100,True
,4,400.0,2025-10-02 20:43:42.378000+00:00,2025-10-02 13:43:42.378,74622378,0.0,0.0,0.0,0.0,0.0,0.0,0.0,0.0,0.0,0.0,1.0,0.0,0.0,0.0,0.0,-0.001,0.0,0.0,0.0,0.0,0.0490262094736842,0.4007649894736842,0.1322077263157894,-0.3857564421052631,-0.0429138442105263,0.912522705263158,-0.3772801473684211,0.1080626989473684,-0.0985234189473684,47.5983895,,-0.0598631578947368,-0.0421368421052631,-0.122,0.235,-122.8307683,104.30000305,0.0,0.0,83.6,20.8,19.9,0.99,100,True
,5,500.0,2025-10-02 20:43:42.478000+00:00,2025-10-02 13:43:42.478,74622478,0.0,0.0,0.0,0.0,0.0,0.0,0.0,0.0,0.0,0.0,1.0,0.0,0.0,0.0,0.0,-0.001,0.0,0.0,0.0,0.0,0.0494226350364963,0.4000448248175182,0.1324861386861314,-0.3821821751824817,-0.0387177226277372,0.9119228540145986,0.1821157875912409,-0.7017460145985401,-0.1771485642335766,47.5983895,,-0.059,-0.042948905109489,-0.122,0.235,-122.8307683,104.30000305,0.0,0.0,83.6,20.8,19.9,0.99,100,True
,6,600.0,2025-10-02 20:43:42.578000+00:00,2025-10-02 13:43:42.578,74622578,0.0,0.0,0.0,0.0,0.0,0.0,0.0,0.0,0.0,0.0,1.0,0.0,0.0,0.0,0.0,-0.001,0.0,0.0,0.0,0.0,0.0493759927007299,0.3994280364963504,0.1326452627737226,-0.3810989635036496,-0.0400994744525547,0.911692197080292,-0.0170158182481751,-0.3944890802919708,-0.1115280532846715,47.5983895,,-0.059,-0.0422189781021897,-0.122,0.235,-122.8307683,104.30000305,0.0,0.0,83.6,20.8,19.9,0.99,100,True
,7,700.0,2025-10-02 20:43:42.678000+00:00,2025-10-02 13:43:42.678,74622678,0.0,0.0,0.0,0.0,0.0,0.0,0.0,0.0,0.0,0.0,1.0,0.0,0.0,0.0,0.0,-0.001,0.0,0.0,0.0,0.0,0.0494098333333333,0.3991846666666667,0.1328235208333333,-0.3839888958333333,-0.0402832916666666,0.9118031041666668,-0.0348308416666666,-0.0482031041666666,-0.2006015562499999,47.5983895,,-0.0597291666666666,-0.042,-0.122,0.235,-122.8307683,104.30000305,0.0,0.0,83.6,20.8,19.9,0.99,100,True
,8,800.0,2025-10-02 20:43:42.778000+00:00,2025-10-02 13:43:42.778,74622778,0.0,0.0,0.0,0.0,0.0,0.0,0.0,0.0,0.0,0.0,1.0,0.0,0.0,0.0,0.0,-0.001,0.0,0.0,0.0,0.0,0.0494060651685393,0.3988911123595506,0.1329759325842696,-0.3814173146067415,-0.035269615730337,0.9118974382022472,-0.1301309382022472,-0.0113215415730337,-0.1722536629213483,47.5983895,,-0.0591685393258426,-0.0428314606741573,-0.122,0.235,-122.8307683,104.30000305,0.0,0.0,83.6,20.8,19.9,0.99,100,True
,9,900.0,2025-10-02 20:43:42.878000+00:00,2025-10-02 13:43:42.878,74622878,0.0,0.0,0.0,0.0,0.0,0.0,0.0,0.0,0.0,0.0,1.0,0.0,0.0,0.0,0.0,-0.001,0.0,0.0,0.0,0.0,0.049584680620155,0.3985691395348837,0.1331531627906976,-0.3797157054263566,-0.0403080062015503,0.9119273798449612,-0.152605,-0.1613419472868217,-0.1569023333333333,47.5983895,,-0.059,-0.0423410852713178,-0.122,0.235,-122.8307683,104.30000305,0.0,0.0,83.6,20.8,19.9,0.99,100,True
,10,1000.0,2025-10-02 20:43:42.978000+00:00,2025-10-02 13:43:42.978,74622978,0.0,0.0,0.0,0.0,0.0,0.0,0.0,0.0,0.0,0.0,1.0,0.0,0.0,0.0,0.0,-0.001,0.0,0.0,0.0,0.0,0.0495325555555555,0.3982990888888889,0.1333453777777777,-0.3814108888888889,-0.0430995644444444,0.9122629333333332,-0.0734407244444444,-0.1903786222222222,-0.2510012666666666,47.5983895,,-0.059,-0.0413777777777777,-0.122,0.235,-122.8307683,104.30000305,0.0,0.0,83.6,20.8,19.9,0.99,100,True
,11,1100.0,2025-10-02 20:43:43.078000+00:00,2025-10-02 13:43:43.078,74623078,0.0,0.0,0.0,0.0,0.0,0.0,0.0,0.0,0.0,0.0,1.0,0.0,0.0,0.0,0.0,-0.001,0.0,0.0,0.0,0.0,0.0493193933333333,0.3983377999999999,0.1335266666666666,-0.3806024666666667,-0.0411942733333333,0.9128447333333334,-0.0164038533333333,0.1445083333333333,-0.2094614,47.5983895,,-0.059,-0.0417333333333333,-0.122,0.235,-122.8307683,104.30000305,0.0,0.0,83.6,20.8,19.9,0.99,100,True
,12,1200.0,2025-10-02 20:43:43.178000+00:00,2025-10-02 13:43:43.178,74623178,0.0,0.0,0.0,0.0,0.0,0.0,0.0,0.0,0.0,0.0,1.0,0.0,0.0,0.0,0.0,-0.001,0.0,0.0,0.0,0.0,0.0493828955555555,0.3984933111111111,0.1337596888888889,-0.3822539333333333,-0.0397445044444444,0.9131277111111112,-0.0720258844444444,0.2569353555555555,-0.1682535333333333,47.5983895,,-0.0598444444444444,-0.042,-0.122,0.235,-122.8307683,104.30000305,0.0,0.0,83.6,20.8,19.9,0.99,100,True
,13,1300.0,2025-10-02 20:43:43.278000+00:00,2025-10-02 13:43:43.278,74623278,0.0,0.0,0.0,0.0,0.0,0.0,0.0,0.0,0.0,0.0,1.0,0.0,0.0,0.0,0.0,-0.001,0.0,0.0,0.0,0.0,0.0494921882352941,0.3984849117647058,0.1339442352941176,-0.385403044117647,-0.0417776073529411,0.913125544117647,0.009186169117647,0.1245302308823529,-0.1295865735294117,47.5983895,,-0.0593676470588235,-0.042,-0.122,0.235,-122.8307683,104.30000305,0.0,0.0,83.6,20.8,19.9,0.99,100,True
,14,1400.0,2025-10-02 20:43:43.378000+00:00,2025-10-02 13:43:43.378,74623378,0.0,0.0,0.0,0.0,0.0,0.0,0.0,0.0,0.0,0.0,1.0,0.0,0.0,0.0,0.0,-0.001,0.0,0.0,0.0,0.0,0.0491278,0.39848,0.1340385,-0.3841595,-0.04081015,0.9130965,0.138559,0.04819595,-0.044048,47.5983895,,-0.059,-0.042,-0.122,0.235,-122.8307683,104.30000305,0.0,0.0,83.6,20.8,19.9,0.99,100,True
,15,1500.0,2025-10-02 20:43:43.478000+00:00,2025-10-02 13:43:43.478,74623478,0.0,0.0,0.0,0.0,0.0,0.0,0.0,0.0,0.0,0.0,1.0,0.0,0.0,0.0,0.0,-0.001,0.0,0.0,0.0,0.0,0.0484597954545454,0.3985414318181818,0.1340681590909091,-0.3814177272727272,-0.0410755068181818,0.913077181818182,0.1282158181818181,0.0878776818181818,-0.0531290454545454,47.5983895,,-0.059,-0.042,-0.122,0.235,-122.8307683,104.30000305,0.0,0.0,83.6,20.8,19.9,0.99,100,True
,16,1600.0,2025-10-02 20:43:43.578000+00:00,2025-10-02 13:43:43.578,74623578,0.0,0.0,0.0,0.0,0.0,0.0,0.0,0.0,0.0,0.0,1.0,0.0,0.0,0.0,0.0,-0.001,0.0,0.0,0.0,0.0,0.0484361987951807,0.3987545421686747,0.1342680120481927,-0.3863276746987951,-0.0427106048192771,0.9130921686746988,-0.1977365662650602,0.1700617228915662,-0.0860619469879518,47.5983895,,-0.0597469879518072,-0.042,-0.122,0.235,-122.8307683,104.30000305,0.0,0.0,83.6,20.8,19.9,0.99,100,True
,17,1700.0,2025-10-02 20:43:43.678000+00:00,2025-10-02 13:43:43.678,74623678,0.0,0.0,0.0,0.0,0.0,0.0,0.0,0.0,0.0,0.0,1.0,0.0,0.0,0.0,0.0,-0.001,0.0,0.0,0.0,0.0,0.0490373354838709,0.398934623655914,0.1346264623655914,-0.3818643655913978,-0.0430015634408602,0.9131066451612904,-0.6029135913978494,0.1262326989247311,-0.2888394215053763,47.5983895,,-0.0591505376344086,-0.0428494623655913,-0.122,0.235,-122.8307683,104.30000305,0.0,0.0,83.6,20.8,19.9,0.99,100,True
,18,1800.0,2025-10-02 20:43:43.778000+00:00,2025-10-02 13:43:43.778,74623778,0.0,0.0,0.0,0.0,0.0,0.0,0.0,0.0,0.0,0.0,1.0,0.0,0.0,0.0,0.0,-0.001,0.0,0.0,0.0,0.0,0.0497854923913043,0.3988473152173913,0.1350325978260869,-0.3810596086956522,-0.0433980967391304,0.9129605,-0.2276305434782608,0.0448534173913043,-0.221939,47.5983895,,-0.06,-0.042,-0.122,0.235,-122.8307683,104.30000305,0.0,0.0,83.6,20.8,19.9,0.99,100,True
,19,1900.0,2025-10-02 20:43:43.878000+00:00,2025-10-02 13:43:43.878,74623878,0.0,0.0,0.0,0.0,0.0,0.0,0.0,0.0,0.0,0.0,1.0,0.0,0.0,0.0,0.0,-0.001,0.0,0.0,0.0,0.0,0.049996164893617,0.3987754255319149,0.1352825,-0.3821710478723404,-0.0418942569148936,0.9128174414893616,-0.1695891010638297,-0.0795892308510638,-0.1596129734042553,47.5983895,,-0.0599521276595744,-0.0420478723404255,-0.122,0.235,-122.8307683,104.30000305,0.0,0.0,83.6,20.8,19.9,0.99,100,True
,20,2000.0,2025-10-02 20:43:43.978000+00:00,2025-10-02 13:43:43.978,74623978,0.0,0.0,0.0,0.0,0.0,0.0,0.0,0.0,0.0,0.0,1.0,0.0,0.0,0.0,0.0,-0.001,0.0,0.0,0.0,0.0,0.0503224414893617,0.3986690425531915,0.1354325,-0.3817715797872341,-0.0438937781914893,0.9127445691489362,-0.3583013351063829,0.0691259819148936,-0.1819571223404255,47.5983895,,-0.0594202127659574,-0.0425797872340425,-0.122,0.235,-122.8307683,104.30000305,0.0,0.0,83.6,20.8,19.9,0.99,100,True
,21,2100.0,2025-10-02 20:43:44.078000+00:00,2025-10-02 13:43:44.078,74624078,0.0,0.0,0.0,0.0,0.0,0.0,0.0,0.0,0.0,0.0,1.0,0.0,0.0,0.0,0.0,-0.001,0.0,0.0,0.0,0.0,0.0509946724137931,0.3985123448275862,0.1356760344827586,-0.3815733103448276,-0.0447665689655172,0.912666,-0.4187944137931034,0.2546348275862069,-0.1571907862068965,47.5983895,,-0.059,-0.0427586206896551,-0.122,0.235,-122.8307683,104.30000305,0.0,0.0,83.6,20.8,19.9,0.99,100,True
,22,2200.0,2025-10-02 20:43:44.178000+00:00,2025-10-02 13:43:44.178,74624178,0.0,0.0,0.0,0.0,0.0,0.0,0.0,0.0,0.0,0.0,1.0,0.0,0.0,0.0,0.0,-0.001,0.0,0.0,0.0,0.0,0.0523375333333333,0.3982231777777777,0.1361268,-0.3828312888888889,-0.0406326755555555,0.9125750666666668,-0.1186489488888888,0.0712152222222222,-0.0748116488888888,47.5983895,,-0.059,-0.042,-0.122,0.235,-122.8307683,104.30000305,0.0,0.0,83.6,20.8,19.9,0.99,100,True
,23,2300.0,2025-10-02 20:43:44.278000+00:00,2025-10-02 13:43:44.278,74624278,0.0,0.0,0.0,0.0,0.0,0.0,0.0,0.0,0.0,0.0,1.0,0.0,0.0,0.0,0.0,-0.001,0.0,0.0,0.0,0.0,0.052428764539007,0.3981682482269503,0.1362809787234042,-0.3843359432624114,-0.0381857390070922,0.9126404113475176,-0.0809639992907801,-0.3643600212765957,-0.139181295035461,47.5983895,,-0.059,-0.042,-0.122,0.235,-122.8307683,104.30000305,0.0,0.0,83.6,20.8,19.9,0.99,100,True
,24,2400.0,2025-10-02 20:43:44.378000+00:00,2025-10-02 13:43:44.378,74624378,0.0,0.0,0.0,0.0,0.0,0.0,0.0,0.0,0.0,0.0,1.0,0.0,0.0,0.0,0.0,-0.001,0.0,0.0,0.0,0.0,0.0524875666666666,0.3982597037037037,0.1364199259259259,-0.3843235555555555,-0.0400213148148148,0.912875,-0.058223437037037,0.1177026666666666,-0.0925613433333333,47.5983895,,-0.059,-0.042,-0.122,0.235,-122.8307683,104.30000305,0.0,0.0,83.6,20.8,19.9,0.99,100,True
,25,2500.0,2025-10-02 20:43:44.478000+00:00,2025-10-02 13:43:44.478,74624478,0.0,0.0,0.0,0.0,0.0,0.0,0.0,0.0,0.0,0.0,1.0,0.0,0.0,0.0,0.0,-0.001,0.0,0.0,0.0,0.0,0.0522892494505494,0.3979685714285714,0.1366200879120879,-0.3828956483516483,-0.0480863307692307,0.9128278571428572,0.4558427362637363,-0.0169244395604395,-0.0179356398901098,47.5983895,,-0.059,-0.0417582417582417,-0.122,0.235,-122.8307683,104.30000305,0.0,0.0,83.6,20.8,19.9,0.99,100,True
,26,2600.0,2025-10-02 20:43:44.578000+00:00,2025-10-02 13:43:44.578,74624578,0.0,0.0,0.0,0.0,0.0,0.0,0.0,0.0,0.0,0.0,1.0,0.0,0.0,0.0,0.0,-0.001,0.0,0.0,0.0,0.0,0.0509917109890109,0.3975143186813186,0.1364733296703296,-0.3849663626373626,-0.0473122098901098,0.912580868131868,0.4598480769230769,-0.2038627912087912,-0.0935964505494505,47.5983895,,-0.0593406593406593,-0.0413406593406593,-0.122,0.235,-122.8307683,104.30000305,0.0,0.0,83.6,20.8,19.9,0.99,100,True
,27,2700.0,2025-10-02 20:43:44.678000+00:00,2025-10-02 13:43:44.678,74624678,0.0,0.0,0.0,0.0,0.0,0.0,0.0,0.0,0.0,0.0,1.0,0.0,0.0,0.0,0.0,-0.001,0.0,0.0,0.0,0.0,0.0499887235294117,0.3972755882352941,0.1364126470588235,-0.3797019411764706,-0.0406297235294117,0.9126379411764706,0.1406446611764706,0.3562824705882353,-0.117657,47.5983895,,-0.0595294117647058,-0.042,-0.122,0.235,-122.8307683,104.30000305,0.0,0.0,83.6,20.8,19.9,0.99,100,True
,28,2800.0,2025-10-02 20:43:44.778000+00:00,2025-10-02 13:43:44.778,74624778,0.0,0.0,0.0,0.0,0.0,0.0,0.0,0.0,0.0,0.0,1.0,0.0,0.0,0.0,0.0,-0.001,0.0,0.0,0.0,0.0,0.0495332904411764,0.3975905955882353,0.1364577279411764,-0.3825207647058823,-0.0413271455882352,0.9130308308823528,-0.0327495832352941,0.3263629852941176,-0.0737183419117647,47.5983895,,-0.059,-0.0415955882352941,-0.122,0.235,-122.8307683,104.30000305,0.0,0.0,83.6,20.8,19.9,0.99,100,True
,29,2900.0,2025-10-02 20:43:44.878000+00:00,2025-10-02 13:43:44.878,74624878,0.0,0.0,0.0,0.0,0.0,0.0,0.0,0.0,0.0,0.0,1.0,0.0,0.0,0.0,0.0,-0.001,0.0,0.0,0.0,0.0,0.0494413632183908,0.3977445747126437,0.1365374597701149,-0.3889249195402299,-0.043739048275862,0.9132085747126436,-0.1660189195402298,0.1638542068965517,-0.064549508045977,47.5983895,,-0.059,-0.0412183908045977,-0.122,0.235,-122.8307683,104.30000305,0.0,0.0,83.6,20.8,19.9,0.99,100,True
,30,3000.0,2025-10-02 20:43:44.978000+00:00,2025-10-02 13:43:44.978,74624978,0.0,0.0,0.0,0.0,0.0,0.0,0.0,0.0,0.0,0.0,1.0,0.0,0.0,0.0,0.0,-0.001,0.0,0.0,0.0,0.0,0.0500118791208791,0.397639934065934,0.1369023626373626,-0.3840240439560439,-0.0403245274725274,0.9131909230769232,-0.2823905934065933,0.129994945054945,-0.1693475824175824,47.59830534703297,,-0.059,-0.042,-0.122,0.235,-122.8308031553846,115.61879208912087,0.0,0.0,83.6,20.8,19.9,0.99,100,True
,31,3100.0,2025-10-02 20:43:45.078000+00:00,2025-10-02 13:43:45.078,74625078,0.0,0.0,0.0,0.0,0.0,0.0,0.0,0.0,0.0,0.0,1.0,0.0,0.0,0.0,0.0,-0.001,0.0,0.0,0.0,0.0,0.0503061638888888,0.39736275,0.1371854930555555,-0.3818133541666667,-0.0403536548611111,0.913046125,0.1160704972222222,-0.1922197881944444,-0.0698706263888888,47.59815019,,-0.0592847222222222,-0.042,-0.122,0.235,-122.83086742,136.48780938,0.0,0.0,83.6,20.8,19.9,0.99,100,True
,32,3200.0,2025-10-02 20:43:45.178000+00:00,2025-10-02 13:43:45.178,74625178,0.0,0.0,0.0,0.0,0.0,0.0,0.0,0.0,0.0,0.0,1.0,0.0,0.0,0.0,0.0,-0.001,0.0,0.0,0.0,0.0,0.0500414416666666,0.3970377499999999,0.1372403541666666,-0.3790654375,-0.0420052520833333,0.912958625,0.0761424416666666,-0.0939680520833333,0.0302278458333333,47.59815019,,-0.0599791666666666,-0.042,-0.122,0.235,-122.83086742,136.48780938,0.0,0.0,83.6,20.8,19.9,0.99,100,True
,33,3300.0,2025-10-02 20:43:45.278000+00:00,2025-10-02 13:43:45.278,74625278,0.0,0.0,0.0,0.0,0.0,0.0,0.0,0.0,0.0,0.0,1.0,0.0,0.0,0.0,0.0,-0.001,0.0,0.0,0.0,0.0,0.0496216768,0.3968945279999999,0.137293992,-0.381511208,-0.043976952,0.913066968,0.1736738384,-0.0379081112,-0.0850384288,47.59815019,,-0.059224,-0.042,-0.122,0.235,-122.83086742,136.48780938,0.0,0.0,83.6,20.8,19.9,0.99,100,True
,34,3400.0,2025-10-02 20:43:45.378000+00:00,2025-10-02 13:43:45.378,74625378,0.0,0.0,0.0,0.0,0.0,0.0,0.0,0.0,0.0,0.0,1.0,0.0,0.0,0.0,0.0,-0.001,0.0,0.0,0.0,0.0,0.0492454514285714,0.3969861142857143,0.1373393428571428,-0.3804862571428571,-0.0424664285714285,0.9133582,0.1335949542857142,0.0498510314285714,-0.0777620057142857,47.59815019,,-0.0595142857142857,-0.042,-0.122,0.235,-122.83086742,136.48780938,0.0,0.0,83.54857142857142,20.8,19.9,0.99,100,True
,35,3500.0,2025-10-02 20:43:45.478000+00:00,2025-10-02 13:43:45.478,74625478,0.0,0.0,0.0,0.0,0.0,0.0,0.0,0.0,0.0,0.0,1.0,0.0,0.0,0.0,0.0,-0.001,0.0,0.0,0.0,0.0,0.0489575663157894,0.3971888315789473,0.137407747368421,-0.3806102210526316,-0.0420104021052631,0.9136484736842104,0.1434144884210526,0.1658278842105263,0.001663567368421,47.59815019,,-0.0596631578947368,-0.042,-0.122,0.235,-122.83086742,136.48780938,0.0,0.0,83.53368421052632,20.8,19.9,0.99,100,True
,36,3600.0,2025-10-02 20:43:45.578000+00:00,2025-10-02 13:43:45.578,74625578,0.0,0.0,0.0,0.0,0.0,0.0,0.0,0.0,0.0,0.0,1.0,0.0,0.0,0.0,0.0,-0.001,0.0,0.0,0.0,0.0,0.0487410523076923,0.3974237,0.1374956769230769,-0.3841047615384615,-0.0445348284615384,0.913736576923077,0.2470828461538461,0.1993503307692307,0.0454271569230769,47.59815019,,-0.0592846153846153,-0.042,-0.122,0.235,-122.83086742,136.48780938,0.0,0.0,83.57153846153845,20.8,19.9,0.99,100,True
,37,3700.0,2025-10-02 20:43:45.678000+00:00,2025-10-02 13:43:45.678,74625678,0.0,0.0,0.0,0.0,0.0,0.0,0.0,0.0,0.0,0.0,1.0,0.0,0.0,0.0,0.0,-0.001,0.0,0.0,0.0,0.0,0.0483996706521739,0.3976457826086956,0.1375311086956522,-0.384023402173913,-0.0432727217391304,0.91371725,0.1323223195652174,0.0427663510869565,-0.0541388804347826,47.59815019,,-0.06,-0.0420760869565217,-0.122,0.235,-122.83086742,136.48780938,0.0,0.0,83.50760869565218,20.8,19.9,0.99,100,True
,38,3800.0,2025-10-02 20:43:45.778000+00:00,2025-10-02 13:43:45.778,74625778,0.0,0.0,0.0,0.0,0.0,0.0,0.0,0.0,0.0,0.0,1.0,0.0,0.0,0.0,0.0,-0.001,0.0,0.0,0.0,0.0,0.0482285333333333,0.3979851666666666,0.1376998333333333,-0.3825191666666667,-0.0396223166666666,0.9134808333333332,-0.013141,0.0118955833333333,-0.1709116666666666,47.59815019,,-0.06,-0.0428333333333333,-0.122,0.235,-122.83086742,136.48780938,0.0,0.0,83.58333333333333,20.816666666666663,19.9,0.99,100,True
,39,3900.0,2025-10-02 20:43:45.878000+00:00,2025-10-02 13:43:45.878,74625878,0.0,0.0,0.0,0.0,0.0,0.0,0.0,0.0,0.0,0.0,1.0,0.0,0.0,0.0,0.0,-0.001,0.0,0.0,0.0,0.0,0.0487608630434782,0.3980475760869565,0.1379733478260869,-0.3797735326086957,-0.0356999380434782,0.9131702173913044,-0.2843436576086957,0.016138402173913,-0.1280644836956521,47.59815019,,-0.06,-0.042,-0.122,0.235,-122.83086742,136.48780938,0.0,0.0,83.52717391304347,20.87282608695652,19.9,0.99,100,True
,40,4000.0,2025-10-02 20:43:45.978000+00:00,2025-10-02 13:43:45.978,74625978,0.0,0.0,0.0,0.0,0.0,0.0,0.0,0.0,0.0,0.0,1.0,0.0,0.0,0.0,0.0,-0.001,0.0,0.0,0.0,0.0,0.0493818243902439,0.3978418902439024,0.1383173902439024,-0.3826672682926829,-0.0396683743902439,0.9127566707317072,-0.018167381707317,-0.3012209914634146,-0.0687130487804878,47.598147151585366,,-0.0595975609756097,-0.042,-0.122,0.235,-122.83092234487803,132.7631300257317,0.0,0.0,83.6,20.8,19.9,0.99,100,True
,41,4100.0,2025-10-02 20:43:46.078000+00:00,2025-10-02 13:43:46.078,74626078,0.0,0.0,0.0,0.0,0.0,0.0,0.0,0.0,0.0,0.0,1.0,0.0,0.0,0.0,0.0,-0.001,0.0,0.0,0.0,0.0,0.0492915865168539,0.3974605505617977,0.1384737415730337,-0.3827413033707865,-0.0415445640449438,0.9124931797752808,0.0653210943820224,0.0682982269662921,-0.0780966808988764,47.59814264,,-0.059,-0.042,-0.122,0.235,-122.8310039,127.23254553,0.0,0.0,83.6,20.8,19.9,0.99,100,True
,42,4200.0,2025-10-02 20:43:46.178000+00:00,2025-10-02 13:43:46.178,74626178,0.0,0.0,0.0,0.0,0.0,0.0,0.0,0.0,0.0,0.0,1.0,0.0,0.0,0.0,0.0,-0.001,0.0,0.0,0.0,0.0,0.0490764374100719,0.3974735611510791,0.1385488848920863,-0.3842311798561151,-0.042790562589928,0.9126078201438848,0.1276448561151079,0.1878002733812949,-0.0834473280575539,47.59814264,,-0.059,-0.042,-0.122,0.235,-122.8310039,127.23254553,0.0,0.0,83.6,20.8,19.9,0.99,100,True
,43,4300.0,2025-10-02 20:43:46.278000+00:00,2025-10-02 13:43:46.278,74626278,0.0,0.0,0.0,0.0,0.0,0.0,0.0,0.0,0.0,0.0,1.0,0.0,0.0,0.0,0.0,-0.001,0.0,0.0,0.0,0.0,0.0487558516853932,0.3977088426966292,0.1386105505617977,-0.3824706404494382,-0.0425259033707865,0.9128178539325844,0.1886893146067415,0.1879577640449438,-0.0680370202247191,47.59814264,,-0.059,-0.042,-0.122,0.235,-122.8310039,127.23254553,0.0,0.0,83.6,20.8,19.9,0.99,100,True
,44,4400.0,2025-10-02 20:43:46.378000+00:00,2025-10-02 13:43:46.378,74626378,0.0,0.0,0.0,0.0,0.0,0.0,0.0,0.0,0.0,0.0,1.0,0.0,0.0,0.0,0.0,-0.001,0.0,0.0,0.0,0.0,0.0482924206896551,0.3981052298850575,0.1387263333333333,-0.3789704712643678,-0.0421376183908046,0.9130348850574712,0.050686124137931,0.1054837264367816,-0.1071969195402298,47.59814264,,-0.0593908045977011,-0.042,-0.122,0.235,-122.8310039,127.23254553,0.0,0.0,83.6,20.8,19.9,0.99,100,True
,45,4500.0,2025-10-02 20:43:46.478000+00:00,2025-10-02 13:43:46.478,74626478,0.0,0.0,0.0,0.0,0.0,0.0,0.0,0.0,0.0,0.0,1.0,0.0,0.0,0.0,0.0,-0.001,0.0,0.0,0.0,0.0,0.04815339875,0.39819688125,0.138859275,-0.38064334375,-0.040945350625,0.9129784,-0.0562715015,-0.04290603125,-0.096294190625,47.59814264,,-0.0597062499999999,-0.042,-0.122,0.235,-122.8310039,127.23254553,0.0,0.0,83.6,20.829375,19.9,0.99,100,True
,46,4600.0,2025-10-02 20:43:46.578000+00:00,2025-10-02 13:43:46.578,74626578,0.0,0.0,0.0,0.0,0.0,0.0,0.0,0.0,0.0,0.0,1.0,0.0,0.0,0.0,0.0,-0.001,0.0,0.0,0.0,0.0,0.04812552375,0.39819875625,0.1389917749999999,-0.38395896875,-0.039719288125,0.9128984,-0.0126889515,-0.08669290625,-0.099670128125,47.59814264,,-0.0590812499999999,-0.042,-0.122,0.235,-122.8310039,127.23254553,0.0,0.0,83.6,20.891875,19.9,0.99,100,True
,47,4700.0,2025-10-02 20:43:46.678000+00:00,2025-10-02 13:43:46.678,74626678,0.0,0.0,0.0,0.0,0.0,0.0,0.0,0.0,0.0,0.0,1.0,0.0,0.0,0.0,0.0,-0.001,0.0,0.0,0.0,0.0,0.0481110346938775,0.3981141224489796,0.1391937755102041,-0.3880025510204082,-0.0403964734693877,0.9127974081632652,0.0470548281632653,-0.162430081632653,-0.1041366163265306,47.59814264,,-0.059,-0.042,-0.122,0.235,-122.8310039,127.23254553,0.0,0.0,83.6,20.8,19.9,0.99,100,True
,48,4800.0,2025-10-02 20:43:46.778000+00:00,2025-10-02 13:43:46.778,74626778,0.0,0.0,0.0,0.0,0.0,0.0,0.0,0.0,0.0,0.0,1.0,0.0,0.0,0.0,0.0,-0.001,0.0,0.0,0.0,0.0,0.0480925622222222,0.3979958222222222,0.1393455777777777,-0.3846551777777778,-0.0400615244444444,0.9128138,-0.009198452,-0.1253042755555555,-0.1245665644444444,47.59814264,,-0.0591777777777777,-0.042,-0.122,0.235,-122.8310039,127.23254553,0.0,0.0,83.6,20.8,19.9,0.99,100,True
,49,4900.0,2025-10-02 20:43:46.878000+00:00,2025-10-02 13:43:46.878,74626878,0.0,0.0,0.0,0.0,0.0,0.0,0.0,0.0,0.0,0.0,1.0,0.0,0.0,0.0,0.0,-0.001,0.0,0.0,0.0,0.0,0.0482511548148148,0.3979617481481481,0.1395063185185185,-0.3851225851851852,-0.0418387096296296,0.9129338,-0.0182619186666666,0.0291862429629629,-0.2294597496296296,47.59814264,,-0.0599185185185185,-0.042,-0.122,0.235,-122.8310039,127.23254553,0.0,0.0,83.6,20.8,19.9,0.99,100,True
,50,5000.0,2025-10-02 20:43:46.978000+00:00,2025-10-02 13:43:46.978,74626978,0.0,0.0,0.0,0.0,0.0,0.0,0.0,0.0,0.0,0.0,1.0,0.0,0.0,0.0,0.0,-0.001,0.0,0.0,0.0,0.0,0.0483657029850746,0.3981399850746268,0.1396634776119403,-0.3812035373134328,-0.0388233589552238,0.9131176940298508,-0.1500763470149253,0.1402331417910448,-0.137136195522388,47.59814264,,-0.06,-0.042,-0.122,0.235,-122.8310039,127.23254553,0.0,0.0,83.6,20.86641791044776,19.9,0.99,100,True
,51,5100.0,2025-10-02 20:43:47.078000+00:00,2025-10-02 13:43:47.078,74627078,0.0,0.0,0.0,0.0,0.0,0.0,0.0,0.0,0.0,0.0,1.0,0.0,0.0,0.0,0.0,-0.001,0.0,0.0,0.0,0.0,0.0491354294117647,0.3984746470588235,0.1400821176470588,-0.3825736470588235,-0.042423994117647,0.9133127058823528,-0.0317779529411764,-0.0383707058823529,-0.0530191235294117,47.59815673941176,,-0.0593529411764705,-0.042,-0.122,0.235,-122.83100424941176,127.61413715411764,0.0,0.0,83.6,20.9,19.9,0.99,100,True
,52,5200.0,2025-10-02 20:43:47.178000+00:00,2025-10-02 13:43:47.178,74627178,0.0,0.0,0.0,0.0,0.0,0.0,0.0,0.0,0.0,0.0,1.0,0.0,0.0,0.0,0.0,-0.001,0.0,0.0,0.0,0.0,0.0494173369565217,0.3979465652173913,0.1403267826086956,-0.3847013260869565,-0.0401757499999999,0.9128150434782608,0.0688268,-0.2149885869565217,-0.0352362130434782,47.59816443,,-0.059,-0.042,-0.122,0.235,-122.83100444,127.82227804,0.0,0.0,83.6,20.82391304347826,19.9,0.99,100,True
,53,5300.0,2025-10-02 20:43:47.278000+00:00,2025-10-02 13:43:47.278,74627278,0.0,0.0,0.0,0.0,0.0,0.0,0.0,0.0,0.0,0.0,1.0,0.0,0.0,0.0,0.0,-0.001,0.0,0.0,0.0,0.0,0.0484446965517241,0.3973516896551724,0.140292,-0.3846376896551724,-0.0433681793103448,0.9125467586206896,0.3923889103448276,-0.1679723103448276,0.061899948275862,47.59816443,,-0.059,-0.041103448275862,-0.122,0.235,-122.83100444,127.82227804,0.0,0.0,83.6,20.8,19.9,0.99,100,True
,54,5400.0,2025-10-02 20:43:47.378000+00:00,2025-10-02 13:43:47.378,74627378,0.0,0.0,0.0,0.0,0.0,0.0,0.0,0.0,0.0,0.0,1.0,0.0,0.0,0.0,0.0,-0.001,0.0,0.0,0.0,0.0,0.0478914357142857,0.3975168571428571,0.1403315,-0.3826486428571428,-0.0436096785714285,0.9130309285714286,-0.0348974642857142,0.2284452142857143,-0.0206352071428571,47.59816443,,-0.0580714285714285,-0.0419285714285714,-0.122,0.235,-122.83100444,127.82227804,0.0,0.0,83.6,20.8,19.9,0.99,100,True
,55,5500.0,2025-10-02 20:43:47.478000+00:00,2025-10-02 13:43:47.478,74627478,0.0,0.0,0.0,0.0,0.0,0.0,0.0,0.0,0.0,0.0,1.0,0.0,0.0,0.0,0.0,-0.001,0.0,0.0,0.0,0.0,0.0481887593406593,0.3976463296703297,0.1406051978021978,-0.3844819230769231,-0.0431558593406593,0.9133599890109888,-0.2437684285714285,0.3402625406593406,-0.2945825934065934,47.59816443,,-0.059,-0.0411318681318681,-0.122,0.235,-122.83100444,127.82227804,0.0,0.0,83.5,20.886813186813185,19.9,0.99,100,True
,56,5600.0,2025-10-02 20:43:47.578000+00:00,2025-10-02 13:43:47.578,74627578,0.0,0.0,0.0,0.0,0.0,0.0,0.0,0.0,0.0,0.0,1.0,0.0,0.0,0.0,0.0,-0.001,0.0,0.0,0.0,0.0,0.0484660695652173,0.3979478260869565,0.1408542173913043,-0.3819178260869565,-0.0404150152173913,0.9135455108695651,-0.2682813260869565,-0.0078418554347826,-0.2407483423913043,47.59816443,,-0.0592282608695652,-0.0417717391304347,-0.122,0.235,-122.83100444,127.82227804,0.0,0.0,83.5,20.8,19.9,0.99,100,True
,57,5700.0,2025-10-02 20:43:47.678000+00:00,2025-10-02 13:43:47.678,74627678,0.0,0.0,0.0,0.0,0.0,0.0,0.0,0.0,0.0,0.0,1.0,0.0,0.0,0.0,0.0,-0.001,0.0,0.0,0.0,0.0,0.0487224303370786,0.3980461797752809,0.1410963370786516,-0.3833062584269662,-0.0406005505617977,0.9134370561797752,-0.146487,0.1161561797752809,-0.0900068011235955,47.59816443,,-0.06,-0.0413258426966292,-0.122,0.235,-122.83100444,127.82227804,0.0,0.0,83.5,20.8,19.9,0.99,100,True
,58,5800.0,2025-10-02 20:43:47.778000+00:00,2025-10-02 13:43:47.778,74627778,0.0,0.0,0.0,0.0,0.0,0.0,0.0,0.0,0.0,0.0,1.0,0.0,0.0,0.0,0.0,-0.001,0.0,0.0,0.0,0.0,0.0489110298969072,0.3981436082474227,0.1413161030927835,-0.3811771237113402,-0.0426707938144329,0.9133184948453608,-0.0914989587628865,0.2285112783505154,-0.1249597412371134,47.59816443,,-0.0595876288659793,-0.042,-0.122,0.235,-122.83100444,127.82227804,0.0,0.0,83.5,20.8,19.9,0.99,100,True
,59,5900.0,2025-10-02 20:43:47.878000+00:00,2025-10-02 13:43:47.878,74627878,0.0,0.0,0.0,0.0,0.0,0.0,0.0,0.0,0.0,0.0,1.0,0.0,0.0,0.0,0.0,-0.001,0.0,0.0,0.0,0.0,0.0490257999999999,0.3984425,0.141528,-0.380863,-0.0393617,0.9133615,-0.0828729999999999,0.256945,-0.167302,47.59816443,,-0.0595,-0.042,-0.122,0.235,-122.83100444,127.82227804,0.0,0.0,83.55,20.8,19.9,0.99,100,True
,60,6000.0,2025-10-02 20:43:47.978000+00:00,2025-10-02 13:43:47.978,74627978,0.0,0.0,0.0,0.0,0.0,0.0,0.0,0.0,0.0,0.0,1.0,0.0,0.0,0.0,0.0,-0.001,0.0,0.0,0.0,0.0,0.0494244372093023,0.3988386511627906,0.1418467906976744,-0.3813728139534884,-0.0433302755813953,0.9133518372093024,-0.2490953953488371,0.2802215813953488,-0.1995322674418604,47.59816443,,-0.0593372093023255,-0.0413372093023255,-0.122,0.235,-122.83100444,127.82227804,0.0,0.0,83.53372093023256,20.86627906976744,19.9,0.99,100,True
,61,6100.0,2025-10-02 20:43:48.078000+00:00,2025-10-02 13:43:48.078,74628078,0.0,0.0,0.0,0.0,0.0,0.0,0.0,0.0,0.0,0.0,1.0,0.0,0.0,0.0,0.0,-0.001,0.0,0.0,0.0,0.0,0.0495784175182481,0.3989021240875912,0.1420328467153284,-0.3824391459854014,-0.0434346722627737,0.9131359416058394,-0.0781854671532847,0.0026665182481751,-0.1989643576642336,47.59816731664234,,-0.059,-0.0415182481751824,-0.122,0.235,-122.83101596065694,124.17785284934308,0.7780476437956204,0.0,83.5,20.9,19.9,0.99,100,True
,62,6200.0,2025-10-02 20:43:48.178000+00:00,2025-10-02 13:43:48.178,74628178,0.0,0.0,0.0,0.0,0.0,0.0,0.0,0.0,0.0,0.0,1.0,0.0,0.0,0.0,0.0,-0.001,0.0,0.0,0.0,0.0,0.0494284021052631,0.3988997578947368,0.1421523789473684,-0.3844033368421052,-0.0437802221052631,0.912848947368421,0.1285126,-0.1327561978947368,-0.1567090842105263,47.59817,,-0.059,-0.042,-0.122,0.235,-122.83102667,120.79007732,1.5013032,0.0,83.5357894736842,20.864210526315787,19.9,0.99,100,True
,63,6300.0,2025-10-02 20:43:48.278000+00:00,2025-10-02 13:43:48.278,74628278,0.0,0.0,0.0,0.0,0.0,0.0,0.0,0.0,0.0,0.0,1.0,0.0,0.0,0.0,0.0,-0.001,0.0,0.0,0.0,0.0,0.0490687353658536,0.3989431829268293,0.142276231707317,-0.3837324634146341,-0.0442024426829268,0.9125648780487804,0.0963660951219512,-0.0194092634146341,-0.1433489390243902,47.59817,,-0.059,-0.042,-0.122,0.235,-122.83102667,120.79007732,1.5013032,0.0,83.55243902439024,20.8,19.9,0.99,100,True
,64,6400.0,2025-10-02 20:43:48.378000+00:00,2025-10-02 13:43:48.378,74628378,0.0,0.0,0.0,0.0,0.0,0.0,0.0,0.0,0.0,0.0,1.0,0.0,0.0,0.0,0.0,-0.001,0.0,0.0,0.0,0.0,0.0490199257731958,0.3988465773195876,0.1424190206185567,-0.3843814020618556,-0.0420280422680412,0.9124101546391752,-0.0181720567010309,-0.0922491474226804,-0.0868162257731958,47.59817,,-0.0595876288659793,-0.042,-0.122,0.235,-122.83102667,120.79007732,1.5013032,0.0,83.55876288659793,20.8,19.9,0.99,100,True
,65,6500.0,2025-10-02 20:43:48.478000+00:00,2025-10-02 13:43:48.478,74628478,0.0,0.0,0.0,0.0,0.0,0.0,0.0,0.0,0.0,0.0,1.0,0.0,0.0,0.0,0.0,-0.001,0.0,0.0,0.0,0.0,0.0490456272727272,0.3985571818181818,0.1425681818181818,-0.3834102727272727,-0.0398702545454545,0.9122754545454546,0.0286230227272727,-0.18665715,0.0159143227272727,47.59817,,-0.06,-0.042,-0.122,0.235,-122.83102667,120.79007732,1.5013032,0.0,83.6,20.8,19.9,0.99,100,True
,66,6600.0,2025-10-02 20:43:48.578000+00:00,2025-10-02 13:43:48.578,74628578,0.0,0.0,0.0,0.0,0.0,0.0,0.0,0.0,0.0,0.0,1.0,0.0,0.0,0.0,0.0,-0.001,0.0,0.0,0.0,0.0,0.0489062517647058,0.3984170352941176,0.1426773058823529,-0.3782232705882353,-0.0373460082352941,0.9123556588235294,0.0697624635294117,0.0055463882352941,-0.0268278729411764,47.59817,,-0.0591529411764705,-0.042,-0.122,0.235,-122.83102667,120.79007732,1.5013032,0.0,83.6,20.8,19.9,0.99,100,True
,67,6700.0,2025-10-02 20:43:48.678000+00:00,2025-10-02 13:43:48.678,74628678,0.0,0.0,0.0,0.0,0.0,0.0,0.0,0.0,0.0,0.0,1.0,0.0,0.0,0.0,0.0,-0.001,0.0,0.0,0.0,0.0,0.0486962065217391,0.3984563369565218,0.1427722717391304,-0.3851222934782609,-0.041809554347826,0.9125462173913044,-0.0630579184782608,0.1145690489130434,-0.0270379108695652,47.59817,,-0.059945652173913,-0.042,-0.122,0.235,-122.83102667,120.79007732,1.5013032,0.0,83.6,20.8,19.9,0.99,100,True
,68,6800.0,2025-10-02 20:43:48.778000+00:00,2025-10-02 13:43:48.778,74628778,0.0,0.0,0.0,0.0,0.0,0.0,0.0,0.0,0.0,0.0,1.0,0.0,0.0,0.0,0.0,-0.001,0.0,0.0,0.0,0.0,0.0485665098901098,0.398471967032967,0.1428966923076923,-0.3858742967032967,-0.041109734065934,0.9126956923076922,-0.0016187483516483,0.1130788263736263,-0.0934191428571428,47.59817,,-0.059065934065934,-0.042065934065934,-0.122,0.235,-122.83102667,120.79007732,1.5013032,0.0,83.5,20.8,19.9,0.99,100,True
,69,6900.0,2025-10-02 20:43:48.878000+00:00,2025-10-02 13:43:48.878,74628878,0.0,0.0,0.0,0.0,0.0,0.0,0.0,0.0,0.0,0.0,1.0,0.0,0.0,0.0,0.0,-0.001,0.0,0.0,0.0,0.0,0.0484815966292134,0.3984205730337078,0.1430513595505617,-0.387372797752809,-0.0412916314606741,0.9127690674157304,0.0718513303370786,0.0368142280898876,-0.0033372247191011,47.59817,,-0.0598314606741573,-0.0428314606741573,-0.122,0.235,-122.83102667,120.79007732,1.5013032,0.0,83.51685393258427,20.8,19.9,0.99,100,True
,70,7000.0,2025-10-02 20:43:48.978000+00:00,2025-10-02 13:43:48.978,74628978,0.0,0.0,0.0,0.0,0.0,0.0,0.0,0.0,0.0,0.0,1.0,0.0,0.0,0.0,0.0,-0.001,0.0,0.0,0.0,0.0,0.048321959090909,0.3983305454545454,0.1431635909090909,-0.3777263863636363,-0.0430810909090909,0.9128877727272728,0.0602062636363636,0.0186181113636363,-0.1358911522727272,47.59817,,-0.0592954545454545,-0.042,-0.122,0.235,-122.83102667,120.79007732,1.5013032,0.0,83.57045454545454,20.8,19.9,0.99,100,True
,71,7100.0,2025-10-02 20:43:49.078000+00:00,2025-10-02 13:43:49.078,74629078,0.0,0.0,0.0,0.0,0.0,0.0,0.0,0.0,0.0,0.0,1.0,0.0,0.0,0.0,0.0,-0.001,0.0,0.0,0.0,0.0,0.0481294533333333,0.3982694666666666,0.1432818888888889,-0.3825879555555556,-0.0426066133333333,0.9129618444444444,0.0099418733333333,0.0591997911111111,-0.0328760511111111,47.59816970866667,,-0.0595777777777777,-0.0415777777777777,-0.122,0.235,-122.83101956822222,121.18466902444445,1.5885594037777775,0.0,83.5,20.8,19.9,0.99,100,True
,72,7200.0,2025-10-02 20:43:49.178000+00:00,2025-10-02 13:43:49.178,74629178,0.0,0.0,0.0,0.0,0.0,0.0,0.0,0.0,0.0,0.0,1.0,0.0,0.0,0.0,0.0,-0.001,0.0,0.0,0.0,0.0,0.04803375828877,0.3983853262032085,0.1433985828877005,-0.3827262780748663,-0.0397882203208556,0.9130427219251336,-0.0332688326203208,0.0504062919786096,-0.0109569652406417,47.59816931,,-0.059,-0.041,-0.122,0.235,-122.83100985,121.72463662,1.70796263,0.0,83.52566844919787,20.8,19.9,0.99,100,True
,73,7300.0,2025-10-02 20:43:49.278000+00:00,2025-10-02 13:43:49.278,74629278,0.0,0.0,0.0,0.0,0.0,0.0,0.0,0.0,0.0,0.0,1.0,0.0,0.0,0.0,0.0,-0.001,0.0,0.0,0.0,0.0,0.0480124213903743,0.398471422459893,0.1434852139037433,-0.3831685240641711,-0.0421578459893048,0.9131004759358288,0.0445825577540106,0.2004456502673796,0.0182558155080213,47.59816931,,-0.059,-0.041,-0.122,0.235,-122.83100985,121.72463662,1.70796263,0.0,83.57914438502674,20.8,19.9,0.99,100,True
,74,7400.0,2025-10-02 20:43:49.378000+00:00,2025-10-02 13:43:49.378,74629378,0.0,0.0,0.0,0.0,0.0,0.0,0.0,0.0,0.0,0.0,1.0,0.0,0.0,0.0,0.0,-0.001,0.0,0.0,0.0,0.0,0.0476849808988764,0.3987462584269663,0.1436745842696629,-0.3853286404494382,-0.0411112887640449,0.9131792022471912,0.0229575247752808,0.1625645505617977,-0.0129677191011236,47.59816931,,-0.059,-0.0416853932584269,-0.122,0.235,-122.83100985,121.72463662,1.70796263,0.0,83.5314606741573,20.8,19.9,0.99,100,True
,75,7500.0,2025-10-02 20:43:49.478000+00:00,2025-10-02 13:43:49.478,74629478,0.0,0.0,0.0,0.0,0.0,0.0,0.0,0.0,0.0,0.0,1.0,0.0,0.0,0.0,0.0,-0.001,0.0,0.0,0.0,0.0,0.0473815571428571,0.3988621428571429,0.143818,-0.3836087142857143,-0.0430723857142857,0.913121,0.0536212292857142,0.2376458571428571,-0.0987682,47.59816931,,-0.059,-0.042,-0.122,0.235,-122.83100985,121.72463662,1.70796263,0.0,83.5,20.8,19.9,0.99,100,True
,76,7600.0,2025-10-02 20:43:49.578000+00:00,2025-10-02 13:43:49.578,74629578,0.0,0.0,0.0,0.0,0.0,0.0,0.0,0.0,0.0,0.0,1.0,0.0,0.0,0.0,0.0,-0.001,0.0,0.0,0.0,0.0,0.0471697296703296,0.3990032197802197,0.1439653846153846,-0.3822300439560439,-0.0374163032967033,0.9130586483516484,0.062709,0.1221561538461538,-0.1084222417582417,47.59816931,,-0.0599670329670329,-0.0429670329670329,-0.122,0.235,-122.83100985,121.72463662,1.70796263,0.0,83.5,20.896703296703297,19.9,0.99,100,True
,77,7700.0,2025-10-02 20:43:49.678000+00:00,2025-10-02 13:43:49.678,74629678,0.0,0.0,0.0,0.0,0.0,0.0,0.0,0.0,0.0,0.0,1.0,0.0,0.0,0.0,0.0,-0.001,0.0,0.0,0.0,0.0,0.0471937455555555,0.3989230666666666,0.1441388888888889,-0.3856930555555555,-0.0371099222222222,0.9128408,-0.1349463611111111,-0.1506595244444444,-0.0180160455555555,47.59816931,,-0.059,-0.042,-0.122,0.235,-122.83100985,121.72463662,1.70796263,0.0,83.5,20.80777777777778,19.9,0.99,100,True
,78,7800.0,2025-10-02 20:43:49.778000+00:00,2025-10-02 13:43:49.778,74629778,0.0,0.0,0.0,0.0,0.0,0.0,0.0,0.0,0.0,0.0,1.0,0.0,0.0,0.0,0.0,-0.001,0.0,0.0,0.0,0.0,0.0474241638297872,0.3988879468085106,0.1443873510638298,-0.3838191063829787,-0.0365339585106383,0.9126647765957446,-0.0465216436170212,-0.0470821085106382,-0.0395431989361702,47.59816931,,-0.059,-0.0421808510638297,-0.122,0.235,-122.83100985,121.72463662,1.70796263,0.0,83.5,20.88191489361702,19.9,0.99,100,True
,79,7900.0,2025-10-02 20:43:49.878000+00:00,2025-10-02 13:43:49.878,74629878,0.0,0.0,0.0,0.0,0.0,0.0,0.0,0.0,0.0,0.0,1.0,0.0,0.0,0.0,0.0,-0.001,0.0,0.0,0.0,0.0,0.0474326709302325,0.3987733837209302,0.1445830232558139,-0.3815690581395349,-0.0416576790697674,0.9124173837209302,0.1186567674418604,-0.106334403488372,-0.1109928255813953,47.59816931,,-0.0592674418604651,-0.0427325581395348,-0.122,0.235,-122.83100985,121.72463662,1.70796263,0.0,83.5,20.82674418604651,19.9,0.99,100,True
,80,8000.0,2025-10-02 20:43:49.978000+00:00,2025-10-02 13:43:49.978,74629978,0.0,0.0,0.0,0.0,0.0,0.0,0.0,0.0,0.0,0.0,1.0,0.0,0.0,0.0,0.0,-0.001,0.0,0.0,0.0,0.0,0.0470370806451612,0.3987114516129032,0.1446795376344086,-0.3855150537634408,-0.0450064354838709,0.9121848924731184,0.3273910752688172,0.1308513397849462,-0.131734064516129,47.59816931,,-0.0596021505376344,-0.0416021505376344,-0.122,0.235,-122.83100985,121.72463662,1.70796263,0.0,83.5,20.86021505376344,19.9,0.99,100,True
,81,8100.0,2025-10-02 20:43:50.078000+00:00,2025-10-02 13:43:50.078,74630078,0.0,0.0,0.0,0.0,0.0,0.0,0.0,0.0,0.0,0.0,1.0,0.0,0.0,0.0,0.0,-0.001,0.0,0.0,0.0,0.0,0.0462994,0.3987475,0.1447365,-0.3839675,-0.0437156,0.9120475,0.16730735,-0.12754,-0.1150443499999999,47.59816704,,-0.0584999999999999,-0.0415,-0.122,0.235,-122.831014905,121.236021995,2.684942065,0.0,83.5,20.85,19.9,0.99,100,True
,82,8200.0,2025-10-02 20:43:50.178000+00:00,2025-10-02 13:43:50.178,74630178,0.0,0.0,0.0,0.0,0.0,0.0,0.0,0.0,0.0,0.0,1.0,0.0,0.0,0.0,0.0,-0.001,0.0,0.0,0.0,0.0,0.0459091,0.398854,0.144776,-0.384731,-0.0439915,0.912048,-0.0767553,-0.512301,-0.0896927,47.59816477,,-0.0585656565656565,-0.042,-0.122,0.235,-122.83101996,120.74740737,3.6619215,0.0,83.5,20.9,19.9,0.99,100,True
,83,8300.0,2025-10-02 20:43:50.278000+00:00,2025-10-02 13:43:50.278,74630278,0.0,0.0,0.0,0.0,0.0,0.0,0.0,0.0,0.0,0.0,1.0,0.0,0.0,0.0,0.0,-0.001,0.0,0.0,0.0,0.0,0.0459004837209302,0.3987681686046511,0.1448363139534883,-0.3845020058139535,-0.0433747732558139,0.9120165174418604,-0.0556738168604651,-0.3965757558139535,-0.1160148691860465,47.59816477,,-0.0593313953488372,-0.042,-0.122,0.235,-122.83101996,120.74740737,3.6619215,0.0,83.5,20.86686046511628,19.9,0.99,100,True
,84,8400.0,2025-10-02 20:43:50.378000+00:00,2025-10-02 13:43:50.378,74630378,0.0,0.0,0.0,0.0,0.0,0.0,0.0,0.0,0.0,0.0,1.0,0.0,0.0,0.0,0.0,-0.001,0.0,0.0,0.0,0.0,0.0458853674418604,0.3986175872093023,0.1449421279069767,-0.3841002616279069,-0.0422927965116279,0.911961284883721,-0.0186887587209302,-0.1935490116279069,-0.162194113372093,47.59816477,,-0.0599127906976744,-0.042,-0.122,0.235,-122.83101996,120.74740737,3.6619215,0.0,83.5,20.80872093023256,19.9,0.99,100,True
,85,8500.0,2025-10-02 20:43:50.478000+00:00,2025-10-02 13:43:50.478,74630478,0.0,0.0,0.0,0.0,0.0,0.0,0.0,0.0,0.0,0.0,1.0,0.0,0.0,0.0,0.0,-0.001,0.0,0.0,0.0,0.0,0.0460132505376344,0.3982102150537634,0.145098752688172,-0.3809141935483871,-0.0276505215053763,0.911850634408602,-0.1517915376344086,-0.0363349569892473,-0.2867089032258064,47.59816477,,-0.06,-0.042,-0.122,0.235,-122.83101996,120.74740737,3.6619215,0.0,83.5,20.891397849462365,19.9,0.99,100,True
,86,8600.0,2025-10-02 20:43:50.578000+00:00,2025-10-02 13:43:50.578,74630578,0.0,0.0,0.0,0.0,0.0,0.0,0.0,0.0,0.0,0.0,1.0,0.0,0.0,0.0,0.0,-0.001,0.0,0.0,0.0,0.0,0.0467590622222222,0.3983563555555555,0.1455797333333333,-0.3803719333333333,-0.0350205466666666,0.9124569111111112,0.0086641336666666,0.1852264,-0.0309305822222222,47.59816477,,-0.0590444444444444,-0.041,-0.122,0.235,-122.83101996,120.74740737,3.6619215,0.0,83.5,20.9,19.9,0.99,100,True
,87,8700.0,2025-10-02 20:43:50.678000+00:00,2025-10-02 13:43:50.678,74630678,0.0,0.0,0.0,0.0,0.0,0.0,0.0,0.0,0.0,0.0,1.0,0.0,0.0,0.0,0.0,-0.001,0.0,0.0,0.0,0.0,0.0466603247191011,0.3984866516853932,0.1457557528089887,-0.3849142696629213,-0.0405119820224719,0.912695168539326,0.1805393198876404,0.0637070674157303,0.0113284584269662,47.59816477,,-0.0598426966292134,-0.0411573033707865,-0.122,0.235,-122.83101996,120.74740737,3.6619215,0.0,83.5,20.9,19.9,0.99,100,True
,88,8800.0,2025-10-02 20:43:50.778000+00:00,2025-10-02 13:43:50.778,74630778,0.0,0.0,0.0,0.0,0.0,0.0,0.0,0.0,0.0,0.0,1.0,0.0,0.0,0.0,0.0,-0.001,0.0,0.0,0.0,0.0,0.0464046652173913,0.3986455,0.1458539239130434,-0.3839601630434782,-0.0344880619565217,0.9128403260869564,-0.0198543365760869,-0.1175226956521739,-0.0284530065217391,47.59816477,,-0.0592717391304347,-0.042,-0.122,0.235,-122.83101996,120.74740737,3.6619215,0.0,83.5,20.9,19.9,0.99,100,True
,89,8900.0,2025-10-02 20:43:50.878000+00:00,2025-10-02 13:43:50.878,74630878,0.0,0.0,0.0,0.0,0.0,0.0,0.0,0.0,0.0,0.0,1.0,0.0,0.0,0.0,0.0,-0.001,0.0,0.0,0.0,0.0,0.0466920375,0.398543875,0.1460827499999999,-0.384817625,-0.0368182249999999,0.91286875,-0.4243459375,0.160827,-0.1539258124999999,47.59816477,,-0.06,-0.042375,-0.122,0.235,-122.83101996,120.74740737,3.6619215,0.0,83.5,20.9,19.9,0.99,100,True
,90,9000.0,2025-10-02 20:43:50.978000+00:00,2025-10-02 13:43:50.978,74630978,0.0,0.0,0.0,0.0,0.0,0.0,0.0,0.0,0.0,0.0,1.0,0.0,0.0,0.0,0.0,-0.001,0.0,0.0,0.0,0.0,0.0474110204545454,0.3985454090909091,0.1463960454545454,-0.3802356363636363,-0.0332908272727272,0.9128645454545454,-0.7419372727272727,-0.1227302727272727,-0.2668980568181818,47.59816477,,-0.0596590909090909,-0.0426590909090909,-0.122,0.235,-122.83101996,120.74740737,3.6619215,0.0,83.5,20.9,19.9,0.99,100,True
,91,9100.0,2025-10-02 20:43:51.078000+00:00,2025-10-02 13:43:51.078,74631078,0.0,0.0,0.0,0.0,0.0,0.0,0.0,0.0,0.0,0.0,1.0,0.0,0.0,0.0,0.0,-0.001,0.0,0.0,0.0,0.0,0.0481098248175182,0.3985300802919708,0.1466765620437956,-0.3781832116788321,-0.0328643532846715,0.9128513430656936,-0.1350753284671532,-0.5023362481751825,-0.0646732576642335,47.59816477,,-0.059,-0.042,-0.122,0.235,-122.83101996,120.74740737,3.6619215,0.0,83.5,20.9,19.9,0.99,100,True
,92,9200.0,2025-10-02 20:43:51.178000+00:00,2025-10-02 13:43:51.178,74631178,0.0,0.0,0.0,0.0,0.0,0.0,0.0,0.0,0.0,0.0,1.0,0.0,0.0,0.0,0.0,-0.001,0.0,0.0,0.0,0.0,0.048117708029197,0.3983614671532846,0.1467962700729927,-0.3800386861313868,-0.0339824554744525,0.912830905109489,0.4891144525547446,0.1117849197080291,0.0281578372262773,47.59816477,,-0.059,-0.042,-0.122,0.235,-122.83101996,120.74740737,3.6619215,0.0,83.5,20.9,19.9,0.99,100,True
,93,9300.0,2025-10-02 20:43:51.278000+00:00,2025-10-02 13:43:51.278,74631278,0.0,0.0,0.0,0.0,0.0,0.0,0.0,0.0,0.0,0.0,1.0,0.0,0.0,0.0,0.0,-0.001,0.0,0.0,0.0,0.0,0.0459937247311827,0.3981567419354838,0.1465160967741935,-0.3795147956989247,-0.0306422709677419,0.9127148602150538,0.5249486021505376,-0.0267302365591397,0.0633630204301075,47.59816477,,-0.059,-0.0411827956989247,-0.122,0.235,-122.83101996,120.74740737,3.6619215,0.0,83.5,20.9,19.9,0.99,100,True
,94,9400.0,2025-10-02 20:43:51.378000+00:00,2025-10-02 13:43:51.378,74631378,0.0,0.0,0.0,0.0,0.0,0.0,0.0,0.0,0.0,0.0,1.0,0.0,0.0,0.0,0.0,-0.001,0.0,0.0,0.0,0.0,0.0452242926315789,0.3988110842105263,0.1465203894736842,-0.3808776210526315,-0.0314251178947368,0.9132351789473684,-0.3139353894736841,1.1306253684210523,-0.1204645094736842,47.59816477,,-0.059,-0.0418736842105263,-0.122,0.235,-122.83101996,120.74740737,3.6619215,0.0,83.5,20.9,19.9,0.99,100,True
,95,9500.0,2025-10-02 20:43:51.478000+00:00,2025-10-02 13:43:51.478,74631478,0.0,0.0,0.0,0.0,0.0,0.0,0.0,0.0,0.0,0.0,1.0,0.0,0.0,0.0,0.0,-0.001,0.0,0.0,0.0,0.0,0.0468067688888888,0.4001107333333333,0.1472467333333333,-0.3831583555555555,-0.0857241555555555,0.9134156888888888,0.0397620266666667,-1.2946764444444447,-0.2308918222222222,47.59816477,,-0.059,-0.0429777777777777,-0.122,0.235,-122.83101996,120.74740737,3.6619215,0.0,83.5,20.9,19.9,0.99,100,True
,96,9600.0,2025-10-02 20:43:51.578000+00:00,2025-10-02 13:43:51.578,74631578,0.0,0.0,0.0,0.0,0.0,0.0,0.0,0.0,0.0,0.0,1.0,0.0,0.0,0.0,0.0,-0.001,0.0,0.0,0.0,0.0,0.0466822333333333,0.399523037037037,0.1472124814814814,-0.3824492962962963,-0.0779220666666666,0.913000074074074,-0.1108308925925925,-1.229972962962963,-0.2927782222222222,47.59814126,,-0.059,-0.042,-0.122,0.235,-122.83106342,120.30704662,2.80281472,0.0,83.5,20.9,19.9,0.99,100,True
,97,9700.0,2025-10-02 20:43:51.678000+00:00,2025-10-02 13:43:51.678,74631678,0.0,0.0,0.0,0.0,0.0,0.0,0.0,0.0,0.0,0.0,1.0,0.0,0.0,0.0,0.0,-0.001,0.0,0.0,0.0,0.0,0.0458923382716049,0.3960193950617284,0.1469905432098765,-0.378168,-0.0273906444444444,0.9107644074074074,-0.9502467407407408,-0.4343911851851851,-0.5838405283950617,47.59814126,,-0.059,-0.042,-0.122,0.235,-122.83106342,120.30704662,2.80281472,0.0,83.5,20.9,19.9,0.99,100,True
,98,9800.0,2025-10-02 20:43:51.778000+00:00,2025-10-02 13:43:51.778,74631778,0.0,0.0,0.0,0.0,0.0,0.0,0.0,0.0,0.0,0.0,1.0,0.0,0.0,0.0,0.0,-0.001,0.0,0.0,0.0,0.0,0.0473214362499999,0.3966008625,0.147720625,-0.37920695,-0.0401091025,0.91265245,-0.1679570625,0.4933464625,-0.06826657,47.59814126,,-0.059,-0.0416625,-0.122,0.235,-122.83106342,120.30704662,2.80281472,0.0,83.5,20.9,19.9,0.99,100,True
,99,9900.0,2025-10-02 20:43:51.878000+00:00,2025-10-02 13:43:51.878,74631878,0.0,0.0,0.0,0.0,0.0,0.0,0.0,0.0,0.0,0.0,1.0,0.0,0.0,0.0,0.0,-0.001,0.0,0.0,0.0,0.0,0.0476945247311828,0.3974151935483871,0.1480346559139785,-0.3798498387096774,-0.0345783150537634,0.9136020752688172,-0.1488953150537634,0.3928296215053763,-0.1288971655913978,47.59814126,,-0.059,-0.041505376344086,-0.122,0.235,-122.83106342,120.30704662,2.80281472,0.0,83.5,20.9,19.9,0.99,100,True
,100,10000.0,2025-10-02 20:43:51.978000+00:00,2025-10-02 13:43:51.978,74631978,0.0,0.0,0.0,0.0,0.0,0.0,0.0,0.0,0.0,0.0,1.0,0.0,0.0,0.0,0.0,-0.001,0.0,0.0,0.0,0.0,0.0479259704545454,0.3985012272727273,0.1482661818181818,-0.3816925909090909,-0.0219718181818181,0.9145778181818182,-0.5093846431818182,1.9962658818181824,-0.1317113522727273,47.59814126,,-0.0583863636363636,-0.0407727272727272,-0.122,0.235,-122.83106342,120.30704662,2.80281472,0.0,83.5,20.9,19.9,0.99,100,True
,101,10100.0,2025-10-02 20:43:52.078000+00:00,2025-10-02 13:43:52.078,74632078,0.0,0.0,0.0,0.0,0.0,0.0,0.0,0.0,0.0,0.0,1.0,0.0,0.0,0.0,0.0,-0.001,0.0,0.0,0.0,0.0,0.047940954368932,0.4012467281553398,0.1485961844660194,-0.3876910776699029,-0.0301179233009708,0.9160893883495146,-0.2378840291262136,0.755934194174757,-0.0885359174757281,47.59814126,,-0.0586407766990291,-0.0412815533980582,-0.122,0.235,-122.83106342,120.30704662,2.80281472,0.0,83.5,20.9,19.9,0.99,100,True
,102,10200.0,2025-10-02 20:43:52.178000+00:00,2025-10-02 13:43:52.178,74632178,0.0,0.0,0.0,0.0,0.0,0.0,0.0,0.0,0.0,0.0,1.0,0.0,0.0,0.0,0.0,-0.001,0.0,0.0,0.0,0.0,0.0478847,0.40249,0.148737,-0.390317,-0.0372401,0.916676,0.062709,-0.652418,-0.100495,47.59814126,,-0.0597875,-0.0427875,-0.122,0.235,-122.83106342,120.30704662,2.80281472,0.0,83.5,20.9,19.9,0.99,100,True
,103,10300.0,2025-10-02 20:43:52.278000+00:00,2025-10-02 13:43:52.278,74632278,0.0,0.0,0.0,0.0,0.0,0.0,0.0,0.0,0.0,0.0,1.0,0.0,0.0,0.0,0.0,-0.001,0.0,0.0,0.0,0.0,0.0481080136842105,0.3985426947368421,0.1487771894736842,-0.3844912736842105,-0.1053961178947368,0.9125670631578948,-1.4080239157894738,0.991915094736842,-0.7864340842105263,47.59814126,,-0.0591263157894736,-0.0421263157894736,-0.122,0.235,-122.83106342,120.30704662,2.80281472,0.0,83.5,20.9,19.9,0.99,100,True
,104,10400.0,2025-10-02 20:43:52.378000+00:00,2025-10-02 13:43:52.378,74632378,0.0,0.0,0.0,0.0,0.0,0.0,0.0,0.0,0.0,0.0,1.0,0.0,0.0,0.0,0.0,-0.001,0.0,0.0,0.0,0.0,0.0490320266666666,0.3982815777777778,0.1491824444444444,-0.3837302444444444,-0.06530868,0.9126222,-0.8451456444444444,0.7806631288888889,-0.3712555555555555,47.59814126,,-0.059,-0.042,-0.122,0.235,-122.83106342,120.30704662,2.80281472,0.0,83.5,20.9,19.9,0.99,100,True
,105,10500.0,2025-10-02 20:43:52.478000+00:00,2025-10-02 13:43:52.478,74632478,0.0,0.0,0.0,0.0,0.0,0.0,0.0,0.0,0.0,0.0,1.0,0.0,0.0,0.0,0.0,-0.001,0.0,0.0,0.0,0.0,0.0496328584269663,0.3985575056179775,0.1495184831460674,-0.3854349438202247,-0.0503129662921348,0.9128548202247192,-0.2062131460674157,0.0917158539325842,-0.0955706629213483,47.59814127730337,,-0.059,-0.042,-0.122,0.235,-122.83106420179776,120.12674490966292,2.696406891011236,0.0,83.5,20.9,19.9,0.99,100,True
,106,10600.0,2025-10-02 20:43:52.578000+00:00,2025-10-02 13:43:52.578,74632578,0.0,0.0,0.0,0.0,0.0,0.0,0.0,0.0,0.0,0.0,1.0,0.0,0.0,0.0,0.0,-0.001,0.0,0.0,0.0,0.0,0.0496429273381295,0.3986576834532374,0.1496742446043165,-0.3828623021582734,-0.0397708021582733,0.9128386978417268,-0.1127791366906474,0.3398162302158273,-0.1402483920863309,47.59814137,,-0.059,-0.041820143884892,-0.122,0.235,-122.83106839,119.16084289,2.12636495,0.0,83.5,20.9,19.9,0.99,100,True
,107,10700.0,2025-10-02 20:43:52.678000+00:00,2025-10-02 13:43:52.678,74632678,0.0,0.0,0.0,0.0,0.0,0.0,0.0,0.0,0.0,0.0,1.0,0.0,0.0,0.0,0.0,-0.001,0.0,0.0,0.0,0.0,0.0495362366906474,0.398940417266187,0.1497512230215827,-0.3854515107913669,-0.0443900107913669,0.9129494892086332,0.0465243165467625,0.3910651510791367,-0.0536379604316546,47.59814137,,-0.059,-0.0411007194244604,-0.122,0.235,-122.83106839,119.16084289,2.12636495,0.0,83.5,20.9,19.9,0.99,100,True
,108,10800.0,2025-10-02 20:43:52.778000+00:00,2025-10-02 13:43:52.778,74632778,0.0,0.0,0.0,0.0,0.0,0.0,0.0,0.0,0.0,0.0,1.0,0.0,0.0,0.0,0.0,-0.001,0.0,0.0,0.0,0.0,0.0492539355555555,0.3992771777777777,0.1498499111111111,-0.3790008888888889,-0.0402889266666666,0.9130013111111112,0.1354597911111111,0.3981807555555555,-0.0473581111111111,47.59814137,,-0.059,-0.0419555555555555,-0.122,0.235,-122.83106839,119.16084289,2.12636495,0.0,83.5,20.9,19.9,0.99,100,True
,109,10900.0,2025-10-02 20:43:52.878000+00:00,2025-10-02 13:43:52.878,74632878,0.0,0.0,0.0,0.0,0.0,0.0,0.0,0.0,0.0,0.0,1.0,0.0,0.0,0.0,0.0,-0.001,0.0,0.0,0.0,0.0,0.0488457361702127,0.3992213510638298,0.1499183085106383,-0.3867342659574468,-0.0418707361702127,0.9128688723404256,-0.0761966223404255,-0.2829256829787234,-0.1623615212765957,47.59814137,,-0.059095744680851,-0.042,-0.122,0.235,-122.83106839,119.16084289,2.12636495,0.0,83.5,20.9,19.9,0.99,100,True
,110,11000.0,2025-10-02 20:43:52.978000+00:00,2025-10-02 13:43:52.978,74632978,0.0,0.0,0.0,0.0,0.0,0.0,0.0,0.0,0.0,0.0,1.0,0.0,0.0,0.0,0.0,-0.001,0.0,0.0,0.0,0.0,0.0488014483516483,0.398452010989011,0.1500763076923077,-0.3808142747252747,-0.0393665142857142,0.9125451208791208,0.0453390549450549,-0.0814949153846153,-0.1635033736263736,47.59814137,,-0.0598351648351648,-0.042,-0.122,0.235,-122.83106839,119.16084289,2.12636495,0.0,83.5,20.9,19.9,0.99,100,True
,111,11100.0,2025-10-02 20:43:53.078000+00:00,2025-10-02 13:43:53.078,74633078,0.0,0.0,0.0,0.0,0.0,0.0,0.0,0.0,0.0,0.0,1.0,0.0,0.0,0.0,0.0,-0.001,0.0,0.0,0.0,0.0,0.048569975,0.39784025,0.150248,-0.3798785,-0.040379925,0.9125495,0.27496465,-0.02228245,-0.09043115,47.59814137,,-0.059,-0.04175,-0.122,0.235,-122.83106839,119.16084289,2.12636495,0.0,83.5,20.9,19.9,0.99,100,True
,112,11200.0,2025-10-02 20:43:53.178000+00:00,2025-10-02 13:43:53.178,74633178,0.0,0.0,0.0,0.0,0.0,0.0,0.0,0.0,0.0,0.0,1.0,0.0,0.0,0.0,0.0,-0.001,0.0,0.0,0.0,0.0,0.0481200160493827,0.3978626666666666,0.1502937777777777,-0.3823018148148148,-0.0401912654320987,0.9128583209876544,0.1168099234567901,0.1233702061728394,-0.0455117135802469,47.59814137,,-0.059,-0.0413456790123456,-0.122,0.235,-122.83106839,119.16084289,2.12636495,0.0,83.5,20.9,19.9,0.99,100,True
,113,11300.0,2025-10-02 20:43:53.278000+00:00,2025-10-02 13:43:53.278,74633278,0.0,0.0,0.0,0.0,0.0,0.0,0.0,0.0,0.0,0.0,1.0,0.0,0.0,0.0,0.0,-0.001,0.0,0.0,0.0,0.0,0.0477477711111111,0.3982066333333333,0.1503804333333333,-0.3844013111111111,-0.0440203288888888,0.9133849111111112,0.1660293111111111,0.2512512,-0.1156855422222222,47.59814137,,-0.059,-0.042,-0.122,0.235,-122.83106839,119.16084289,2.12636495,0.0,83.5,20.9,19.9,0.99,100,True
,114,11400.0,2025-10-02 20:43:53.378000+00:00,2025-10-02 13:43:53.378,74633378,0.0,0.0,0.0,0.0,0.0,0.0,0.0,0.0,0.0,0.0,1.0,0.0,0.0,0.0,0.0,-0.001,0.0,0.0,0.0,0.0,0.0476117,0.398489,0.150422,-0.382258,-0.0439887,0.913641,0.138559,0.118192,-0.0447644,47.59814137,,-0.059,-0.042,-0.122,0.235,-122.83106839,119.16084289,2.12636495,0.0,83.5,20.9,19.9,0.99,100,True
,115,11500.0,2025-10-02 20:43:53.478000+00:00,2025-10-02 13:43:53.478,74633478,0.0,0.0,0.0,0.0,0.0,0.0,0.0,0.0,0.0,0.0,1.0,0.0,0.0,0.0,0.0,-0.001,0.0,0.0,0.0,0.0,0.0472813724137931,0.397776,0.1504775172413793,-0.3865463103448275,-0.0280774586206896,0.9129010344827586,-0.2582790344827586,-1.8811044137931037,-0.1009507034482758,47.59814137,,-0.0597931034482758,-0.042,-0.122,0.235,-122.83106839,119.16084289,2.12636495,0.0,83.5,20.9,19.9,0.99,100,True
,116,11600.0,2025-10-02 20:43:53.578000+00:00,2025-10-02 13:43:53.578,74633578,0.0,0.0,0.0,0.0,0.0,0.0,0.0,0.0,0.0,0.0,1.0,0.0,0.0,0.0,0.0,-0.001,0.0,0.0,0.0,0.0,0.0476568921568627,0.3975160392156863,0.1507669411764705,-0.3817819019607843,-0.0311074882352941,0.913152568627451,0.2794404117647059,1.1447564705882352,0.0742911372549019,47.59814345215686,,-0.0591960784313725,-0.0411960784313725,-0.122,0.235,-122.83104631431372,115.39838095313723,1.3445399374509803,0.0,83.5,20.9,19.9,0.99,100,True
,117,11700.0,2025-10-02 20:43:53.678000+00:00,2025-10-02 13:43:53.678,74633678,0.0,0.0,0.0,0.0,0.0,0.0,0.0,0.0,0.0,0.0,1.0,0.0,0.0,0.0,0.0,-0.001,0.0,0.0,0.0,0.0,0.0479509285714285,0.4009589523809523,0.1511511428571428,-0.3872593809523809,-0.0448483285714285,0.9157152857142856,-0.2457542380952381,1.8085514285714288,-0.0183072380952381,47.59814396,,-0.058047619047619,-0.041,-0.122,0.235,-122.83104093,114.48070731,1.15385091,0.0,83.5,20.9,19.9,0.99,100,True
,118,11800.0,2025-10-02 20:43:53.778000+00:00,2025-10-02 13:43:53.778,74633778,0.0,0.0,0.0,0.0,0.0,0.0,0.0,0.0,0.0,0.0,1.0,0.0,0.0,0.0,0.0,-0.001,0.0,0.0,0.0,0.0,0.0478515510638297,0.4037675744680851,0.1514334893617021,-0.3863507021276595,-0.0507979234042553,0.9161911063829788,0.1143753404255319,1.0697346808510635,-0.2108685744680851,47.59814396,,-0.0598723404255319,-0.042127659574468,-0.122,0.235,-122.83104093,114.48070731,1.15385091,0.0,83.5,20.9,19.9,0.99,100,True
,119,11900.0,2025-10-02 20:43:53.878000+00:00,2025-10-02 13:43:53.878,74633878,0.0,0.0,0.0,0.0,0.0,0.0,0.0,0.0,0.0,0.0,1.0,0.0,0.0,0.0,0.0,-0.001,0.0,0.0,0.0,0.0,0.047931775,0.4027734375,0.151537875,-0.3890285,-0.0456025937499999,0.913471375,-0.265767375,-1.5632881875,-0.1809371875,47.59814396,,-0.0588125,-0.0426249999999999,-0.122,0.235,-122.83104093,114.48070731,1.15385091,0.0,83.5,20.9,19.9,0.99,100,True
,120,12000.0,2025-10-02 20:43:53.978000+00:00,2025-10-02 13:43:53.978,74633978,0.0,0.0,0.0,0.0,0.0,0.0,0.0,0.0,0.0,0.0,1.0,0.0,0.0,0.0,0.0,-0.001,0.0,0.0,0.0,0.0,0.0479868527131783,0.4020105503875969,0.1516534108527132,-0.3837838062015504,-0.0345642511627907,0.911993465116279,0.5185086589147287,0.1168757131782945,0.1447155426356589,47.59814396,,-0.0581705426356589,-0.0411705426356589,-0.122,0.235,-122.83104093,114.48070731,1.15385091,0.0,83.5,20.9,19.9,0.99,100,True
,121,12100.0,2025-10-02 20:43:54.078000+00:00,2025-10-02 13:43:54.078,74634078,0.0,0.0,0.0,0.0,0.0,0.0,0.0,0.0,0.0,0.0,1.0,0.0,0.0,0.0,0.0,-0.001,0.0,0.0,0.0,0.0,0.0473907286821705,0.4024539612403101,0.1516689147286821,-0.3908783798449612,-0.0368844837209302,0.911886488372093,0.5773071085271319,-0.5337483178294573,0.2006907364341085,47.59814396,,-0.0589457364341085,-0.0419457364341085,-0.122,0.235,-122.83104093,114.48070731,1.15385091,0.0,83.5,20.9,19.9,0.99,100,True
,122,12200.0,2025-10-02 20:43:54.178000+00:00,2025-10-02 13:43:54.178,74634178,0.0,0.0,0.0,0.0,0.0,0.0,0.0,0.0,0.0,0.0,1.0,0.0,0.0,0.0,0.0,-0.001,0.0,0.0,0.0,0.0,0.046505565625,0.4024525833333333,0.1517540729166666,-0.3892660416666667,-0.0450661166666666,0.91152796875,0.5007160416666666,0.7265224583333334,-0.0278649072916666,47.59814396,,-0.0580729166666666,-0.042,-0.122,0.235,-122.83104093,114.48070731,1.15385091,0.0,83.5,20.9,19.9,0.99,100,True
,123,12300.0,2025-10-02 20:43:54.278000+00:00,2025-10-02 13:43:54.278,74634278,0.0,0.0,0.0,0.0,0.0,0.0,0.0,0.0,0.0,0.0,1.0,0.0,0.0,0.0,0.0,-0.001,0.0,0.0,0.0,0.0,0.0463261,0.4017755,0.151779625,-0.384023625,-0.0418532874999999,0.910810625,-0.255674424375,-0.5389275,-0.1264265875,47.59814396,,-0.059,-0.042,-0.122,0.235,-122.83104093,114.48070731,1.15385091,0.0,83.5,20.9,19.9,0.99,100,True
,124,12400.0,2025-10-02 20:43:54.378000+00:00,2025-10-02 13:43:54.378,74634378,0.0,0.0,0.0,0.0,0.0,0.0,0.0,0.0,0.0,0.0,1.0,0.0,0.0,0.0,0.0,-0.001,0.0,0.0,0.0,0.0,0.0465183056818181,0.4010548863636364,0.1519637613636363,-0.3868719431818181,-0.0474399170454545,0.9105342272727271,-0.0373563713068181,-0.8090990227272727,-0.0198392420454545,47.59814396,,-0.059,-0.0422613636363636,-0.122,0.235,-122.83104093,114.48070731,1.15385091,0.0,83.5,20.9,19.9,0.99,100,True
,125,12500.0,2025-10-02 20:43:54.478000+00:00,2025-10-02 13:43:54.478,74634478,0.0,0.0,0.0,0.0,0.0,0.0,0.0,0.0,0.0,0.0,1.0,0.0,0.0,0.0,0.0,-0.001,0.0,0.0,0.0,0.0,0.046857108988764,0.4000914606741573,0.1521102584269663,-0.3857309325842696,-0.0356328101123595,0.910482595505618,-0.3169359550561798,-0.0031434494382022,-0.1417347685393258,47.59814946955056,,-0.059,-0.0426067415730337,-0.122,0.235,-122.83103185752807,113.77388859033708,1.1111638993258428,0.0,83.5,20.9,19.9,0.99,100,True
,126,12600.0,2025-10-02 20:43:54.578000+00:00,2025-10-02 13:43:54.578,74634578,0.0,0.0,0.0,0.0,0.0,0.0,0.0,0.0,0.0,0.0,1.0,0.0,0.0,0.0,0.0,-0.001,0.0,0.0,0.0,0.0,0.047283903960396,0.4002366336633663,0.1523464851485148,-0.3863359702970296,-0.0433310980198019,0.911279,-0.3269192673267326,-0.0038979306930693,-0.2580214455445545,47.59815797,,-0.0594554455445544,-0.0424554455445544,-0.122,0.235,-122.83101786,112.68336828,1.04530394,0.0,83.5,20.9,19.9,0.99,100,True
,127,12700.0,2025-10-02 20:43:54.678000+00:00,2025-10-02 13:43:54.678,74634678,0.0,0.0,0.0,0.0,0.0,0.0,0.0,0.0,0.0,0.0,1.0,0.0,0.0,0.0,0.0,-0.001,0.0,0.0,0.0,0.0,0.047401175,0.4001580113636364,0.1524583522727272,-0.3872037386363636,-0.0492044397727272,0.9117756477272728,-0.3046658295454546,-0.0736873636363636,-0.2163274204545454,47.59815797,,-0.06,-0.043,-0.122,0.235,-122.83101786,112.68336828,1.04530394,0.0,83.5,20.9,19.9,0.99,100,True
,128,12800.0,2025-10-02 20:43:54.778000+00:00,2025-10-02 13:43:54.778,74634778,0.0,0.0,0.0,0.0,0.0,0.0,0.0,0.0,0.0,0.0,1.0,0.0,0.0,0.0,0.0,-0.001,0.0,0.0,0.0,0.0,0.0485482842696629,0.3984548314606742,0.152843404494382,-0.3933951123595505,-0.1668294719101123,0.9110514382022472,0.1313250449438202,-3.638528808988764,-0.2867700224719101,47.59815797,,-0.06,-0.0423595505617977,-0.122,0.235,-122.83101786,112.68336828,1.04530394,0.0,83.5,20.9,19.9,0.99,100,True
,129,12900.0,2025-10-02 20:43:54.878000+00:00,2025-10-02 13:43:54.878,74634878,0.0,0.0,0.0,0.0,0.0,0.0,0.0,0.0,0.0,0.0,1.0,0.0,0.0,0.0,0.0,-0.001,0.0,0.0,0.0,0.0,0.04884706,0.3974016,0.1530294,-0.3894858,-0.05908604,0.9118052,0.6567858,-1.2910215999999997,0.4301528,47.59815797,,-0.0591999999999999,-0.042,-0.122,0.235,-122.83101786,112.68336828,1.04530394,0.0,83.5,20.9,19.9,0.99,100,True
,130,13000.0,2025-10-02 20:43:54.978000+00:00,2025-10-02 13:43:54.978,74634978,0.0,0.0,0.0,0.0,0.0,0.0,0.0,0.0,0.0,0.0,1.0,0.0,0.0,0.0,0.0,-0.001,0.0,0.0,0.0,0.0,0.0487391727272727,0.398065375,0.1531043409090909,-0.3818783295454546,-0.0522576624999999,0.913611875,-0.0933113636363637,2.0095089204545453,-0.0038503409090909,47.59815797,,-0.059,-0.042,-0.122,0.235,-122.83101786,112.68336828,1.04530394,0.0,83.5,20.9,19.9,0.99,100,True
,131,13100.0,2025-10-02 20:43:55.078000+00:00,2025-10-02 13:43:55.078,74635078,0.0,0.0,0.0,0.0,0.0,0.0,0.0,0.0,0.0,0.0,1.0,0.0,0.0,0.0,0.0,-0.001,0.0,0.0,0.0,0.0,0.049198852688172,0.400612752688172,0.1535762258064516,-0.3844744731182795,-0.0298275333333333,0.9154570322580644,-0.3219162365591398,-0.7439807956989247,-0.0741235698924731,47.59815797,,-0.0599247311827957,-0.0428494623655913,-0.122,0.235,-122.83101786,112.68336828,1.04530394,0.0,83.5,20.9,19.9,0.99,100,True
,132,13200.0,2025-10-02 20:43:55.178000+00:00,2025-10-02 13:43:55.178,74635178,0.0,0.0,0.0,0.0,0.0,0.0,0.0,0.0,0.0,0.0,1.0,0.0,0.0,0.0,0.0,-0.001,0.0,0.0,0.0,0.0,0.0505205956521739,0.3988203043478261,0.1542679130434782,-0.3682174347826087,-0.14517985,0.9136173260869566,3.781959782608696,-2.8468360869565217,0.9445697826086956,47.59815797,,-0.059,-0.0411521739130434,-0.122,0.235,-122.83101786,112.68336828,1.04530394,0.0,83.5,20.9,19.9,0.99,100,True
