ride_id,sample_idx,_elapsed_ms,ts_utc,ts_pst,video_ts_anchor,ms_today,cf_accel,cf_brake,cf_cruise,cf_turn_left,cf_turn_right,cf_carve_left,cf_carve_right,cf_ascent,cf_descent,cf_traction_loss,cf_idle,cf_forward,cf_reverse,speed_meters_per_sec,erpm,duty_cycle,current_in,current_motor,d_axis_current,q_axis_current,roll,pitch,yaw,accX,accY,accZ,gyroX,gyroY,gyroZ,gnss_lat,fault_code,d_axis_voltage,q_axis_voltage,tacho_meters,tacho_abs_meters,gnss_lon,gnss_alt,gnss_gVel,gnss_vVel,input_voltage,temp_mos_max,temp_motor,battery_level,dt_ms,_on_grid
ride_49,0,0.0,2025-10-02 20:48:32.517000+00:00,2025-10-02 13:48:32.517,00:00:05.0,74912517,0.0,0.0,0.0,0.0,0.0,0.0,0.0,0.0,0.0,0.0,1.0,0.0,0.0,0.0,0.0,-0.001,0.15,0.43,-0.01,0.19,0.0282867,0.345649,-2.20291,-0.338147,-0.0213107,0.931023,0.733123,-0.158012,0.327532,47.59798571,0.0,-0.01,0.435,952.703,954.833,-122.82527321,100.7108808,0.0,0.0,81.7,24.2,27.1,0.903,100,True
,1,100.0,2025-10-02 20:48:32.617000+00:00,2025-10-02 13:48:32.617,00:00:05.1,74912617,0.0,0.0,0.0,0.0,0.0,0.0,0.0,0.0,0.0,0.0,1.0,0.0,0.0,0.0,0.0,-0.001,0.0,0.0,0.0,0.0,0.0271114439560439,0.3133795274725275,1.1810253846153846,-0.3040097252747253,-0.0202061351648351,0.9431772747252748,0.2080242527472527,-0.2074565549450549,0.0814355945054945,47.59798571,,0.067,-0.029,952.703,954.833,-122.82527321,100.72629929,0.0,0.0,81.7,24.3,27.1,0.903,100,True
,2,200.0,2025-10-02 20:48:32.717000+00:00,2025-10-02 13:48:32.717,00:00:05.2,74912717,0.0,0.0,0.0,0.0,0.0,0.0,0.0,0.0,0.0,0.0,1.0,0.0,0.0,0.0,0.0,-0.001,0.0,0.0,0.0,0.0,0.0267612347826086,0.3131998695652174,1.1808291304347829,-0.3048616956521739,-0.0187921173913043,0.943525391304348,0.1098908782608695,-0.0543444217391304,0.0481213086956521,47.59798571,,0.067,-0.029,952.703,954.833,-122.82527321,100.72629929,0.0,0.0,81.7,24.27391304347826,27.1,0.903,100,True
,3,300.0,2025-10-02 20:48:32.817000+00:00,2025-10-02 13:48:32.817,00:00:05.3,74912817,0.0,0.0,0.0,0.0,0.0,0.0,0.0,0.0,0.0,0.0,1.0,0.0,0.0,0.0,0.0,-0.001,0.0,0.0,0.0,0.0,0.0267909186046511,0.3131800697674419,1.18075511627907,-0.3034757209302325,-0.0238840720930232,0.9439113023255814,0.0350006744186046,-0.0286758720930232,0.0802219348837209,47.59798571,,0.0673720930232558,-0.029,952.703,954.833,-122.82527321,100.72629929,0.0,0.0,81.7,24.2,27.1,0.903,100,True
,4,400.0,2025-10-02 20:48:32.917000+00:00,2025-10-02 13:48:32.917,00:00:05.4,74912917,0.0,0.0,0.0,0.0,0.0,0.0,0.0,0.0,0.0,0.0,1.0,0.0,0.0,0.0,0.0,-0.001,0.0,0.0,0.0,0.0,0.0268678333333333,0.3131908888888889,1.180689111111111,-0.3044289111111111,-0.0278880622222222,0.9441870444444443,0.0099166488888888,0.0544321777777777,0.1092818088888888,47.59798571,,0.068,-0.0284888888888888,952.703,954.833,-122.82527321,100.72629929,0.0,0.0,81.7,24.25111111111111,27.1,0.903,100,True
,5,500.0,2025-10-02 20:48:33.017000+00:00,2025-10-02 13:48:33.017,00:00:05.5,74913017,0.0,0.0,0.0,0.0,0.0,0.0,0.0,0.0,0.0,0.0,1.0,0.0,0.0,0.0,0.0,-0.001,0.0,0.0,0.0,0.0,0.0270026213483146,0.3132564943820224,1.1806562921348316,-0.3074574719101123,-0.029037402247191,0.9443726629213482,-0.151585213483146,0.0390323011235954,0.059670806741573,47.59798571,,0.068,-0.028,952.703,954.833,-122.82527321,100.72629929,0.0,0.0,81.7,24.237078651685398,27.1,0.903,100,True
,6,600.0,2025-10-02 20:48:33.117000+00:00,2025-10-02 13:48:33.117,00:00:05.6,74913117,0.0,0.0,0.0,0.0,0.0,0.0,0.0,0.0,0.0,0.0,1.0,0.0,0.0,0.0,0.0,-0.001,0.0,0.0,0.0,0.0,0.0271670146067415,0.3133659550561797,1.180644943820225,-0.3092657415730337,-0.0303582426966292,0.9445481460674156,-0.0480113616853932,0.0669936584269663,0.0250306775280898,47.59798571,,0.068,-0.028752808988764,952.703,954.833,-122.82527321,100.72629929,0.0,0.0,81.7,24.2,27.1,0.903,100,True
,7,700.0,2025-10-02 20:48:33.217000+00:00,2025-10-02 13:48:33.217,00:00:05.7,74913217,0.0,0.0,0.0,0.0,0.0,0.0,0.0,0.0,0.0,0.0,1.0,0.0,0.0,0.0,0.0,-0.001,0.0,0.0,0.0,0.0,0.027072975510204,0.3134325510204081,1.1805365306122448,-0.3023609387755102,-0.0246928163265306,0.9446044897959184,0.0655828142857142,0.063837881632653,0.0883988571428571,47.59798571,,0.068,-0.029,952.703,954.833,-122.82527321,100.72629929,0.0,0.0,81.7,24.279591836734696,27.1,0.903,100,True
,8,800.0,2025-10-02 20:48:33.317000+00:00,2025-10-02 13:48:33.317,00:00:05.8,74913317,0.0,0.0,0.0,0.0,0.0,0.0,0.0,0.0,0.0,0.0,1.0,0.0,0.0,0.0,0.0,-0.001,0.0,0.0,0.0,0.0,0.0269551512195121,0.3135971951219512,1.1803929268292683,-0.3040503414634146,-0.0275211707317073,0.944649024390244,0.0130309853658536,-0.0185422,0.1081933414634146,47.59798571,,0.068,-0.029,952.703,954.833,-122.82527321,100.72629929,0.0,0.0,81.7,24.3,27.1,0.903,100,True
,9,900.0,2025-10-02 20:48:33.417000+00:00,2025-10-02 13:48:33.417,00:00:05.9,74913417,0.0,0.0,0.0,0.0,0.0,0.0,0.0,0.0,0.0,0.0,1.0,0.0,0.0,0.0,0.0,-0.001,0.0,0.0,0.0,0.0,0.0266332068965517,0.3135969655172413,1.180241724137931,-0.3055698965517241,-0.0232426586206896,0.9445373448275862,0.4251248620689655,0.054229048275862,0.0737159310344827,47.59798571,,0.068,-0.0280344827586206,952.703,954.833,-122.82527321,100.72997798620688,0.0,0.0,81.7,24.3,27.1,0.903,100,True
,10,1000.0,2025-10-02 20:48:33.517000+00:00,2025-10-02 13:48:33.517,00:00:06.0,74913517,0.0,0.0,0.0,0.0,0.0,0.0,0.0,0.0,0.0,0.0,1.0,0.0,0.0,0.0,0.0,-0.001,0.0,0.0,0.0,0.0,0.0261193448275862,0.313576275862069,1.1800762068965518,-0.3045878275862069,-0.0221578310344827,0.9444042413793104,0.3331621034482758,0.1513540137931034,0.1292545517241379,47.59798571,,0.068,-0.0287241379310344,952.703,954.833,-122.82527321,100.80355191034482,0.0,0.0,81.7,24.3,27.1,0.903,100,True
,11,1100.0,2025-10-02 20:48:33.617000+00:00,2025-10-02 13:48:33.617,00:00:06.1,74913617,0.0,0.0,0.0,0.0,0.0,0.0,0.0,0.0,0.0,0.0,1.0,0.0,0.0,0.0,0.0,-0.001,0.0,0.0,0.0,0.0,0.0256981414634146,0.3138119024390244,1.1798929268292684,-0.3064540243902439,-0.0229267292682926,0.9443641707317074,0.1173455365853658,0.1551679024390244,0.0646983414634146,47.59798571,,0.068,-0.029,952.703,954.833,-122.82527321,100.83298148,0.0,0.0,81.7,24.3,27.1,0.903,100,True
,12,1200.0,2025-10-02 20:48:33.717000+00:00,2025-10-02 13:48:33.717,00:00:06.2,74913717,0.0,0.0,0.0,0.0,0.0,0.0,0.0,0.0,0.0,0.0,1.0,0.0,0.0,0.0,0.0,-0.001,0.0,0.0,0.0,0.0,0.0252970151515151,0.3142103939393939,1.1796765656565655,-0.3078441919191919,-0.0221544757575757,0.944274101010101,-0.0966991414141414,0.0922432,-0.0238578161616161,47.59798571,,0.068,-0.029,952.703,954.833,-122.82527321,100.83298148,0.0,0.0,81.7,24.262626262626263,27.1,0.903,100,True
,13,1300.0,2025-10-02 20:48:33.817000+00:00,2025-10-02 13:48:33.817,00:00:06.3,74913817,0.0,0.0,0.0,0.0,0.0,0.0,0.0,0.0,0.0,0.0,1.0,0.0,0.0,0.0,0.0,-0.001,0.0,0.0,0.0,0.0,0.0250512984,0.314524088,1.17951696,-0.307583416,-0.0189323672,0.944076288,-0.0767741728,0.0696682144,-0.0253749456,47.59798571,,0.068,-0.029,952.703,954.833,-122.82527321,100.83298148,0.0,0.0,81.7,24.2,27.1304,0.903,100,True
,14,1400.0,2025-10-02 20:48:33.917000+00:00,2025-10-02 13:48:33.917,00:00:06.4,74913917,0.0,0.0,0.0,0.0,0.0,0.0,0.0,0.0,0.0,0.0,1.0,0.0,0.0,0.0,0.0,-0.001,0.0,0.0,0.0,0.0,0.025174955,0.31469756,1.1795061,-0.30955453,-0.019103556,0.94399288,0.0506964409999999,0.100072212,-0.0368700859999999,47.59798571,,0.06787,-0.02887,952.703,954.833,-122.82527321,100.83298148,0.0,0.0,81.7,24.2,27.187,0.903,100,True
,15,1500.0,2025-10-02 20:48:34.017000+00:00,2025-10-02 13:48:34.017,00:00:06.5,74914017,0.0,0.0,0.0,0.0,0.0,0.0,0.0,0.0,0.0,0.0,1.0,0.0,0.0,0.0,0.0,-0.001,0.0,0.0,0.0,0.0,0.0253240443181818,0.3147170113636363,1.1794785227272728,-0.3016397727272727,-0.0182251113636363,0.9437777613636364,-0.1024453238636363,-0.0010095795454545,-0.0327804,47.59798571,,0.0671477272727272,-0.0281477272727272,952.703,954.833,-122.82527321,100.83298148,0.0,0.0,81.7,24.2,27.1,0.903,100,True
,16,1600.0,2025-10-02 20:48:34.117000+00:00,2025-10-02 13:48:34.117,00:00:06.6,74914117,0.0,0.0,0.0,0.0,0.0,0.0,0.0,0.0,0.0,0.0,1.0,0.0,0.0,0.0,0.0,-0.001,0.0,0.0,0.0,0.0,0.0256483294117647,0.314744,1.1794582352941176,-0.3032935294117647,-0.0254732176470588,0.9436007058823528,-0.2823531764705882,0.0770995588235294,-0.0363497235294117,47.59798571,,0.0677058823529411,-0.029,952.703,954.833,-122.82527321,100.83298148,0.0,0.0,81.7,24.2,27.1,0.903,100,True
,17,1700.0,2025-10-02 20:48:34.217000+00:00,2025-10-02 13:48:34.217,00:00:06.7,74914217,0.0,0.0,0.0,0.0,0.0,0.0,0.0,0.0,0.0,0.0,1.0,0.0,0.0,0.0,0.0,-0.001,0.0,0.0,0.0,0.0,0.0258643829787234,0.3147295319148936,1.1794087234042554,-0.3065090638297872,-0.026395644680851,0.943471319148936,-0.1227464680851063,0.0986021340425531,0.0785382404255319,47.59798571,,0.0674255319148936,-0.0294255319148936,952.703,954.833,-122.82527321,100.83298148,0.0,0.0,81.7,24.2,27.1,0.903,100,True
,18,1800.0,2025-10-02 20:48:34.317000+00:00,2025-10-02 13:48:34.317,00:00:06.8,74914317,0.0,0.0,0.0,0.0,0.0,0.0,0.0,0.0,0.0,0.0,1.0,0.0,0.0,0.0,0.0,-0.001,0.0,0.0,0.0,0.0,0.0258960318181818,0.3147565,1.1793486363636363,-0.3061093863636363,-0.0207428772727272,0.9434339772727272,0.1207110545454545,0.1136592909090909,0.1341264840909091,47.598020779772725,,0.068,-0.0294772727272727,952.703,954.833,-122.82520770704546,100.86801468795454,0.0,0.0,81.7,24.25227272727273,27.1,0.903,100,True
,19,1900.0,2025-10-02 20:48:34.417000+00:00,2025-10-02 13:48:34.417,00:00:06.9,74914417,0.0,0.0,0.0,0.0,0.0,0.0,0.0,0.0,0.0,0.0,1.0,0.0,0.0,0.0,0.0,-0.001,0.0,0.0,0.0,0.0,0.025930904347826,0.3147584130434782,1.1792821739130437,-0.3068305434782609,-0.0246330434782608,0.9434503478260868,0.0612753145652173,0.1119037652173913,0.0842938326086956,47.5980528,,0.068,-0.029,952.703,954.833,-122.8251479,100.90000153,0.0,0.0,81.7,24.23695652173913,27.1,0.903,100,True
,20,2000.0,2025-10-02 20:48:34.517000+00:00,2025-10-02 13:48:34.517,00:00:07.0,74914517,0.0,0.0,0.0,0.0,0.0,0.0,0.0,0.0,0.0,0.0,1.0,0.0,0.0,0.0,0.0,-0.001,0.0,0.0,0.0,0.0,0.0261556024096385,0.3147931084337349,1.1792361445783133,-0.3059938433734939,-0.0269833518072289,0.9435005421686746,-0.2720356227710843,0.0779568722891566,0.0619446253012048,47.5979994513253,,0.068,-0.029,952.703,954.833,-122.82524754409638,100.90000201506024,0.0,0.0,81.7,24.2,27.1,0.903,100,True
,21,2100.0,2025-10-02 20:48:34.617000+00:00,2025-10-02 13:48:34.617,00:00:07.1,74914617,0.0,0.0,0.0,0.0,0.0,0.0,0.0,0.0,0.0,0.0,1.0,0.0,0.0,0.0,0.0,-0.001,0.0,0.0,0.0,0.0,0.0264589,0.3147914666666667,1.1792379047619048,-0.307309580952381,-0.0248336685714285,0.9435464761904762,-0.2380411619047619,-0.006645639047619,0.0042791019047619,47.59798571,,0.068,-0.029,952.703,954.833,-122.82527321,100.90000214,0.0,0.0,81.7,24.27904761904762,27.1,0.903,100,True
,22,2200.0,2025-10-02 20:48:34.717000+00:00,2025-10-02 13:48:34.717,00:00:07.2,74914717,0.0,0.0,0.0,0.0,0.0,0.0,0.0,0.0,0.0,0.0,1.0,0.0,0.0,0.0,0.0,-0.001,0.0,0.0,0.0,0.0,0.0267049658536585,0.3147348292682927,1.1792019512195122,-0.3086539024390243,-0.0246422146341463,0.9435922439024392,-0.0052907129268292,-0.0209871487804878,0.0361257536585365,47.59798571,,0.068,-0.029,952.703,954.833,-122.82527321,100.90000214,0.0,0.0,81.7,24.20487804878049,27.1,0.903,100,True
,23,2300.0,2025-10-02 20:48:34.817000+00:00,2025-10-02 13:48:34.817,00:00:07.3,74914817,0.0,0.0,0.0,0.0,0.0,0.0,0.0,0.0,0.0,0.0,1.0,0.0,0.0,0.0,0.0,-0.001,0.0,0.0,0.0,0.0,0.026629909090909,0.3146126363636364,1.179071818181818,-0.3061522727272727,-0.020724209090909,0.9435467272727271,0.0176694909090909,-0.1411567454545454,0.1090415454545454,47.59798571,,0.068,-0.028,952.703,954.833,-122.82527321,100.90000214,0.0,0.0,81.7,24.2,27.1,0.903,100,True
,24,2400.0,2025-10-02 20:48:34.917000+00:00,2025-10-02 13:48:34.917,00:00:07.4,74914917,0.0,0.0,0.0,0.0,0.0,0.0,0.0,0.0,0.0,0.0,1.0,0.0,0.0,0.0,0.0,-0.001,0.0,0.0,0.0,0.0,0.0266584405594405,0.3145252237762238,1.179008881118881,-0.3042851398601399,-0.0203250482517482,0.9435984755244756,0.0664332671328671,0.0056452125874125,0.1032611258741258,47.59798571,,0.068,-0.028,952.703,954.833,-122.82527321,100.90000214,0.0,0.0,81.7,24.2,27.1,0.903,100,True
,25,2500.0,2025-10-02 20:48:35.017000+00:00,2025-10-02 13:48:35.017,00:00:07.5,74915017,0.0,0.0,0.0,0.0,0.0,0.0,0.0,0.0,0.0,0.0,1.0,0.0,0.0,0.0,0.0,-0.001,0.0,0.0,0.0,0.0,0.0265338352941176,0.3146101764705882,1.178915882352941,-0.3019906470588235,-0.0198833823529411,0.9437836470588236,0.0185977188235294,0.1644373764705882,0.0479611058823529,47.59798571,,0.0671764705882353,-0.028,952.703,954.833,-122.82527321,100.90000214,0.0,0.0,81.7,24.2,27.1,0.903,100,True
,26,2600.0,2025-10-02 20:48:35.117000+00:00,2025-10-02 13:48:35.117,00:00:07.6,74915117,0.0,0.0,0.0,0.0,0.0,0.0,0.0,0.0,0.0,0.0,1.0,0.0,0.0,0.0,0.0,-0.001,0.0,0.0,0.0,0.0,0.0265070944444444,0.3146670555555555,1.1787961111111112,-0.3025048888888889,-0.0242565944444444,0.9438436111111111,0.0652926683333333,0.3205097222222222,-0.0365028333333333,47.59798571,,0.0679444444444444,-0.0289444444444444,952.703,954.833,-122.82527321,100.90000214,0.0,0.0,81.7,24.2,27.1,0.903,100,True
,27,2700.0,2025-10-02 20:48:35.217000+00:00,2025-10-02 13:48:35.217,00:00:07.7,74915217,0.0,0.0,0.0,0.0,0.0,0.0,0.0,0.0,0.0,0.0,1.0,0.0,0.0,0.0,0.0,-0.001,0.0,0.0,0.0,0.0,0.0266050217821782,0.3157948910891089,1.1788652475247523,-0.302316207920792,-0.0260569,0.944600297029703,0.0745810722772277,1.9748724158415845,0.0079440732673267,47.59798571,,0.067059405940594,-0.028059405940594,952.703,954.833,-122.82527321,100.90000214,0.0,0.0,81.7,24.2,27.1,0.903,100,True
,28,2800.0,2025-10-02 20:48:35.317000+00:00,2025-10-02 13:48:35.317,00:00:07.8,74915317,0.0,0.0,0.0,0.0,0.0,0.0,0.0,0.0,0.0,0.0,1.0,0.0,0.0,0.0,0.0,-0.001,0.0,0.0,0.0,0.0,0.0260205989473684,0.3178323684210526,1.1786126315789474,-0.3114606947368421,-0.0174374694736842,0.945159,0.4680366631578947,-0.5956602515789473,0.2613260421052631,47.59798571,,0.068,-0.0291684210526315,952.703,954.833,-122.82527321,100.90000214,0.0,0.0,81.7,24.2,27.1,0.903,100,True
,29,2900.0,2025-10-02 20:48:35.417000+00:00,2025-10-02 13:48:35.417,00:00:07.9,74915417,0.0,0.0,0.0,0.0,0.0,0.0,0.0,0.0,0.0,0.0,1.0,0.0,0.0,0.0,0.0,-0.001,0.0,0.0,0.0,0.0,0.0261162258823529,0.3140922352941176,1.1782676470588236,-0.3033769058823529,-0.0171768152941176,0.9416958,-0.2658855176470588,-2.6502082352941176,0.1604269788235294,47.59798571,,0.068,-0.03,952.703,954.833,-122.82527321,100.90000214,0.0,0.0,81.7,24.2,27.1,0.903,100,True
,30,3000.0,2025-10-02 20:48:35.517000+00:00,2025-10-02 13:48:35.517,00:00:08.0,74915517,0.0,0.0,0.0,0.0,0.0,0.0,0.0,0.0,0.0,0.0,1.0,0.0,0.0,0.0,0.0,-0.001,0.0,0.0,0.0,0.0,0.0270176812030075,0.3115072481203008,1.1782868421052632,-0.3017637669172932,-0.0170245360902255,0.9407099172932332,-0.5516901127819549,-0.997445894736842,-0.0240365293233082,47.59798571,,0.068,-0.0297293233082706,952.703,954.833,-122.82527321,100.91151102601503,0.0,0.0,81.7,24.2,27.1,0.903,100,True
,31,3100.0,2025-10-02 20:48:35.617000+00:00,2025-10-02 13:48:35.617,00:00:08.1,74915617,0.0,0.0,0.0,0.0,0.0,0.0,0.0,0.0,0.0,0.0,1.0,0.0,0.0,0.0,0.0,-0.001,0.0,0.0,0.0,0.0,0.0276322945652173,0.3107354347826087,1.1784409782608696,-0.2985891739130435,-0.0197343815217391,0.941233347826087,-0.1331493782608695,-0.2200861413043478,-0.0128800510869565,47.59798571,,0.0679673913043478,-0.029,952.703,954.833,-122.82527321,100.94252108,0.0,0.0,81.7,24.2,27.1,0.903,100,True
,32,3200.0,2025-10-02 20:48:35.717000+00:00,2025-10-02 13:48:35.717,00:00:08.2,74915717,0.0,0.0,0.0,0.0,0.0,0.0,0.0,0.0,0.0,0.0,1.0,0.0,0.0,0.0,0.0,-0.001,0.0,0.0,0.0,0.0,0.028004849484536,0.3105802680412371,1.1784461855670103,-0.3045289381443299,-0.030706030927835,0.9425643298969072,0.0250142927835051,0.0640866391752577,0.0983275041237113,47.59798571,,0.0671134020618556,-0.0291134020618556,952.703,954.833,-122.82527321,100.94252108,0.0,0.0,81.7,24.2,27.1,0.903,100,True
,33,3300.0,2025-10-02 20:48:35.817000+00:00,2025-10-02 13:48:35.817,00:00:08.3,74915817,0.0,0.0,0.0,0.0,0.0,0.0,0.0,0.0,0.0,0.0,1.0,0.0,0.0,0.0,0.0,-0.001,0.0,0.0,0.0,0.0,0.028039990625,0.310102578125,1.1782753125,-0.3035573281249999,-0.0290087625,0.943386671875,-0.36046050625,-0.3400705421875,0.066295209375,47.59798571,,0.068,-0.029890625,952.703,954.833,-122.82527321,100.94252108,0.0,0.0,81.7,24.2,27.1,0.903,100,True
,34,3400.0,2025-10-02 20:48:35.917000+00:00,2025-10-02 13:48:35.917,00:00:08.4,74915917,0.0,0.0,0.0,0.0,0.0,0.0,0.0,0.0,0.0,0.0,1.0,0.0,0.0,0.0,0.0,-0.001,0.0,0.0,0.0,0.0,0.029014209375,0.307792421875,1.1783846875,-0.299859671875,-0.0419856375,0.943434328125,0.0161073062499999,-0.1222315578124999,-0.023874009375,47.59798571,,0.068,-0.029109375,952.703,954.833,-122.82527321,100.94252108,0.0,0.0,81.7,24.2,27.1,0.903,100,True
,35,3500.0,2025-10-02 20:48:36.017000+00:00,2025-10-02 13:48:36.017,00:00:08.5,74916017,0.0,0.0,0.0,0.0,0.0,0.0,0.0,0.0,0.0,0.0,1.0,0.0,0.0,0.0,0.0,-0.001,0.0,0.0,0.0,0.0,0.0287985431578947,0.3068344105263157,1.1781736842105264,-0.2987010736842105,-0.0286566231578947,0.944198705263158,-0.2002914610526316,-0.283541167368421,-0.2017682452631579,47.59798571,,0.068,-0.029,952.703,954.833,-122.82527321,100.94252108,0.0,0.0,81.7,24.2,27.1,0.903,100,True
,36,3600.0,2025-10-02 20:48:36.117000+00:00,2025-10-02 13:48:36.117,00:00:08.6,74916117,0.0,0.0,0.0,0.0,0.0,0.0,0.0,0.0,0.0,0.0,1.0,0.0,0.0,0.0,0.0,-0.001,0.0,0.0,0.0,0.0,0.0288600357142857,0.3067837857142856,1.1781035714285717,-0.3017066428571429,-0.0272177571428571,0.9453449285714286,-0.0705484571428571,0.0895626428571428,0.0893229285714285,47.59798571,,0.0670714285714285,-0.029,952.703,954.833,-122.82527321,100.94252108,0.0,0.0,81.7,24.292857142857144,27.1,0.903,100,True
,37,3700.0,2025-10-02 20:48:36.217000+00:00,2025-10-02 13:48:36.217,00:00:08.7,74916217,0.0,0.0,0.0,0.0,0.0,0.0,0.0,0.0,0.0,0.0,1.0,0.0,0.0,0.0,0.0,-0.001,0.0,0.0,0.0,0.0,0.0289483764705882,0.3070042235294117,1.1780731764705883,-0.2992296705882353,-0.0252397247058823,0.9463892823529412,-0.0202351905882352,0.2916501105882352,-0.0755977517647058,47.59798571,,0.067,-0.0281294117647058,952.703,954.833,-122.82527321,100.94252108,0.0,0.0,81.7,24.2,27.1,0.903,100,True
,38,3800.0,2025-10-02 20:48:36.317000+00:00,2025-10-02 13:48:36.317,00:00:08.8,74916317,0.0,0.0,0.0,0.0,0.0,0.0,0.0,0.0,0.0,0.0,1.0,0.0,0.0,0.0,0.0,-0.001,0.0,0.0,0.0,0.0,0.0286529760869565,0.3074215217391304,1.1779373913043478,-0.298639652173913,-0.0236368760869565,0.9470415217391304,0.2597274910869565,0.1284484391304347,0.0651850695652173,47.59798571,,0.0672826086956521,-0.029,952.703,954.833,-122.82527321,100.94252108,0.0,0.0,81.7,24.2,27.1,0.903,100,True
,39,3900.0,2025-10-02 20:48:36.417000+00:00,2025-10-02 13:48:36.417,00:00:08.9,74916417,0.0,0.0,0.0,0.0,0.0,0.0,0.0,0.0,0.0,0.0,1.0,0.0,0.0,0.0,0.0,-0.001,0.0,0.0,0.0,0.0,0.0284673488888888,0.3075432962962963,1.1778397037037038,-0.2946843111111111,-0.0258923548148148,0.9471524814814816,0.1327699957777777,0.3647064,0.0765878511111111,47.59798571,,0.0677481481481481,-0.029,952.703,954.833,-122.82527321,100.94252108,0.0,0.0,81.7,24.2,27.1,0.903,100,True
,40,4000.0,2025-10-02 20:48:36.517000+00:00,2025-10-02 13:48:36.517,00:00:09.0,74916517,0.0,0.0,0.0,0.0,0.0,0.0,0.0,0.0,0.0,0.0,1.0,0.0,0.0,0.0,0.0,-0.001,0.0,0.0,0.0,0.0,0.0281769044444444,0.3080618148148148,1.1777211851851852,-0.3028087555555555,-0.0300542807407407,0.947445074074074,0.5079393068888889,0.4696664,0.1987582955555555,47.59798571,,0.0670074074074074,-0.029,952.703,954.833,-122.82527321,100.94252108,0.0,0.0,81.7,24.2,27.1,0.903,100,True
,41,4100.0,2025-10-02 20:48:36.617000+00:00,2025-10-02 13:48:36.617,00:00:09.1,74916617,0.0,0.0,0.0,0.0,0.0,0.0,0.0,0.0,0.0,0.0,1.0,0.0,0.0,0.0,0.0,-0.001,0.0,0.0,0.0,0.0,0.0270227142857142,0.3092182142857143,1.1773316666666669,-0.3044438333333333,-0.025419138095238,0.9475053333333334,0.4860583452380952,0.3964899523809523,0.1946224821428571,47.59798571,,0.0679404761904761,-0.0289404761904761,952.703,954.833,-122.82527321,101.07614474,0.0,0.0,81.7,24.2,27.1,0.903,100,True
,42,4200.0,2025-10-02 20:48:36.717000+00:00,2025-10-02 13:48:36.717,00:00:09.2,74916717,0.0,0.0,0.0,0.0,0.0,0.0,0.0,0.0,0.0,0.0,1.0,0.0,0.0,0.0,0.0,-0.001,0.0,0.0,0.0,0.0,0.0266162923076923,0.3098815384615384,1.177163076923077,-0.3040258461538461,-0.0295071307692307,0.947165,0.082474223076923,0.2652237307692308,0.1154133846153846,47.59798571,,0.0672307692307692,-0.0282307692307692,952.703,954.833,-122.82527321,101.07614474,0.0,0.0,81.7,24.223076923076924,27.1,0.903,100,True
,43,4300.0,2025-10-02 20:48:36.817000+00:00,2025-10-02 13:48:36.817,00:00:09.3,74916817,0.0,0.0,0.0,0.0,0.0,0.0,0.0,0.0,0.0,0.0,1.0,0.0,0.0,0.0,0.0,-0.001,0.0,0.0,0.0,0.0,0.0263415666666666,0.3101446666666667,1.1770133333333337,-0.3060566666666666,-0.0251664333333333,0.9464606666666666,0.0366136666666666,0.0732976666666666,0.1286088666666666,47.59798571,,0.0676666666666666,-0.029,952.703,954.833,-122.82527321,101.07614474,0.0,0.0,81.7,24.266666666666666,27.1,0.903,100,True
,44,4400.0,2025-10-02 20:48:36.917000+00:00,2025-10-02 13:48:36.917,00:00:09.4,74916917,0.0,0.0,0.0,0.0,0.0,0.0,0.0,0.0,0.0,0.0,1.0,0.0,0.0,0.0,0.0,-0.001,0.0,0.0,0.0,0.0,0.0262242010309278,0.310355237113402,1.1769311340206186,-0.3026014639175258,-0.0221102010309278,0.9459410721649484,-0.0357641237113402,0.1479323505154639,0.0404984969072164,47.59798571,,0.067,-0.029,952.703,954.833,-122.82527321,101.07614474,0.0,0.0,81.7,24.2,27.1,0.903,100,True
,45,4500.0,2025-10-02 20:48:37.017000+00:00,2025-10-02 13:48:37.017,00:00:09.5,74917017,0.0,0.0,0.0,0.0,0.0,0.0,0.0,0.0,0.0,0.0,1.0,0.0,0.0,0.0,0.0,-0.001,0.0,0.0,0.0,0.0,0.0262114364705882,0.3105124823529412,1.1768596470588235,-0.3018717058823529,-0.0234060505882352,0.945546411764706,-0.0009773694117647,0.1174853705882353,-0.033341054117647,47.59798571,,0.0675058823529411,-0.0284941176470588,952.703,954.833,-122.82527321,101.07614474,0.0,0.0,81.7,24.2,27.1,0.903,100,True
,46,4600.0,2025-10-02 20:48:37.117000+00:00,2025-10-02 13:48:37.117,00:00:09.6,74917117,0.0,0.0,0.0,0.0,0.0,0.0,0.0,0.0,0.0,0.0,1.0,0.0,0.0,0.0,0.0,-0.001,0.0,0.0,0.0,0.0,0.0262877127659574,0.3107350212765957,1.1767868085106383,-0.300858,-0.0219082744680851,0.9453197872340424,0.0903539795744681,0.092040744680851,0.0195393063829787,47.59798571,,0.0673829787234042,-0.028,952.703,954.833,-122.82527321,101.07614474,0.0,0.0,81.7,24.2,27.1,0.903,100,True
,47,4700.0,2025-10-02 20:48:37.217000+00:00,2025-10-02 13:48:37.217,00:00:09.7,74917217,0.0,0.0,0.0,0.0,0.0,0.0,0.0,0.0,0.0,0.0,1.0,0.0,0.0,0.0,0.0,-0.001,0.0,0.0,0.0,0.0,0.0262608023255813,0.3105979534883721,1.1766781395348838,-0.3000347906976744,-0.0268356488372093,0.9448623255813954,0.1416891395348837,-0.2981645581395349,-0.0048242,47.59798571,,0.0677441860465116,-0.0287441860465116,952.703,954.833,-122.82527321,101.07614474,0.0,0.0,81.7,24.2,27.1,0.903,100,True
,48,4800.0,2025-10-02 20:48:37.317000+00:00,2025-10-02 13:48:37.317,00:00:09.8,74917317,0.0,0.0,0.0,0.0,0.0,0.0,0.0,0.0,0.0,0.0,1.0,0.0,0.0,0.0,0.0,-0.001,0.0,0.0,0.0,0.0,0.0259918159090909,0.3101335227272727,1.1764993181818182,-0.3013888409090909,-0.0285464363636363,0.9443853863636364,0.2166352272727272,0.0564017954545454,0.1358793295454545,47.59798571,,0.068,-0.029,952.703,954.833,-122.82527321,101.07614474,0.0,0.0,81.7,24.2,27.1,0.903,100,True
,49,4900.0,2025-10-02 20:48:37.417000+00:00,2025-10-02 13:48:37.417,00:00:09.9,74917417,0.0,0.0,0.0,0.0,0.0,0.0,0.0,0.0,0.0,0.0,1.0,0.0,0.0,0.0,0.0,-0.001,0.0,0.0,0.0,0.0,0.0257245736842105,0.3098821052631579,1.1763536842105264,-0.301306,-0.0201191947368421,0.9442672105263158,0.0566596315789473,-0.2669666315789474,0.1217024210526315,47.59798571,,0.068,-0.029,952.703,954.833,-122.82527321,101.07614474,0.0,0.0,81.7,24.2,27.1,0.903,100,True
,50,5000.0,2025-10-02 20:48:37.517000+00:00,2025-10-02 13:48:37.517,00:00:10.0,74917517,0.0,0.0,0.0,0.0,0.0,0.0,0.0,0.0,0.0,0.0,1.0,0.0,0.0,0.0,0.0,-0.001,0.0,0.0,0.0,0.0,0.02570921,0.309620425,1.17628675,-0.30059005,-0.0189586075,0.944209,0.116510305,-0.2366479825,0.168105525,47.59798571,,0.068,-0.029,952.703,954.833,-122.82527321,101.11392670075,0.0,0.0,81.7,24.2,27.1,0.903,100,True
,51,5100.0,2025-10-02 20:48:37.617000+00:00,2025-10-02 13:48:37.617,00:00:10.1,74917617,0.0,0.0,0.0,0.0,0.0,0.0,0.0,0.0,0.0,0.0,1.0,0.0,0.0,0.0,0.0,-0.001,0.0,0.0,0.0,0.0,0.0256552860465116,0.3094345348837209,1.176210930232558,-0.3005466046511628,-0.0201813348837209,0.9442592790697676,0.2445973488372093,-0.0500814069767441,0.2156703023255814,47.59798571,,0.068,-0.029,952.703,954.833,-122.82527321,101.15568571,0.0,0.0,81.7,24.2,27.1,0.903,100,True
,52,5200.0,2025-10-02 20:48:37.717000+00:00,2025-10-02 13:48:37.717,00:00:10.2,74917717,0.0,0.0,0.0,0.0,0.0,0.0,0.0,0.0,0.0,0.0,1.0,0.0,0.0,0.0,0.0,-0.001,0.0,0.0,0.0,0.0,0.0251854863636363,0.3095673863636363,1.1760025,-0.3033057272727273,-0.0229322886363636,0.9447066363636364,0.0999414318181818,0.0957865,0.0978011238636363,47.59798571,,0.0676590909090909,-0.029,952.703,954.833,-122.82527321,101.15568571,0.0,0.0,81.7,24.2,27.1,0.903,100,True
,53,5300.0,2025-10-02 20:48:37.817000+00:00,2025-10-02 13:48:37.817,00:00:10.3,74917817,0.0,0.0,0.0,0.0,0.0,0.0,0.0,0.0,0.0,0.0,1.0,0.0,0.0,0.0,0.0,-0.001,0.0,0.0,0.0,0.0,0.0253490269662921,0.309486202247191,1.1759205617977528,-0.300472595505618,-0.0220570303370786,0.9448613146067416,-0.2111323820224719,0.0488492719101123,0.0197887798876404,47.59798571,,0.0674719101123595,-0.029,952.703,954.833,-122.82527321,101.15568571,0.0,0.0,81.7,24.2,27.1,0.903,100,True
,54,5400.0,2025-10-02 20:48:37.917000+00:00,2025-10-02 13:48:37.917,00:00:10.4,74917917,0.0,0.0,0.0,0.0,0.0,0.0,0.0,0.0,0.0,0.0,1.0,0.0,0.0,0.0,0.0,-0.001,0.0,0.0,0.0,0.0,0.0256623693430656,0.3095060729927007,1.1759022627737228,-0.3000678832116788,-0.0176196744525547,0.944960503649635,-0.1905720437956204,0.1030900145985401,0.0273542057664233,47.59798571,,0.0676131386861313,-0.029,952.703,954.833,-122.82527321,101.15568571,0.0,0.0,81.7,24.2,27.1,0.903,100,True
,55,5500.0,2025-10-02 20:48:38.017000+00:00,2025-10-02 13:48:38.017,00:00:10.5,74918017,0.0,0.0,0.0,0.0,0.0,0.0,0.0,0.0,0.0,0.0,1.0,0.0,0.0,0.0,0.0,-0.001,0.0,0.0,0.0,0.0,0.025958975510204,0.3094147755102041,1.1758997959183677,-0.3037384489795918,-0.0225931061224489,0.9449678571428572,-0.3036024897959184,0.131328081632653,-0.0175776524489795,47.59798571,,0.0671632653061224,-0.0288367346938775,952.703,954.833,-122.82527321,101.15568571,0.0,0.0,81.7,24.2,27.1,0.903,100,True
,56,5600.0,2025-10-02 20:48:38.117000+00:00,2025-10-02 13:48:38.117,00:00:10.6,74918117,0.0,0.0,0.0,0.0,0.0,0.0,0.0,0.0,0.0,0.0,1.0,0.0,0.0,0.0,0.0,-0.001,0.0,0.0,0.0,0.0,0.0265891963855421,0.309038313253012,1.1759565060240964,-0.3013932409638554,-0.0290308421686747,0.944882373493976,-0.3787213975903614,-0.1011722891566265,-0.0521669722891566,47.59798571,,0.068,-0.0282168674698795,952.703,954.833,-122.82527321,101.15568571,0.0,0.0,81.7,24.2,27.1,0.903,100,True
,57,5700.0,2025-10-02 20:48:38.217000+00:00,2025-10-02 13:48:38.217,00:00:10.7,74918217,0.0,0.0,0.0,0.0,0.0,0.0,0.0,0.0,0.0,0.0,1.0,0.0,0.0,0.0,0.0,-0.001,0.0,0.0,0.0,0.0,0.0269986923913043,0.3090501630434782,1.175983804347826,-0.2996794130434783,-0.0276523217391304,0.9451816630434784,-0.2366304782608695,0.1451578804347826,-0.0121221222826086,47.59798571,,0.068,-0.029,952.703,954.833,-122.82527321,101.15568571,0.0,0.0,81.7,24.2,27.1,0.903,100,True
,58,5800.0,2025-10-02 20:48:38.317000+00:00,2025-10-02 13:48:38.317,00:00:10.8,74918317,0.0,0.0,0.0,0.0,0.0,0.0,0.0,0.0,0.0,0.0,1.0,0.0,0.0,0.0,0.0,-0.001,0.0,0.0,0.0,0.0,0.0274106195402298,0.3092938735632183,1.1760097701149426,-0.3002394712643678,-0.0268663206896551,0.9455143333333332,-0.3142992413793103,0.1885951379310345,-0.005752178045977,47.59798571,,0.068,-0.029,952.703,954.833,-122.82527321,101.15568571,0.0,0.0,81.7,24.2,27.1,0.903,100,True
,59,5900.0,2025-10-02 20:48:38.417000+00:00,2025-10-02 13:48:38.417,00:00:10.9,74918417,0.0,0.0,0.0,0.0,0.0,0.0,0.0,0.0,0.0,0.0,1.0,0.0,0.0,0.0,0.0,-0.001,0.0,0.0,0.0,0.0,0.0278689129032258,0.3095899032258064,1.176066129032258,-0.3048107311827957,-0.0281149387096774,0.9457006989247312,-0.1742413204301075,0.1050389311827957,0.067444258172043,47.59798571,,0.068,-0.029,952.703,954.833,-122.82527321,101.15568571,0.0,0.0,81.7,24.2,27.1,0.903,100,True
,60,6000.0,2025-10-02 20:48:38.517000+00:00,2025-10-02 13:48:38.517,00:00:11.0,74918517,0.0,0.0,0.0,0.0,0.0,0.0,0.0,0.0,0.0,0.0,1.0,0.0,0.0,0.0,0.0,-0.001,0.0,0.0,0.0,0.0,0.0282037561797752,0.3096980561797752,1.1760829213483146,-0.3014944943820224,-0.0332081943820224,0.9456356629213484,0.085350608988764,-0.0499229966292134,0.0524264033707865,47.59798571,,0.0672921348314606,-0.029,952.703,954.833,-122.82527321,101.16195870494384,0.0,0.0,81.7,24.2,27.1,0.903,100,True
,61,6100.0,2025-10-02 20:48:38.617000+00:00,2025-10-02 13:48:38.617,00:00:11.1,74918617,0.0,0.0,0.0,0.0,0.0,0.0,0.0,0.0,0.0,0.0,1.0,0.0,0.0,0.0,0.0,-0.001,0.0,0.0,0.0,0.0,0.02819575,0.309652804347826,1.1759995652173914,-0.2995952173913043,-0.0238597826086956,0.9454581086956522,0.0374197913043478,-0.0341069608695652,0.0924639065217391,47.59798571,,0.0678043478260869,-0.028195652173913,952.703,954.833,-122.82527321,101.16454756,0.0,0.0,81.7,24.2,27.1,0.903,100,True
,62,6200.0,2025-10-02 20:48:38.717000+00:00,2025-10-02 13:48:38.717,00:00:11.2,74918717,0.0,0.0,0.0,0.0,0.0,0.0,0.0,0.0,0.0,0.0,1.0,0.0,0.0,0.0,0.0,-0.001,0.0,0.0,0.0,0.0,0.0282508833333333,0.3097972619047619,1.1759507142857144,-0.3030623333333334,-0.0246750738095238,0.945457261904762,0.2215184571428571,0.1169253119047619,0.1571148571428571,47.59798571,,0.068,-0.0289761904761904,952.703,954.833,-122.82527321,101.16454756,0.0,0.0,81.7,24.2,27.1,0.903,100,True
,63,6300.0,2025-10-02 20:48:38.817000+00:00,2025-10-02 13:48:38.817,00:00:11.3,74918817,0.0,0.0,0.0,0.0,0.0,0.0,0.0,0.0,0.0,0.0,1.0,0.0,0.0,0.0,0.0,-0.001,0.0,0.0,0.0,0.0,0.0280233617021276,0.3096707021276595,1.1757651063829788,-0.300119414893617,-0.0231053904255319,0.9452492553191488,0.2907416702127659,-0.0892174127659574,0.2093974585106383,47.59798571,,0.068,-0.029,952.703,954.833,-122.82527321,101.16454756,0.0,0.0,81.7,24.2,27.1,0.903,100,True
,64,6400.0,2025-10-02 20:48:38.917000+00:00,2025-10-02 13:48:38.917,00:00:11.4,74918917,0.0,0.0,0.0,0.0,0.0,0.0,0.0,0.0,0.0,0.0,1.0,0.0,0.0,0.0,0.0,-0.001,0.0,0.0,0.0,0.0,0.027742,0.30958,1.17558,-0.29918,-0.0289728,0.945153,0.144677,-0.0910831,0.0271133,47.59798571,,0.068,-0.0288539325842696,952.703,954.833,-122.82527321,101.16454756,0.0,0.0,81.7,24.2,27.1,0.903,100,True
,65,6500.0,2025-10-02 20:48:39.017000+00:00,2025-10-02 13:48:39.017,00:00:11.5,74919017,0.0,0.0,0.0,0.0,0.0,0.0,0.0,0.0,0.0,0.0,1.0,0.0,0.0,0.0,0.0,-0.001,0.0,0.0,0.0,0.0,0.027722524137931,0.3096095172413793,1.1755524137931035,-0.3003328275862069,-0.0287592551724137,0.9451747931034484,0.1078916758620689,-0.0136143827586206,0.0489333551724137,47.59798571,,0.068,-0.0282758620689655,952.703,954.833,-122.82527321,101.16454756,0.0,0.0,81.7,24.2,27.1,0.903,100,True
,66,6600.0,2025-10-02 20:48:39.117000+00:00,2025-10-02 13:48:39.117,00:00:11.6,74919117,0.0,0.0,0.0,0.0,0.0,0.0,0.0,0.0,0.0,0.0,1.0,0.0,0.0,0.0,0.0,-0.001,0.0,0.0,0.0,0.0,0.0276828288888888,0.3096475333333333,1.1754347777777778,-0.3046178222222222,-0.0293847555555555,0.9451707444444444,0.0063000109444444,-0.0122798222222222,0.0509404411111111,47.59798571,,0.068,-0.029,952.703,954.833,-122.82527321,101.16454756,0.0,0.0,81.7,24.2,27.1,0.903,100,True
,67,6700.0,2025-10-02 20:48:39.217000+00:00,2025-10-02 13:48:39.217,00:00:11.7,74919217,0.0,0.0,0.0,0.0,0.0,0.0,0.0,0.0,0.0,0.0,1.0,0.0,0.0,0.0,0.0,-0.001,0.0,0.0,0.0,0.0,0.0276697739130434,0.3095404239130435,1.1753138043478262,-0.3034712391304348,-0.0308114065217391,0.9450416195652174,0.002220015597826,-0.1225011891304347,0.0055612826086956,47.59798571,,0.068,-0.029,952.703,954.833,-122.82527321,101.16454756,0.0,0.0,81.7,24.2,27.1,0.903,100,True
,68,6800.0,2025-10-02 20:48:39.317000+00:00,2025-10-02 13:48:39.317,00:00:11.8,74919317,0.0,0.0,0.0,0.0,0.0,0.0,0.0,0.0,0.0,0.0,1.0,0.0,0.0,0.0,0.0,-0.001,0.0,0.0,0.0,0.0,0.0276377685393258,0.3094351460674157,1.1752105617977526,-0.3012476741573034,-0.0278361719101123,0.9449896404494382,-0.0378803975280898,-0.0374388573033707,0.042581415730337,47.59798571,,0.068,-0.029,952.703,954.833,-122.82527321,101.16454756,0.0,0.0,81.7,24.2,27.1,0.903,100,True
,69,6900.0,2025-10-02 20:48:39.417000+00:00,2025-10-02 13:48:39.417,00:00:11.9,74919417,0.0,0.0,0.0,0.0,0.0,0.0,0.0,0.0,0.0,0.0,1.0,0.0,0.0,0.0,0.0,-0.001,0.0,0.0,0.0,0.0,0.0276656622222222,0.3093838666666667,1.175150666666667,-0.3030866444444444,-0.0261616688888888,0.9450054666666666,-0.1667933955555555,-0.0565830244444444,0.0540878933333333,47.59798571,,0.0675111111111111,-0.029,952.703,954.833,-122.82527321,101.16454756,0.0,0.0,81.7,24.2,27.1,0.9034888888888888,100,True
,70,7000.0,2025-10-02 20:48:39.517000+00:00,2025-10-02 13:48:39.517,00:00:12.0,74919517,0.0,0.0,0.0,0.0,0.0,0.0,0.0,0.0,0.0,0.0,1.0,0.0,0.0,0.0,0.0,-0.001,0.0,0.0,0.0,0.0,0.0277860345864661,0.3093171203007518,1.1751176691729324,-0.3031180827067669,-0.0273006293233082,0.9450374586466166,-0.2072766601503759,-0.0206031360902255,0.0736507804511278,47.59798571,,0.0672330827067669,-0.029,952.703,954.833,-122.82527321,101.17195788157896,0.0,0.0,81.7,24.2,27.1,0.904,100,True
,71,7100.0,2025-10-02 20:48:39.617000+00:00,2025-10-02 13:48:39.617,00:00:12.1,74919617,0.0,0.0,0.0,0.0,0.0,0.0,0.0,0.0,0.0,0.0,1.0,0.0,0.0,0.0,0.0,-0.001,0.0,0.0,0.0,0.0,0.0280722751879699,0.3091562180451128,1.17511015037594,-0.298269962406015,-0.0309626593984962,0.9450615187969924,0.0070437909774436,-0.0202548654135338,0.1076794270676691,47.59798571,,0.067984962406015,-0.029,952.703,954.833,-122.82527321,101.19586214473684,0.0,0.0,81.7,24.2,27.1,0.904,100,True
,72,7200.0,2025-10-02 20:48:39.717000+00:00,2025-10-02 13:48:39.717,00:00:12.2,74919717,0.0,0.0,0.0,0.0,0.0,0.0,0.0,0.0,0.0,0.0,1.0,0.0,0.0,0.0,0.0,-0.001,0.0,0.0,0.0,0.0,0.0277372044117647,0.309080919117647,1.1748707352941177,-0.3017944632352941,-0.0307327794117647,0.9453207720588236,0.0713554441911764,0.1889681911764706,0.0306800713235294,47.59798571,,0.068,-0.029,952.703,954.833,-122.82527321,101.19634023,0.0,0.0,81.7,24.2,27.1,0.904,100,True
,73,7300.0,2025-10-02 20:48:39.817000+00:00,2025-10-02 13:48:39.817,00:00:12.3,74919817,0.0,0.0,0.0,0.0,0.0,0.0,0.0,0.0,0.0,0.0,1.0,0.0,0.0,0.0,0.0,-0.001,0.0,0.0,0.0,0.0,0.0276344102941176,0.3089654779411764,1.1747383823529411,-0.3021010808823529,-0.0253024852941176,0.9453318014705884,0.0200817897794117,0.1890137794117647,0.0351782330882353,47.59798571,,0.068,-0.029,952.703,954.833,-122.82527321,101.19634023,0.0,0.0,81.7,24.2,27.1,0.904,100,True
,74,7400.0,2025-10-02 20:48:39.917000+00:00,2025-10-02 13:48:39.917,00:00:12.4,74919917,0.0,0.0,0.0,0.0,0.0,0.0,0.0,0.0,0.0,0.0,1.0,0.0,0.0,0.0,0.0,-0.001,0.0,0.0,0.0,0.0,0.0275971011235955,0.3089431685393258,1.1746601123595506,-0.301339595505618,-0.0220714056179775,0.945405202247191,0.0003319179213483,0.0209387280898876,-0.0174288764044943,47.59798571,,0.068,-0.029,952.703,954.833,-122.82527321,101.19634023,0.0,0.0,81.7,24.2,27.1,0.904,100,True
,75,7500.0,2025-10-02 20:48:40.017000+00:00,2025-10-02 13:48:40.017,00:00:12.5,74920017,0.0,0.0,0.0,0.0,0.0,0.0,0.0,0.0,0.0,0.0,1.0,0.0,0.0,0.0,0.0,-0.001,0.0,0.0,0.0,0.0,0.0275914452631578,0.3089054315789474,1.1746327368421052,-0.3014921368421052,-0.0219050094736842,0.9454286105263158,0.0973005649473684,-0.1416678715789473,0.0524996378947368,47.59798571,,0.068,-0.029,952.703,954.833,-122.82527321,101.19634023,0.0,0.0,81.7,24.2,27.1,0.904,100,True
,76,7600.0,2025-10-02 20:48:40.117000+00:00,2025-10-02 13:48:40.117,00:00:12.6,74920117,0.0,0.0,0.0,0.0,0.0,0.0,0.0,0.0,0.0,0.0,1.0,0.0,0.0,0.0,0.0,-0.001,0.0,0.0,0.0,0.0,0.0275868663157894,0.3088559578947368,1.1746116842105263,-0.3019410842105263,-0.022214167368421,0.945435452631579,0.2170639307368421,-0.2880003978947368,0.1544462694736842,47.59798571,,0.068,-0.029,952.703,954.833,-122.82527321,101.19634023,0.0,0.0,81.7,24.2,27.1,0.904,100,True
,77,7700.0,2025-10-02 20:48:40.217000+00:00,2025-10-02 13:48:40.217,00:00:12.7,74920217,0.0,0.0,0.0,0.0,0.0,0.0,0.0,0.0,0.0,0.0,1.0,0.0,0.0,0.0,0.0,-0.001,0.0,0.0,0.0,0.0,0.0274180748031496,0.3087744881889764,1.1745085826771653,-0.3002471102362204,-0.024718553543307,0.9454714960629922,0.1123200047244094,0.1044808740157479,0.0157774614173228,47.59798571,,0.068,-0.029,952.703,954.833,-122.82527321,101.19634023,0.0,0.0,81.7,24.2,27.1,0.904,100,True
,78,7800.0,2025-10-02 20:48:40.317000+00:00,2025-10-02 13:48:40.317,00:00:12.8,74920317,0.0,0.0,0.0,0.0,0.0,0.0,0.0,0.0,0.0,0.0,1.0,0.0,0.0,0.0,0.0,-0.001,0.0,0.0,0.0,0.0,0.0270254354838709,0.3088211827956989,1.1742812903225806,-0.2982002365591397,-0.0236132817204301,0.9456310752688172,0.1218403806451612,0.1608584301075268,0.0053810204301075,47.59798571,,0.068,-0.0283010752688172,952.703,954.833,-122.82527321,101.19634023,0.0,0.0,81.7,24.2,27.1,0.904,100,True
,79,7900.0,2025-10-02 20:48:40.417000+00:00,2025-10-02 13:48:40.417,00:00:12.9,74920417,0.0,0.0,0.0,0.0,0.0,0.0,0.0,0.0,0.0,0.0,1.0,0.0,0.0,0.0,0.0,-0.001,0.0,0.0,0.0,0.0,0.0265913422018348,0.3088962752293578,1.1740678899082568,-0.296621743119266,-0.0272046422018348,0.9457058899082568,0.2028615871559633,0.120278623853211,0.1591006944954128,47.59798571,,0.0673394495412844,-0.028,952.703,954.833,-122.82527321,101.19634023,0.0,0.0,81.7,24.2,27.1,0.904,100,True
,80,8000.0,2025-10-02 20:48:40.517000+00:00,2025-10-02 13:48:40.517,00:00:13.0,74920517,0.0,0.0,0.0,0.0,0.0,0.0,0.0,0.0,0.0,0.0,1.0,0.0,0.0,0.0,0.0,-0.001,0.0,0.0,0.0,0.0,0.0262102353448275,0.3088734655172414,1.173880517241379,-0.2966551293103448,-0.0265580155172413,0.9456511724137932,0.1915676034482758,0.006584798275862,0.1946517758620689,47.59798571,,0.067,-0.0285431034482758,952.703,954.833,-122.82527321,101.2305840700862,0.0,0.0,81.7,24.2,27.1,0.904,100,True
,81,8100.0,2025-10-02 20:48:40.617000+00:00,2025-10-02 13:48:40.617,00:00:13.1,74920617,0.0,0.0,0.0,0.0,0.0,0.0,0.0,0.0,0.0,0.0,1.0,0.0,0.0,0.0,0.0,-0.001,0.0,0.0,0.0,0.0,0.0259317701149425,0.3086442183908046,1.173693563218391,-0.2982868620689655,-0.0328242770114942,0.9454633218390804,0.0339829597701149,-0.2419672413793103,0.0650245551724138,47.59798571,,0.0675402298850574,-0.029,952.703,954.833,-122.82527321,101.25939238,0.0,0.0,81.7,24.2,27.1,0.904,100,True
,82,8200.0,2025-10-02 20:48:40.717000+00:00,2025-10-02 13:48:40.717,00:00:13.2,74920717,0.0,0.0,0.0,0.0,0.0,0.0,0.0,0.0,0.0,0.0,1.0,0.0,0.0,0.0,0.0,-0.001,0.0,0.0,0.0,0.0,0.0254890736842105,0.3089496315789474,1.1734431578947369,-0.3015640526315789,-0.0313773315789473,0.9458238421052632,0.3411901842105263,0.3813927368421053,0.1122943315789473,47.59798571,,0.068,-0.0283684210526315,952.703,954.833,-122.82527321,101.25939238,0.0,0.0,81.7,24.2,27.1,0.904,100,True
,83,8300.0,2025-10-02 20:48:40.817000+00:00,2025-10-02 13:48:40.817,00:00:13.3,74920817,0.0,0.0,0.0,0.0,0.0,0.0,0.0,0.0,0.0,0.0,1.0,0.0,0.0,0.0,0.0,-0.001,0.0,0.0,0.0,0.0,0.0251564134146341,0.3100822682926829,1.1732210975609756,-0.3058173780487805,-0.0095593054878048,0.9464753536585366,-1.0147891341463415,0.7608825609756098,-0.2260986951219512,47.59798571,,0.068,-0.0287926829268292,952.703,954.833,-122.82527321,101.25939238,0.0,0.0,81.7,24.2,27.1,0.904,100,True
,84,8400.0,2025-10-02 20:48:40.917000+00:00,2025-10-02 13:48:40.917,00:00:13.4,74920917,0.0,0.0,0.0,0.0,0.0,0.0,0.0,0.0,0.0,0.0,1.0,0.0,0.0,0.0,0.0,-0.001,0.0,0.0,0.0,0.0,0.0263635956834532,0.3095725395683453,1.1734706474820142,-0.2979295035971223,-0.0258300981294964,0.9457800215827338,-0.7061353956834533,1.2065110791366906,-0.1936205769784172,47.59798571,,0.068,-0.0284028776978417,952.703,954.833,-122.82527321,101.25939238,0.0,0.0,81.7,24.2,27.1,0.904,100,True
,85,8500.0,2025-10-02 20:48:41.017000+00:00,2025-10-02 13:48:41.017,00:00:13.5,74921017,0.0,0.0,0.0,0.0,0.0,0.0,0.0,0.0,0.0,0.0,1.0,0.0,0.0,0.0,0.0,-0.001,0.0,0.0,0.0,0.0,0.0267436021505376,0.3097422043010752,1.173499139784946,-0.2982008494623656,-0.0427103978494623,0.945467365591398,-0.1803339784946236,-0.038451182795699,-0.0522075595698924,47.59798571,,0.068,-0.0284731182795698,952.703,954.833,-122.82527321,101.25939238,0.0,0.0,81.7,24.2,27.1,0.904,100,True
,86,8600.0,2025-10-02 20:48:41.117000+00:00,2025-10-02 13:48:41.117,00:00:13.6,74921117,0.0,0.0,0.0,0.0,0.0,0.0,0.0,0.0,0.0,0.0,1.0,0.0,0.0,0.0,0.0,-0.001,0.0,0.0,0.0,0.0,0.0260321379310344,0.3097971379310344,1.173196896551724,-0.3004701034482758,-0.0329820379310344,0.9452870689655172,0.0711903103448275,-0.1295120689655173,0.046070144137931,47.59798571,,0.068,-0.0284137931034482,952.703,954.833,-122.82527321,101.25939238,0.0,0.0,81.7,24.2,27.1,0.904,100,True
,87,8700.0,2025-10-02 20:48:41.217000+00:00,2025-10-02 13:48:41.217,00:00:13.7,74921217,0.0,0.0,0.0,0.0,0.0,0.0,0.0,0.0,0.0,0.0,1.0,0.0,0.0,0.0,0.0,-0.001,0.0,0.0,0.0,0.0,0.0256870514285714,0.3095767714285714,1.1730734285714286,-0.2984658,-0.0220730428571428,0.9451632857142857,0.1193007622857142,0.7729564,0.02651982,47.59798571,,0.068,-0.0284571428571428,952.703,954.833,-122.82527321,101.25939238,0.0,0.0,81.7,24.2,27.1,0.904,100,True
,88,8800.0,2025-10-02 20:48:41.317000+00:00,2025-10-02 13:48:41.317,00:00:13.8,74921317,0.0,0.0,0.0,0.0,0.0,0.0,0.0,0.0,0.0,0.0,1.0,0.0,0.0,0.0,0.0,-0.001,0.0,0.0,0.0,0.0,0.0255708851851851,0.3101291111111111,1.173050740740741,-0.3010748518518518,-0.0237118037037037,0.945356037037037,-0.3180771298148148,0.2603348518518518,-0.0894410592592592,47.59798571,,0.0677037037037037,-0.029,952.703,954.833,-122.82527321,101.25939238,0.0,0.0,81.7,24.2,27.1,0.904,100,True
,89,8900.0,2025-10-02 20:48:41.417000+00:00,2025-10-02 13:48:41.417,00:00:13.9,74921417,0.0,0.0,0.0,0.0,0.0,0.0,0.0,0.0,0.0,0.0,1.0,0.0,0.0,0.0,0.0,-0.001,0.0,0.0,0.0,0.0,0.0263860978021978,0.3107768571428571,1.173161428571429,-0.3033195164835164,-0.0359240384615384,0.945210824175824,-0.6256598021978022,0.2641865824175823,-0.0610636813186813,47.59798571,,0.067,-0.029,952.703,954.833,-122.82527321,101.25939238,0.0,0.0,81.7,24.2,27.1,0.904,100,True
,90,9000.0,2025-10-02 20:48:41.517000+00:00,2025-10-02 13:48:41.517,00:00:14.0,74921517,0.0,0.0,0.0,0.0,0.0,0.0,0.0,0.0,0.0,0.0,1.0,0.0,0.0,0.0,0.0,-0.001,0.0,0.0,0.0,0.0,0.0268361084507042,0.3109861126760563,1.1731457746478873,-0.3021669859154929,-0.0348513535211267,0.945050661971831,-0.0770626028169014,0.3327706056338029,0.1125028873239436,47.59798571,,0.067,-0.029,952.703,954.833,-122.82527321,101.26136469239437,0.0,0.0,81.7,24.2,27.1,0.904,100,True
,91,9100.0,2025-10-02 20:48:41.617000+00:00,2025-10-02 13:48:41.617,00:00:14.1,74921617,0.0,0.0,0.0,0.0,0.0,0.0,0.0,0.0,0.0,0.0,1.0,0.0,0.0,0.0,0.0,-0.001,0.0,0.0,0.0,0.0,0.02658866124031,0.3111514418604651,1.1729868217054265,-0.3013746046511628,-0.0266511813953488,0.9449213410852714,0.0221414248062015,-0.4885274263565891,0.1122044263565891,47.59798571,,0.0670775193798449,-0.029,952.703,954.833,-122.82527321,101.26477831,0.0,0.0,81.7,24.2,27.1,0.904,100,True
,92,9200.0,2025-10-02 20:48:41.717000+00:00,2025-10-02 13:48:41.717,00:00:14.2,74921717,0.0,0.0,0.0,0.0,0.0,0.0,0.0,0.0,0.0,0.0,1.0,0.0,0.0,0.0,0.0,-0.001,0.0,0.0,0.0,0.0,0.0264782736434108,0.3107258604651163,1.17285503875969,-0.3022606511627907,-0.0308269953488372,0.9444647519379844,0.130253672868217,-0.2715816899224806,0.1004986899224806,47.59798571,,0.0678527131782945,-0.029,952.703,954.833,-122.82527321,101.26477831,0.0,0.0,81.7,24.2,27.1,0.904,100,True
,93,9300.0,2025-10-02 20:48:41.817000+00:00,2025-10-02 13:48:41.817,00:00:14.3,74921817,0.0,0.0,0.0,0.0,0.0,0.0,0.0,0.0,0.0,0.0,1.0,0.0,0.0,0.0,0.0,-0.001,0.0,0.0,0.0,0.0,0.026361214678899,0.3101760917431193,1.1727408256880734,-0.3038929449541284,-0.0334768605504587,0.9441662110091744,-0.0183020119266054,-0.3358448073394495,-0.0424722633027522,47.59798571,,0.068,-0.029,952.703,954.833,-122.82527321,101.26477831,0.0,0.0,81.7,24.2,27.1,0.904,100,True
,94,9400.0,2025-10-02 20:48:41.917000+00:00,2025-10-02 13:48:41.917,00:00:14.4,74921917,0.0,0.0,0.0,0.0,0.0,0.0,0.0,0.0,0.0,0.0,1.0,0.0,0.0,0.0,0.0,-0.001,0.0,0.0,0.0,0.0,0.0264549983193277,0.3090931260504201,1.172625294117647,-0.300745756302521,-0.0233747478991596,0.9438243613445376,-0.0693521873949579,-0.3290934789915966,-0.0071816680672269,47.59798571,,0.068,-0.029,952.703,954.833,-122.82527321,101.26477831,0.0,0.0,81.7,24.2,27.1,0.904,100,True
,95,9500.0,2025-10-02 20:48:42.017000+00:00,2025-10-02 13:48:42.017,00:00:14.5,74922017,0.0,0.0,0.0,0.0,0.0,0.0,0.0,0.0,0.0,0.0,1.0,0.0,0.0,0.0,0.0,-0.001,0.0,0.0,0.0,0.0,0.0268510988235294,0.3080611411764706,1.172601176470588,-0.2967123882352941,-0.0273008494117647,0.943998176470588,-0.0645196,-0.2572394352941176,0.0471683035294117,47.59798571,,0.0673764705882353,-0.029,952.703,954.833,-122.82527321,101.26477831,0.0,0.0,81.7,24.2,27.1,0.904,100,True
,96,9600.0,2025-10-02 20:48:42.117000+00:00,2025-10-02 13:48:42.117,00:00:14.6,74922117,0.0,0.0,0.0,0.0,0.0,0.0,0.0,0.0,0.0,0.0,1.0,0.0,0.0,0.0,0.0,-0.001,0.0,0.0,0.0,0.0,0.0269322412371134,0.3075612474226804,1.1725148453608247,-0.2971036391752577,-0.0269855731958762,0.9445272680412372,0.1438839958762886,-0.131423418556701,0.175385230927835,47.59798571,,0.067,-0.029,952.703,954.833,-122.82527321,101.26477831,0.0,0.0,81.7,24.2,27.1,0.904,100,True
,97,9700.0,2025-10-02 20:48:42.217000+00:00,2025-10-02 13:48:42.217,00:00:14.7,74922217,0.0,0.0,0.0,0.0,0.0,0.0,0.0,0.0,0.0,0.0,1.0,0.0,0.0,0.0,0.0,-0.001,0.0,0.0,0.0,0.0,0.0264028083333333,0.3075993095238095,1.1722925,-0.302359869047619,-0.0189266952380952,0.9453138333333332,0.0404284348809523,0.027671544047619,0.0676708749999999,47.59798571,,0.0678452380952381,-0.029,952.703,954.833,-122.82527321,101.26477831,0.0,0.0,81.7,24.2,27.1,0.904,100,True
,98,9800.0,2025-10-02 20:48:42.317000+00:00,2025-10-02 13:48:42.317,00:00:14.8,74922317,0.0,0.0,0.0,0.0,0.0,0.0,0.0,0.0,0.0,0.0,1.0,0.0,0.0,0.0,0.0,-0.001,0.0,0.0,0.0,0.0,0.02586824375,0.3076440312499999,1.172096875,-0.29931078125,-0.02133284375,0.94576740625,0.2579914465625,0.3659787,0.0124934021875,47.59798571,,0.068,-0.02809375,952.703,954.833,-122.82527321,101.26477831,0.0,0.0,81.7,24.2,27.1,0.904,100,True
,99,9900.0,2025-10-02 20:48:42.417000+00:00,2025-10-02 13:48:42.417,00:00:14.9,74922417,0.0,0.0,0.0,0.0,0.0,0.0,0.0,0.0,0.0,0.0,1.0,0.0,0.0,0.0,0.0,-0.001,0.0,0.0,0.0,0.0,0.0256387596899224,0.3081073488372093,1.1720024031007752,-0.2996286511627907,-0.0262377410852713,0.9461977441860464,-0.0110044496124031,0.4484082635658915,0.0352508158139534,47.59798571,,0.068,-0.0287054263565891,952.703,954.833,-122.82527321,101.26477831,0.0,0.0,81.7,24.2,27.1,0.904,100,True
,100,10000.0,2025-10-02 20:48:42.517000+00:00,2025-10-02 13:48:42.517,00:00:15.0,74922517,0.0,0.0,0.0,0.0,0.0,0.0,0.0,0.0,0.0,0.0,1.0,0.0,0.0,0.0,0.0,-0.001,0.0,0.0,0.0,0.0,0.02642535625,0.3079441458333333,1.1719829166666669,-0.3014554583333333,-0.0342165666666666,0.9459005833333334,-0.4163171249999999,0.19676211875,-0.0627655062499999,47.59798571,,0.068,-0.029,952.703,954.833,-122.82527321,101.26762602166666,0.0,0.0,81.7,24.2,27.1,0.904,100,True
,101,10100.0,2025-10-02 20:48:42.617000+00:00,2025-10-02 13:48:42.617,00:00:15.1,74922617,0.0,0.0,0.0,0.0,0.0,0.0,0.0,0.0,0.0,0.0,1.0,0.0,0.0,0.0,0.0,-0.001,0.0,0.0,0.0,0.0,0.0274069709677419,0.3076893870967742,1.171904838709677,-0.3012998709677419,-0.0325215677419354,0.9456484193548388,-0.5171689677419354,-0.3495418612903225,-0.0731193354838709,47.59798571,,0.068,-0.029,952.703,954.833,-122.82527321,101.26918767,0.0,0.0,81.7,24.2,27.1,0.904,100,True
,102,10200.0,2025-10-02 20:48:42.717000+00:00,2025-10-02 13:48:42.717,00:00:15.2,74922717,0.0,0.0,0.0,0.0,0.0,0.0,0.0,0.0,0.0,0.0,1.0,0.0,0.0,0.0,0.0,-0.001,0.0,0.0,0.0,0.0,0.0277979341463414,0.3078296951219512,1.1718254878048782,-0.3005521463414634,-0.0332863048780487,0.9459080609756098,0.0178197951219512,0.1126727926829268,0.0832923499999999,47.59798571,,0.068,-0.029,952.703,954.833,-122.82527321,101.26918767,0.0,0.0,81.7,24.2,27.1,0.904,100,True
,103,10300.0,2025-10-02 20:48:42.817000+00:00,2025-10-02 13:48:42.817,00:00:15.3,74922817,0.0,0.0,0.0,0.0,0.0,0.0,0.0,0.0,0.0,0.0,1.0,0.0,0.0,0.0,0.0,-0.001,0.0,0.0,0.0,0.0,0.028015820289855,0.3083030217391304,1.1718397826086957,-0.3007407971014493,-0.0351568333333333,0.9463297173913044,-0.1988683710144927,0.6048687971014493,0.0740657579710144,47.59798571,,0.068,-0.0283405797101449,952.703,954.833,-122.82527321,101.26918767,0.0,0.0,81.7,24.2,27.1,0.904,100,True
,104,10400.0,2025-10-02 20:48:42.917000+00:00,2025-10-02 13:48:42.917,00:00:15.4,74922917,0.0,0.0,0.0,0.0,0.0,0.0,0.0,0.0,0.0,0.0,1.0,0.0,0.0,0.0,0.0,-0.001,0.0,0.0,0.0,0.0,0.0281167,0.308537,1.17185,-0.30086,-0.0359433,0.946531,-0.343448,0.819308,0.0606226,47.59798571,,0.068,-0.028,952.703,954.833,-122.82527321,101.26918767,0.0,0.0,81.7,24.2,27.1,0.904,100,True
,105,10500.0,2025-10-02 20:48:43.017000+00:00,2025-10-02 13:48:43.017,00:00:15.5,74923017,0.0,0.0,0.0,0.0,0.0,0.0,0.0,0.0,0.0,0.0,1.0,0.0,0.0,0.0,0.0,-0.001,0.0,0.0,0.0,0.0,0.0290467123595505,0.3100358651685393,1.172068764044944,-0.3021997640449438,-0.0150350125842696,0.946804786516854,-0.6208096516853933,-0.5725073033707867,0.0992028988764044,47.59798571,,0.0673370786516854,-0.0299887640449438,952.703,954.833,-122.82527321,101.26918767,0.0,0.0,81.7,24.2,27.1,0.904,100,True
,106,10600.0,2025-10-02 20:48:43.117000+00:00,2025-10-02 13:48:43.117,00:00:15.6,74923117,0.0,0.0,0.0,0.0,0.0,0.0,0.0,0.0,0.0,0.0,1.0,0.0,0.0,0.0,0.0,-0.001,0.0,0.0,0.0,0.0,0.030988831707317,0.3047737317073171,1.1721373170731706,-0.2861117317073171,0.0250945590243902,0.942259975609756,0.9895513170731708,-4.305234390243903,2.335677317073171,47.59798571,,0.0678536585365853,-0.0301463414634146,952.703,954.833,-122.82527321,101.26918767,0.0,0.0,81.7,24.2,27.1,0.904,100,True
,107,10700.0,2025-10-02 20:48:43.217000+00:00,2025-10-02 13:48:43.217,00:00:15.7,74923217,0.0,0.0,0.0,0.0,0.0,0.0,0.0,0.0,0.0,0.0,1.0,0.0,0.0,0.0,0.0,-0.001,0.0,0.0,0.0,0.0,0.0323478377777777,0.3008986,1.172491777777778,-0.2901850888888889,0.0213715422222222,0.9424650888888888,-0.9184145333333332,0.0023104444444452,-0.5754870666666667,47.59798571,,0.0670222222222222,-0.0280444444444444,952.703,954.833,-122.82527321,101.26918767,0.0,0.0,81.7,24.2,27.1,0.904,100,True
,108,10800.0,2025-10-02 20:48:43.317000+00:00,2025-10-02 13:48:43.317,00:00:15.8,74923317,0.0,0.0,0.0,0.0,0.0,0.0,0.0,0.0,0.0,0.0,1.0,0.0,0.0,0.0,0.0,-0.001,0.0,0.0,0.0,0.0,0.0327136666666666,0.3024509462365591,1.1728093548387095,-0.2894686451612903,0.007092576344086,0.9456755806451612,1.1067764516129033,0.2826329032258065,0.5773733333333333,47.59798571,,0.068,-0.0280860215053763,952.703,954.833,-122.82527321,101.26918767,0.0,0.0,81.7,24.2,27.1,0.904,100,True
,109,10900.0,2025-10-02 20:48:43.417000+00:00,2025-10-02 13:48:43.417,00:00:15.9,74923417,0.0,0.0,0.0,0.0,0.0,0.0,0.0,0.0,0.0,0.0,1.0,0.0,0.0,0.0,0.0,-0.001,0.0,0.0,0.0,0.0,0.0319203396946564,0.3032338244274809,1.1725567938931298,-0.2926384961832061,-0.0260598038167938,0.947161893129771,0.9297040076335878,0.6588924427480916,0.5728219541984734,47.59798571,,0.0678854961832061,-0.0288854961832061,952.703,954.833,-122.82527321,101.26559614557252,0.0,0.0,81.7,24.2,27.1,0.904,100,True
,110,11000.0,2025-10-02 20:48:43.517000+00:00,2025-10-02 13:48:43.517,00:00:16.0,74923517,0.0,0.0,0.0,0.0,0.0,0.0,0.0,0.0,0.0,0.0,1.0,0.0,0.0,0.0,0.0,-0.001,0.0,0.0,0.0,0.0,0.0315992709923664,0.304419320610687,1.172335419847328,-0.2941751374045801,-0.0268531625954198,0.9483878473282442,-0.2880692748091602,1.8834420610687024,0.1307016488549618,47.59798571,,0.0671221374045801,-0.0281221374045801,952.703,954.833,-122.82527321,101.24165264938932,0.0,0.0,81.7,24.2,27.1,0.904,100,True
,111,11100.0,2025-10-02 20:48:43.617000+00:00,2025-10-02 13:48:43.617,00:00:16.1,74923617,0.0,0.0,0.0,0.0,0.0,0.0,0.0,0.0,0.0,0.0,1.0,0.0,0.0,0.0,0.0,-0.001,0.0,0.0,0.0,0.0,0.0338325212765957,0.305122829787234,1.1729791489361705,-0.2988024042553191,-0.0313412191489361,0.9482882127659574,-2.161033723404256,-0.0599616595744678,-1.1524367659574468,47.59798571,,0.067,-0.0288936170212766,952.703,954.833,-122.82527321,101.23782169,0.0,0.0,81.7,24.2,27.1,0.904,100,True
,112,11200.0,2025-10-02 20:48:43.717000+00:00,2025-10-02 13:48:43.717,00:00:16.2,74923717,0.0,0.0,0.0,0.0,0.0,0.0,0.0,0.0,0.0,0.0,1.0,0.0,0.0,0.0,0.0,-0.001,0.0,0.0,0.0,0.0,0.0352808178807947,0.3045802251655629,1.1735249006622517,-0.2989938013245033,-0.0268774993377483,0.9477195562913908,-1.1314320529801325,-0.6835092980132449,-0.6469396026490066,47.59798571,,0.0675960264900662,-0.029,952.703,954.833,-122.82527321,101.23782169,0.0,0.0,81.7,24.2,27.1,0.904,100,True
,113,11300.0,2025-10-02 20:48:43.817000+00:00,2025-10-02 13:48:43.817,00:00:16.3,74923817,0.0,0.0,0.0,0.0,0.0,0.0,0.0,0.0,0.0,0.0,1.0,0.0,0.0,0.0,0.0,-0.001,0.0,0.0,0.0,0.0,0.0360976,0.3034105,1.17375875,-0.2977814583333333,-0.010495117,0.9467838333333334,-0.2027610416666666,-1.0070936666666666,0.0142675416666666,47.59798571,,0.068,-0.029,952.703,954.833,-122.82527321,101.23782169,0.0,0.0,81.7,24.2,27.1,0.904,100,True
,114,11400.0,2025-10-02 20:48:43.917000+00:00,2025-10-02 13:48:43.917,00:00:16.4,74923917,0.0,0.0,0.0,0.0,0.0,0.0,0.0,0.0,0.0,0.0,1.0,0.0,0.0,0.0,0.0,-0.001,0.0,0.0,0.0,0.0,0.0358370726315789,0.3019531263157894,1.1737111578947368,-0.2939793684210526,-0.0322018973473684,0.946070905263158,2.025500442105263,-0.5186198736842106,0.948670105263158,47.59798571,,0.068,-0.029,952.703,954.833,-122.82527321,101.23782169,0.0,0.0,81.7,24.2,27.1,0.904,100,True
,115,11500.0,2025-10-02 20:48:44.017000+00:00,2025-10-02 13:48:44.017,00:00:16.5,74924017,0.0,0.0,0.0,0.0,0.0,0.0,0.0,0.0,0.0,0.0,1.0,0.0,0.0,0.0,0.0,-0.001,0.0,0.0,0.0,0.0,0.0333762112781954,0.3018836766917293,1.1728646616541354,-0.2920941654135338,-0.0265578481203007,0.946420992481203,1.8884869924812029,-0.0285153082706766,0.7405237593984962,47.59798571,,0.0674586466165413,-0.0284586466165413,952.703,954.833,-122.82527321,101.23782169,0.0,0.0,81.7,24.2,27.1,0.904,100,True
,116,11600.0,2025-10-02 20:48:44.117000+00:00,2025-10-02 13:48:44.117,00:00:16.6,74924117,0.0,0.0,0.0,0.0,0.0,0.0,0.0,0.0,0.0,0.0,1.0,0.0,0.0,0.0,0.0,-0.001,0.0,0.0,0.0,0.0,0.0304140225806451,0.3024476451612903,1.1718170967741934,-0.2926377419354838,-0.0151977903225806,0.9472798387096776,1.0146164516129033,0.1626652580645161,0.3290214516129032,47.59798571,,0.067,-0.028,952.703,954.833,-122.82527321,101.23782169,0.0,0.0,81.7,24.2,27.1,0.904,100,True
,117,11700.0,2025-10-02 20:48:44.217000+00:00,2025-10-02 13:48:44.217,00:00:16.7,74924217,0.0,0.0,0.0,0.0,0.0,0.0,0.0,0.0,0.0,0.0,1.0,0.0,0.0,0.0,0.0,-0.001,0.0,0.0,0.0,0.0,0.0283477795698924,0.3032705913978494,1.1711078494623657,-0.2940802365591398,-0.0190648698924731,0.9481433655913978,0.7616012903225806,0.3286198817204301,0.216533152688172,47.59798571,,0.067,-0.0284946236559139,952.703,954.833,-122.82527321,101.23782169,0.0,0.0,81.7,24.2,27.1,0.904,100,True
,118,11800.0,2025-10-02 20:48:44.317000+00:00,2025-10-02 13:48:44.317,00:00:16.8,74924317,0.0,0.0,0.0,0.0,0.0,0.0,0.0,0.0,0.0,0.0,1.0,0.0,0.0,0.0,0.0,-0.001,0.0,0.0,0.0,0.0,0.0274758607142857,0.3040702023809524,1.1707516666666669,-0.29489875,-0.0247895726190476,0.948422238095238,0.1474739238095238,0.4512721904761905,0.0915898535714285,47.59798571,,0.0676309523809523,-0.0283690476190476,952.703,954.833,-122.82527321,101.23782169,0.0,0.0,81.7,24.2,27.1,0.904,100,True
,119,11900.0,2025-10-02 20:48:44.417000+00:00,2025-10-02 13:48:44.417,00:00:16.9,74924417,0.0,0.0,0.0,0.0,0.0,0.0,0.0,0.0,0.0,0.0,1.0,0.0,0.0,0.0,0.0,-0.001,0.0,0.0,0.0,0.0,0.0275031925531914,0.3048896808510638,1.1706632978723404,-0.2982609468085106,-0.027139594680851,0.9485091063829788,-0.225433329787234,0.6038803191489361,-0.0320033819148936,47.59798571,,0.068,-0.028,952.703,954.833,-122.82527321,101.23782169,0.0,0.0,81.7,24.2,27.1,0.904,100,True
,120,12000.0,2025-10-02 20:48:44.517000+00:00,2025-10-02 13:48:44.517,00:00:17.0,74924517,0.0,0.0,0.0,0.0,0.0,0.0,0.0,0.0,0.0,0.0,1.0,0.0,0.0,0.0,0.0,-0.001,0.0,0.0,0.0,0.0,0.0285368655172413,0.3056691379310345,1.170856896551724,-0.2980703103448275,-0.0389869103448275,0.9483352068965516,-1.038958896551724,0.1920482758620689,-0.3759586689655172,47.59798571,,0.0671379310344827,-0.0297241379310344,952.703,954.833,-122.82527321,101.23782169,0.0,0.0,81.7,24.2,27.1,0.904,100,True
,121,12100.0,2025-10-02 20:48:44.617000+00:00,2025-10-02 13:48:44.617,00:00:17.1,74924617,0.0,0.0,0.0,0.0,0.0,0.0,0.0,0.0,0.0,0.0,1.0,0.0,0.0,0.0,0.0,-0.001,0.0,0.0,0.0,0.0,0.0291509666666666,0.305671,1.1709633333333334,-0.3012809999999999,-0.0388998,0.9478036666666666,-0.4294930666666666,0.0708396,-0.111561,47.59798571,,0.0676666666666666,-0.0293333333333333,952.703,954.833,-122.82527321,101.26342853,0.0,0.0,81.7,24.2,27.1,0.904,100,True
,122,12200.0,2025-10-02 20:48:44.717000+00:00,2025-10-02 13:48:44.717,00:00:17.2,74924717,0.0,0.0,0.0,0.0,0.0,0.0,0.0,0.0,0.0,0.0,1.0,0.0,0.0,0.0,0.0,-0.001,0.0,0.0,0.0,0.0,0.02954378,0.3040604,1.17096,-0.299016,-0.02956658,0.9464522,0.28977184,-0.31290036,0.2415254,47.59798571,,0.0676,-0.029,952.703,954.833,-122.82527321,101.27623195,0.0,0.0,81.7,24.2,27.1,0.904,100,True
,123,12300.0,2025-10-02 20:48:44.817000+00:00,2025-10-02 13:48:44.817,00:00:17.3,74924817,0.0,0.0,0.0,0.0,0.0,0.0,0.0,0.0,0.0,0.0,1.0,0.0,0.0,0.0,0.0,-0.001,0.0,0.0,0.0,0.0,0.0296441266666666,0.3015194666666666,1.1708324444444445,-0.2926078222222222,-0.0141684528888888,0.9448246444444444,0.6659213555555555,-0.8689684666666667,0.4765650666666667,47.59798571,,0.067,-0.029,952.703,954.833,-122.82527321,101.27623195,0.0,0.0,81.7,24.2,27.1,0.904,100,True
,124,12400.0,2025-10-02 20:48:44.917000+00:00,2025-10-02 13:48:44.917,00:00:17.4,74924917,0.0,0.0,0.0,0.0,0.0,0.0,0.0,0.0,0.0,0.0,1.0,0.0,0.0,0.0,0.0,-0.001,0.0,0.0,0.0,0.0,0.0290135133333333,0.3003499333333333,1.17052,-0.2911532,-0.0056391271111111,0.9450998222222222,0.0081504,-0.6463819622222222,0.1853207555555555,47.59798571,,0.0672888888888889,-0.029,952.703,954.833,-122.82527321,101.27623195,0.0,0.0,81.7,24.2,27.1,0.904,100,True
,125,12500.0,2025-10-02 20:48:45.017000+00:00,2025-10-02 13:48:45.017,00:00:17.5,74925017,0.0,0.0,0.0,0.0,0.0,0.0,0.0,0.0,0.0,0.0,1.0,0.0,0.0,0.0,0.0,-0.001,0.0,0.0,0.0,0.0,0.0289244428571428,0.299336,1.17043,-0.2915415714285714,-0.0177030428571428,0.9457565714285716,0.4337447142857142,-0.0689807714285714,0.2324207142857142,47.59798571,,0.0675714285714285,-0.029,952.703,954.833,-122.82527321,101.27623195,0.0,0.0,81.7,24.2,27.1,0.904,100,True
,126,12600.0,2025-10-02 20:48:45.117000+00:00,2025-10-02 13:48:45.117,00:00:17.6,74925117,0.0,0.0,0.0,0.0,0.0,0.0,0.0,0.0,0.0,0.0,1.0,0.0,0.0,0.0,0.0,-0.001,0.0,0.0,0.0,0.0,0.0285779247191011,0.2990232808988764,1.1702515730337075,-0.2895204606741572,-0.0227640752808988,0.9467897078651686,0.1188066853932584,0.0550386179775281,0.0097272696629213,47.59798571,,0.0675842696629213,-0.029,952.703,954.833,-122.82527321,101.27623195,0.0,0.0,81.7,24.2,27.1,0.904,100,True
,127,12700.0,2025-10-02 20:48:45.217000+00:00,2025-10-02 13:48:45.217,00:00:17.7,74925217,0.0,0.0,0.0,0.0,0.0,0.0,0.0,0.0,0.0,0.0,1.0,0.0,0.0,0.0,0.0,-0.001,0.0,0.0,0.0,0.0,0.0287030461538461,0.2995215384615385,1.1701823076923077,-0.2884111538461538,-0.0227847615384615,0.9480318461538462,-0.311172923076923,0.4512627692307692,-0.1222320538461538,47.59798571,,0.068,-0.0283076923076923,952.703,954.833,-122.82527321,101.27623195,0.0,0.0,81.7,24.2,27.1,0.904,100,True
,128,12800.0,2025-10-02 20:48:45.317000+00:00,2025-10-02 13:48:45.317,00:00:17.8,74925317,0.0,0.0,0.0,0.0,0.0,0.0,0.0,0.0,0.0,0.0,1.0,0.0,0.0,0.0,0.0,-0.001,0.0,0.0,0.0,0.0,0.0285651659574468,0.3009134468085107,1.1700244680851064,-0.2911959787234042,-0.0217876957446808,0.9494090638297872,-0.160384,0.8616083404255319,0.118885844680851,47.59798571,,0.068,-0.028,952.703,954.833,-122.82527321,101.27623195,0.0,0.0,81.7,24.2,27.1,0.904,100,True
,129,12900.0,2025-10-02 20:48:45.417000+00:00,2025-10-02 13:48:45.417,00:00:17.9,74925417,0.0,0.0,0.0,0.0,0.0,0.0,0.0,0.0,0.0,0.0,1.0,0.0,0.0,0.0,0.0,-0.001,0.0,0.0,0.0,0.0,0.0287556831578947,0.3024103052631579,1.1700046315789474,-0.295816147368421,-0.0142542526315789,0.950155947368421,-0.1893160421052631,0.5571248210526316,0.0749329136842105,47.59798571,,0.068,-0.0288210526315789,952.703,954.833,-122.82527321,101.27623195,0.0,0.0,81.7,24.2,27.1,0.904,100,True
