ride_id,sample_idx,_elapsed_ms,ts_utc,ts_pst,video_ts_anchor,ms_today,cf_accel,cf_brake,cf_cruise,cf_turn_left,cf_turn_right,cf_carve_left,cf_carve_right,cf_ascent,cf_descent,cf_traction_loss,cf_idle,cf_forward,cf_reverse,speed_meters_per_sec,erpm,duty_cycle,current_in,current_motor,d_axis_current,q_axis_current,roll,pitch,yaw,accX,accY,accZ,gyroX,gyroY,gyroZ,gnss_lat,fault_code,d_axis_voltage,q_axis_voltage,tacho_meters,tacho_abs_meters,gnss_lon,gnss_alt,gnss_gVel,gnss_vVel,input_voltage,temp_mos_max,temp_motor,battery_level,dt_ms,_on_grid
ride_53,0,0.0,2025-10-02 21:01:31.678000+00:00,2025-10-02 14:01:31.678,00:00:03.8,75691678,0.0,0.0,0.0,0.0,0.0,0.0,0.0,0.0,0.0,0.0,1.0,0.0,0.0,0.0,0.0,0.001,0.23,1.23,0.01,0.93,-0.00107819,0.399302,0.500971,-0.380859,-2.21115e-05,0.915828,-0.0584018,0.0498111,0.113762,47.5965792,0.0,-0.091,0.519,2947.66,2966.48,-122.82085904,114.64025439,0.0,0.0,80.9,27.2,33.7,0.853,100,True
,1,100.0,2025-10-02 21:01:31.778000+00:00,2025-10-02 14:01:31.778,00:00:03.9,75691778,0.0,0.0,0.0,0.0,0.0,0.0,0.0,0.0,0.0,0.0,1.0,0.0,0.0,0.0,0.0,0.001,0.0,0.0,0.0,0.0,0.0617257781609195,0.3465804712643678,-1.818131264367816,-0.3343655977011494,-0.0573646413793103,0.9335070459770116,0.1956124367816092,0.1468682298850574,0.319877275862069,47.5965792,,-0.0039080459770114,0.0740919540229885,2947.66,2966.48,-122.82085904,114.64025439,0.0,0.0,80.9,27.2,33.7,0.853,100,True
,2,200.0,2025-10-02 21:01:31.878000+00:00,2025-10-02 14:01:31.878,00:00:04.0,75691878,0.0,0.0,0.0,0.0,0.0,0.0,0.0,0.0,0.0,0.0,1.0,0.0,0.0,0.0,0.0,0.001,0.0,0.0,0.0,0.0,0.0615116533333333,0.3464966333333333,-1.818493666666667,-0.3328016,-0.0558965833333333,0.9334829333333332,-0.2361199333333333,-0.2367184066666666,-0.0668190666666666,47.5965792,,-0.003,0.075,2947.66,2966.48,-122.82085904,114.64025439,0.0,0.0,80.9,27.2,33.7,0.853,100,True
,3,300.0,2025-10-02 21:01:31.978000+00:00,2025-10-02 14:01:31.978,00:00:04.1,75691978,0.0,0.0,0.0,0.0,0.0,0.0,0.0,0.0,0.0,0.0,1.0,0.0,0.0,0.0,0.0,0.001,0.0,0.0,0.0,0.0,0.0615755651006711,0.3463304295302013,-1.818713691275168,-0.336124288590604,-0.0529059093959731,0.933482067114094,0.0240746174496644,-0.0773432738255033,0.221960255033557,47.5965792,,-0.003,0.0747919463087248,2947.66,2966.48,-122.82085904,114.64025439,0.0,0.0,80.9,27.2,33.7,0.853,100,True
,4,400.0,2025-10-02 21:01:32.078000+00:00,2025-10-02 14:01:32.078,00:00:04.2,75692078,0.0,0.0,0.0,0.0,0.0,0.0,0.0,0.0,0.0,0.0,1.0,0.0,0.0,0.0,0.0,0.001,0.0,0.0,0.0,0.0,0.0615893234899328,0.3459995570469799,-1.8188546308724836,-0.3354316711409396,-0.0599533590604026,0.9333209932885906,0.2703927382550335,-0.2640260926174496,0.3437481744966443,47.5965792,,-0.003,0.0741208053691275,2947.66,2966.48,-122.82085904,114.64025439,0.0,0.0,80.9,27.2,33.7,0.853,100,True
,5,500.0,2025-10-02 21:01:32.178000+00:00,2025-10-02 14:01:32.178,00:00:04.3,75692178,0.0,0.0,0.0,0.0,0.0,0.0,0.0,0.0,0.0,0.0,1.0,0.0,0.0,0.0,0.0,0.001,0.0,0.0,0.0,0.0,0.0604909163934426,0.3457954918032787,-1.8195252459016396,-0.3356282786885246,-0.0603522295081967,0.9333538360655738,0.5449638196721311,-0.2042256229508196,0.2972813278688525,47.5965792,,-0.003,0.0746721311475409,2947.66,2966.48,-122.82085904,114.64025439,0.0,0.0,80.9,27.2,33.7,0.853,100,True
,6,600.0,2025-10-02 21:01:32.278000+00:00,2025-10-02 14:01:32.278,00:00:04.4,75692278,0.0,0.0,0.0,0.0,0.0,0.0,0.0,0.0,0.0,0.0,1.0,0.0,0.0,0.0,0.0,0.001,0.0,0.0,0.0,0.0,0.0590778999999999,0.3456779032258064,-1.820375483870968,-0.3342275806451613,-0.0564307741935483,0.9335504516129032,0.2894712580645161,-0.0689428709677419,0.2045984193548387,47.5965792,,-0.003,0.075,2947.66,2966.48,-122.82085904,114.64025439,0.0,0.0,80.9,27.2,33.7,0.853,100,True
,7,700.0,2025-10-02 21:01:32.378000+00:00,2025-10-02 14:01:32.378,00:00:04.5,75692378,0.0,0.0,0.0,0.0,0.0,0.0,0.0,0.0,0.0,0.0,1.0,0.0,0.0,0.0,0.0,0.001,0.0,0.0,0.0,0.0,0.0584199747126436,0.3457089885057471,-1.8209164367816093,-0.3355912413793103,-0.0542145022988505,0.9338360689655172,0.1455932873563218,0.1426200574712643,0.2193038045977011,47.5965792,,-0.0037701149425287,0.075,2947.66,2966.48,-122.82085904,114.64025439,0.0,0.0,80.9,27.2,33.7,0.853,100,True
,8,800.0,2025-10-02 21:01:32.478000+00:00,2025-10-02 14:01:32.478,00:00:04.6,75692478,0.0,0.0,0.0,0.0,0.0,0.0,0.0,0.0,0.0,0.0,1.0,0.0,0.0,0.0,0.0,0.001,0.0,0.0,0.0,0.0,0.0584580666666666,0.3458246666666666,-1.8211944444444448,-0.3341917777777778,-0.0543710111111111,0.9339437777777776,-0.2817344444444444,0.1279452222222222,0.1481725555555555,47.5965792,,-0.0031111111111111,0.0741111111111111,2947.66,2966.48,-122.82085904,114.64025439,0.0,0.0,80.9,27.2,33.7,0.853,100,True
ride_53,9,900.0,2025-10-02 21:01:32.578000+00:00,2025-10-02 14:01:32.578,00:00:04.7,75692578,0.0,0.0,0.0,0.0,0.0,0.0,0.0,0.0,0.0,0.0,1.0,0.0,0.0,0.0,0.0,0.001,0.0,0.0,0.0,0.0,0.0591857,0.346219,-1.82125,-0.336356,-0.050178,0.934267,-0.774077,0.398278,-0.037831,47.5965792,0.0,-0.003,0.075,2947.66,2966.48,-122.82085904,114.62352559,0.0,0.0,80.9,27.2,33.7,0.853,100,True
,10,1000.0,2025-10-02 21:01:32.678000+00:00,2025-10-02 14:01:32.678,00:00:04.8,75692678,0.0,0.0,0.0,0.0,0.0,0.0,0.0,0.0,0.0,0.0,1.0,0.0,0.0,0.0,0.0,0.001,0.0,0.0,0.0,0.0,0.0600438406896551,0.3465080137931035,-1.821212206896552,-0.3366316827586207,-0.0439655358620689,0.9342679103448276,-0.2219945379310344,0.1053450827586206,0.2094501931034482,47.5965792,,-0.003,0.075,2947.66,2966.48,-122.82085904,114.62352559,0.0,0.0,80.9,27.2,33.7,0.853,100,True
,11,1100.0,2025-10-02 21:01:32.778000+00:00,2025-10-02 14:01:32.778,00:00:04.9,75692778,0.0,0.0,0.0,0.0,0.0,0.0,0.0,0.0,0.0,0.0,1.0,0.0,0.0,0.0,0.0,0.001,0.0,0.0,0.0,0.0,0.0603705993103448,0.3467831862068966,-1.8212397931034483,-0.3341027172413793,-0.053150984137931,0.9342292896551724,0.2715737379310344,-0.0867038827586207,0.3135026068965517,47.5965792,,-0.003,0.075,2947.66,2966.48,-122.82085904,114.62352559,0.0,0.0,80.9,27.2,33.7,0.853,100,True
,12,1200.0,2025-10-02 21:01:32.878000+00:00,2025-10-02 14:01:32.878,00:00:05.0,75692878,0.0,0.0,0.0,0.0,0.0,0.0,0.0,0.0,0.0,0.0,1.0,0.0,0.0,0.0,0.0,0.001,0.0,0.0,0.0,0.0,0.0601923965116279,0.3471333372093023,-1.8215137209302328,-0.3346101395348837,-0.0551625011627906,0.9341292906976744,0.2408994418604651,0.2515870930232558,0.2635690465116279,47.5965792,,-0.0037325581395348,0.0742674418604651,2947.66,2966.48,-122.82085904,114.62352559,0.0,0.0,80.9,27.2,33.7,0.853,100,True
,13,1300.0,2025-10-02 21:01:32.978000+00:00,2025-10-02 14:01:32.978,00:00:05.1,75692978,0.0,0.0,0.0,0.0,0.0,0.0,0.0,0.0,0.0,0.0,1.0,0.0,0.0,0.0,0.0,0.001,0.0,0.0,0.0,0.0,0.0602490010869565,0.3472733804347826,-1.821827608695652,-0.3358500869565217,-0.0577675695652173,0.9336368369565218,-0.0755411086956522,0.1077250228260869,0.196403,47.5965792,,-0.0031630434782608,0.074,2947.66,2966.48,-122.82085904,114.62352559,0.0,0.0,80.9,27.2,33.7,0.853,100,True
,14,1400.0,2025-10-02 21:01:33.078000+00:00,2025-10-02 14:01:33.078,00:00:05.2,75693078,0.0,0.0,0.0,0.0,0.0,0.0,0.0,0.0,0.0,0.0,1.0,0.0,0.0,0.0,0.0,0.001,0.0,0.0,0.0,0.0,0.0603303,0.3473245909090909,-1.822096363636364,-0.3350417045454545,-0.0563929272727272,0.9333783409090908,0.0873193409090909,-0.0863953272727272,0.1742401818181818,47.5965792,,-0.003,0.0749772727272727,2947.66,2966.48,-122.82085904,114.62352559,0.0,0.0,80.9,27.2,33.7,0.853,100,True
,15,1500.0,2025-10-02 21:01:33.178000+00:00,2025-10-02 14:01:33.178,00:00:05.3,75693178,0.0,0.0,0.0,0.0,0.0,0.0,0.0,0.0,0.0,0.0,1.0,0.0,0.0,0.0,0.0,0.001,0.0,0.0,0.0,0.0,0.0601779155555555,0.3475478888888889,-1.822427555555556,-0.3397683333333333,-0.05621806,0.933408,0.1041452844444444,0.0619917911111111,0.2399209333333333,47.5965792,,-0.003,0.0741555555555555,2947.66,2966.48,-122.82085904,114.62352559,0.0,0.0,80.9,27.2,33.7,0.853,100,True
,16,1600.0,2025-10-02 21:01:33.278000+00:00,2025-10-02 14:01:33.278,00:00:05.4,75693278,0.0,0.0,0.0,0.0,0.0,0.0,0.0,0.0,0.0,0.0,1.0,0.0,0.0,0.0,0.0,0.001,0.0,0.0,0.0,0.0,0.0599974903225806,0.3474712580645161,-1.822838064516129,-0.3394316451612903,-0.0598833451612903,0.9332443870967742,0.1810253548387096,0.0487765483870967,0.2333107741935483,47.5965792,,-0.003,0.0747419354838709,2947.66,2966.48,-122.82085904,114.62352559,0.0,0.0,80.9,27.2,33.7,0.853,100,True
,17,1700.0,2025-10-02 21:01:33.378000+00:00,2025-10-02 14:01:33.378,00:00:05.5,75693378,0.0,0.0,0.0,0.0,0.0,0.0,0.0,0.0,0.0,0.0,1.0,0.0,0.0,0.0,0.0,0.001,0.0,0.0,0.0,0.0,0.0594717176470588,0.3476051647058823,-1.8232658823529413,-0.336868294117647,-0.0573867047058823,0.933283211764706,0.1796674976470588,-0.0315753176470588,0.2086232235294117,47.5965792,,-0.0033647058823529,0.0743647058823529,2947.66,2966.48,-122.82085904,114.62352559,0.0,0.0,80.9,27.2,33.7,0.853,100,True
,18,1800.0,2025-10-02 21:01:33.478000+00:00,2025-10-02 14:01:33.478,00:00:05.6,75693478,0.0,0.0,0.0,0.0,0.0,0.0,0.0,0.0,0.0,0.0,1.0,0.0,0.0,0.0,0.0,0.001,0.0,0.0,0.0,0.0,0.0591282977777777,0.3477851111111111,-1.8236477777777775,-0.3357557111111111,-0.0535016311111111,0.9333829333333332,-0.0553830533333333,0.0831923733333333,0.1834272666666666,47.5965792,,-0.004,0.075,2947.66,2966.48,-122.82085904,114.62352559,0.0,0.0,80.9,27.2,33.7,0.853,100,True
,19,1900.0,2025-10-02 21:01:33.578000+00:00,2025-10-02 14:01:33.578,00:00:05.7,75693578,0.0,0.0,0.0,0.0,0.0,0.0,0.0,0.0,0.0,0.0,1.0,0.0,0.0,0.0,0.0,0.001,0.0,0.0,0.0,0.0,0.059160903030303,0.3479652929292929,-1.8238831313131316,-0.3388916464646465,-0.0537113696969696,0.9334151313131314,-0.1163198464646464,0.0593666343434343,0.149267505050505,47.5965792,,-0.0034343434343434,0.0744343434343434,2947.66,2966.48,-122.82085904,114.6151615318182,0.0,0.0,80.9,27.2,33.7,0.853,100,True
,20,2000.0,2025-10-02 21:01:33.678000+00:00,2025-10-02 14:01:33.678,00:00:05.8,75693678,0.0,0.0,0.0,0.0,0.0,0.0,0.0,0.0,0.0,0.0,1.0,0.0,0.0,0.0,0.0,0.001,0.0,0.0,0.0,0.0,0.0595237105882352,0.3481628,-1.8240169411764704,-0.3407314117647059,-0.0568238988235294,0.933442905882353,-0.1986863105882353,0.026055814117647,0.1263125882352941,47.5965792,,-0.003,0.074,2947.66,2966.48,-122.82085904,114.60873913,0.0,0.0,80.9,27.2,33.7,0.853,100,True
,21,2100.0,2025-10-02 21:01:33.778000+00:00,2025-10-02 14:01:33.778,00:00:05.9,75693778,0.0,0.0,0.0,0.0,0.0,0.0,0.0,0.0,0.0,0.0,1.0,0.0,0.0,0.0,0.0,0.001,0.0,0.0,0.0,0.0,0.0600771957446808,0.3482594468085106,-1.824085957446809,-0.3393351063829787,-0.0607987021276595,0.9333967021276596,-0.3210097446808511,0.1408930340425532,0.135870085106383,47.5965792,,-0.0037659574468085,0.0747659574468085,2947.66,2966.48,-122.82085904,114.60873913,0.0,0.0,80.9,27.2,33.7,0.853,100,True
,22,2200.0,2025-10-02 21:01:33.878000+00:00,2025-10-02 14:01:33.878,00:00:06.0,75693878,0.0,0.0,0.0,0.0,0.0,0.0,0.0,0.0,0.0,0.0,1.0,0.0,0.0,0.0,0.0,0.001,0.0,0.0,0.0,0.0,0.0601908086956521,0.3483007391304348,-1.824241304347826,-0.3381727391304348,-0.0594789956521739,0.9333228260869564,-0.0614332608695651,0.2293693913043478,0.1121898869565217,47.5965792,,-0.0034347826086956,0.075,2947.66,2966.48,-122.82085904,114.60873913,0.0,0.0,80.9,27.2,33.7,0.853,100,True
,23,2300.0,2025-10-02 21:01:33.978000+00:00,2025-10-02 14:01:33.978,00:00:06.1,75693978,0.0,0.0,0.0,0.0,0.0,0.0,0.0,0.0,0.0,0.0,1.0,0.0,0.0,0.0,0.0,0.001,0.0,0.0,0.0,0.0,0.0599504470588235,0.3484258235294117,-1.8245335294117648,-0.3401697058823529,-0.055406994117647,0.9332754705882352,0.0851645058823529,0.2267315294117647,0.0993544823529411,47.5965792,,-0.003,0.075,2947.66,2966.48,-122.82085904,114.60873913,0.0,0.0,80.9,27.2,33.7,0.853,100,True
,24,2400.0,2025-10-02 21:01:34.078000+00:00,2025-10-02 14:01:34.078,00:00:06.2,75694078,0.0,0.0,0.0,0.0,0.0,0.0,0.0,0.0,0.0,0.0,1.0,0.0,0.0,0.0,0.0,0.001,0.0,0.0,0.0,0.0,0.0596155285714285,0.3485735,-1.8249036904761904,-0.341550869047619,-0.0538515309523809,0.9331666547619047,0.0153359678571428,0.1443771309523809,0.1523357023809524,47.5965792,,-0.0036547619047619,0.074345238095238,2947.66,2966.48,-122.82085904,114.60873913,0.0,0.0,80.9,27.2,33.7,0.853,100,True
,25,2500.0,2025-10-02 21:01:34.178000+00:00,2025-10-02 14:01:34.178,00:00:06.3,75694178,0.0,0.0,0.0,0.0,0.0,0.0,0.0,0.0,0.0,0.0,1.0,0.0,0.0,0.0,0.0,0.001,0.0,0.0,0.0,0.0,0.0595515977777777,0.3485588111111111,-1.8251556666666664,-0.3402395666666666,-0.0618106344444444,0.9329599,0.0174481,0.0100197088888888,0.1777864777777777,47.5965792,,-0.0032111111111111,0.0747888888888888,2947.66,2966.48,-122.82085904,114.60873913,0.0,0.0,80.9,27.2,33.7,0.853,100,True
,26,2600.0,2025-10-02 21:01:34.278000+00:00,2025-10-02 14:01:34.278,00:00:06.4,75694278,0.0,0.0,0.0,0.0,0.0,0.0,0.0,0.0,0.0,0.0,1.0,0.0,0.0,0.0,0.0,0.001,0.0,0.0,0.0,0.0,0.0596002727272727,0.3485796363636363,-1.8253881818181816,-0.3397009090909091,-0.0618611818181818,0.9328815454545454,-0.1066701636363636,0.0939395999999999,0.0728259,47.5965792,,-0.003,0.075,2947.66,2966.48,-122.82085904,114.60873913,0.0,0.0,80.9,27.2,33.7,0.853,100,True
,27,2700.0,2025-10-02 21:01:34.378000+00:00,2025-10-02 14:01:34.378,00:00:06.5,75694378,0.0,0.0,0.0,0.0,0.0,0.0,0.0,0.0,0.0,0.0,1.0,0.0,0.0,0.0,0.0,0.001,0.0,0.0,0.0,0.0,0.0598137356321839,0.3485775172413793,-1.825580804597701,-0.3401691494252873,-0.0618555747126436,0.9328277586206896,-0.2714672183908046,-0.1452921149425287,-0.0020542278160919,47.5965792,,-0.003,0.0740574712643678,2947.66,2966.48,-122.82085904,114.60873913,0.0,0.0,80.9,27.2,33.7,0.853,100,True
,28,2800.0,2025-10-02 21:01:34.478000+00:00,2025-10-02 14:01:34.478,00:00:06.6,75694478,0.0,0.0,0.0,0.0,0.0,0.0,0.0,0.0,0.0,0.0,1.0,0.0,0.0,0.0,0.0,0.001,0.0,0.0,0.0,0.0,0.0601195551724138,0.3484954942528735,-1.8257337931034483,-0.3373527471264367,-0.061894448275862,0.932829183908046,-0.1401015632183908,0.1063545287356321,0.0565402057471264,47.5965792,,-0.003,0.074,2947.66,2966.48,-122.82085904,114.60126682563218,0.0,0.0,80.9,27.2,33.7,0.853,100,True
,29,2900.0,2025-10-02 21:01:34.578000+00:00,2025-10-02 14:01:34.578,00:00:06.7,75694578,0.0,0.0,0.0,0.0,0.0,0.0,0.0,0.0,0.0,0.0,1.0,0.0,0.0,0.0,0.0,0.001,0.0,0.0,0.0,0.0,0.0603662742647058,0.3485119338235294,-1.8258885294117648,-0.335715,-0.0575200095588235,0.9329038235294118,-0.197866,-0.02006,0.126713,47.5965792,,-0.003,0.074,2947.66,2966.48,-122.82085904,114.52747782,0.0,0.0,80.9,27.18455882352941,33.7,0.853,100,True
,30,3000.0,2025-10-02 21:01:34.678000+00:00,2025-10-02 14:01:34.678,00:00:06.8,75694678,0.0,0.0,0.0,0.0,0.0,0.0,0.0,0.0,0.0,0.0,1.0,0.0,0.0,0.0,0.0,0.001,0.0,0.0,0.0,0.0,0.0605228183823529,0.3484259044117647,-1.8259767647058824,-0.337615,-0.0579324360294117,0.932874411764706,-0.197866,-0.02006,0.126713,47.5965792,,-0.003,0.074,2947.66,2966.48,-122.82085904,114.52747782,0.0,0.0,80.9,27.111029411764708,33.7,0.853,100,True
,31,3100.0,2025-10-02 21:01:34.778000+00:00,2025-10-02 14:01:34.778,00:00:06.9,75694778,0.0,0.0,0.0,0.0,0.0,0.0,0.0,0.0,0.0,0.0,1.0,0.0,0.0,0.0,0.0,0.001,0.0,0.0,0.0,0.0,0.0604481786407767,0.3480994077669903,-1.826336601941748,-0.3390685436893204,-0.0547675184466019,0.9328741262135922,-0.0201796067961164,-0.0196260873786407,0.1691106699029126,47.5965792,,-0.003,0.0748252427184466,2947.66,2966.48,-122.82085904,114.52747782,0.0,0.0,80.9,27.18252427184466,33.7,0.853,100,True
,32,3200.0,2025-10-02 21:01:34.878000+00:00,2025-10-02 14:01:34.878,00:00:07.0,75694878,0.0,0.0,0.0,0.0,0.0,0.0,0.0,0.0,0.0,0.0,1.0,0.0,0.0,0.0,0.0,0.001,0.0,0.0,0.0,0.0,0.0603457703296703,0.3479294395604395,-1.8266931868131868,-0.3378252747252747,-0.0602894901098901,0.932978989010989,0.0903126813186813,-0.1572763428571428,0.1738777252747252,47.5965792,,-0.0039890109890109,0.074,2947.66,2966.48,-122.82085904,114.52747782,0.0,0.0,80.9,27.2,33.7,0.853,100,True
,33,3300.0,2025-10-02 21:01:34.978000+00:00,2025-10-02 14:01:34.978,00:00:07.1,75694978,0.0,0.0,0.0,0.0,0.0,0.0,0.0,0.0,0.0,0.0,1.0,0.0,0.0,0.0,0.0,0.001,0.0,0.0,0.0,0.0,0.0600244604651162,0.3477786511627907,-1.8270311627906977,-0.3408955813953488,-0.0531179255813953,0.933081023255814,0.3479017674418604,0.0346064162790697,0.2188136976744186,47.5965792,,-0.003,0.0741162790697674,2947.66,2966.48,-122.82085904,114.52747782,0.0,0.0,80.9,27.2,33.7,0.853,100,True
,34,3400.0,2025-10-02 21:01:35.078000+00:00,2025-10-02 14:01:35.078,00:00:07.2,75695078,0.0,0.0,0.0,0.0,0.0,0.0,0.0,0.0,0.0,0.0,1.0,0.0,0.0,0.0,0.0,0.001,0.0,0.0,0.0,0.0,0.0593661032258064,0.347673935483871,-1.827507741935484,-0.3392618709677419,-0.0511843612903225,0.9332104516129032,0.0894697419354838,-0.0348708483870967,0.2240646774193548,47.5965792,,-0.003,0.0747419354838709,2947.66,2966.48,-122.82085904,114.52747782,0.0,0.0,80.9,27.2,33.7,0.853,100,True
,35,3500.0,2025-10-02 21:01:35.178000+00:00,2025-10-02 14:01:35.178,00:00:07.3,75695178,0.0,0.0,0.0,0.0,0.0,0.0,0.0,0.0,0.0,0.0,1.0,0.0,0.0,0.0,0.0,0.001,0.0,0.0,0.0,0.0,0.05942829375,0.3475683229166666,-1.82779875,-0.3383802916666666,-0.0568323010416666,0.93330575,-0.2160377083333333,0.0523949145833333,0.1524538260416666,47.5965792,,-0.003,0.0743229166666666,2947.66,2966.48,-122.82085904,114.52747782,0.0,0.0,80.9,27.167708333333334,33.7,0.853,100,True
,36,3600.0,2025-10-02 21:01:35.278000+00:00,2025-10-02 14:01:35.278,00:00:07.4,75695278,0.0,0.0,0.0,0.0,0.0,0.0,0.0,0.0,0.0,0.0,1.0,0.0,0.0,0.0,0.0,0.001,0.0,0.0,0.0,0.0,0.0598146375,0.347525,-1.827936875,-0.3367419375,-0.0549148375,0.9333898125,-0.38267225,0.0625074499999999,0.07180976875,47.5965792,,-0.003,0.075,2947.66,2966.48,-122.82085904,114.52747782,0.0,0.0,80.9,27.14375,33.7,0.853,100,True
,37,3700.0,2025-10-02 21:01:35.378000+00:00,2025-10-02 14:01:35.378,00:00:07.5,75695378,0.0,0.0,0.0,0.0,0.0,0.0,0.0,0.0,0.0,0.0,1.0,0.0,0.0,0.0,0.0,0.001,0.0,0.0,0.0,0.0,0.0603623601941747,0.3475055436893204,-1.828026019417476,-0.3357881165048543,-0.0550983854368932,0.9334551067961164,-0.343448,0.0724535145631067,0.0682665184466019,47.5965792,,-0.003,0.0744660194174757,2947.66,2966.48,-122.82085904,114.52747782,0.0,0.0,80.9,27.2,33.7,0.853,100,True
,38,3800.0,2025-10-02 21:01:35.478000+00:00,2025-10-02 14:01:35.478,00:00:07.6,75695478,0.0,0.0,0.0,0.0,0.0,0.0,0.0,0.0,0.0,0.0,1.0,0.0,0.0,0.0,0.0,0.001,0.0,0.0,0.0,0.0,0.0609485428571428,0.3473919523809524,-1.828101904761905,-0.3367528571428571,-0.0570918047619047,0.9334372380952382,-0.3472353333333333,-0.1777486380952381,0.0276575280952381,47.5965792,,-0.0036190476190476,0.074,2947.66,2966.48,-122.82085904,114.52747782,0.0,0.0,80.9,27.2,33.7,0.853,100,True
,39,3900.0,2025-10-02 21:01:35.578000+00:00,2025-10-02 14:01:35.578,00:00:07.7,75695578,0.0,0.0,0.0,0.0,0.0,0.0,0.0,0.0,0.0,0.0,1.0,0.0,0.0,0.0,0.0,0.001,0.0,0.0,0.0,0.0,0.0617643277777777,0.3470787777777778,-1.8280361111111112,-0.3366291388888888,-0.0573368277777777,0.9333218333333332,-0.8695034444444443,-0.1017253388888888,-0.2527266813888889,47.5965792,,-0.004,0.074,2947.66,2966.48,-122.82085904,114.45764066305556,0.0,0.0,80.9,27.2,33.7,0.853,100,True
,40,4000.0,2025-10-02 21:01:35.678000+00:00,2025-10-02 14:01:35.678,00:00:07.8,75695678,0.0,0.0,0.0,0.0,0.0,0.0,0.0,0.0,0.0,0.0,1.0,0.0,0.0,0.0,0.0,0.001,0.0,0.0,0.0,0.0,0.062672,0.3468046,-1.82788,-0.3360612,-0.06100566,0.9332574,-1.0442033999999998,0.03065604,-0.3898398,47.5965792,,-0.004,0.0742,2947.66,2966.48,-122.82085904,114.37958737,0.0,0.0,80.9,27.2,33.7,0.853,100,True
,41,4100.0,2025-10-02 21:01:35.778000+00:00,2025-10-02 14:01:35.778,00:00:07.9,75695778,0.0,0.0,0.0,0.0,0.0,0.0,0.0,0.0,0.0,0.0,1.0,0.0,0.0,0.0,0.0,0.001,0.0,0.0,0.0,0.0,0.0634456175824175,0.3469101208791209,-1.8277349450549447,-0.3370742197802198,-0.0654094208791208,0.9335206703296705,0.534639,-0.025527756043956,0.1937785472527472,47.5965792,,-0.0039560439560439,0.0749560439560439,2947.66,2966.48,-122.82085904,114.37958737,0.0,0.0,80.9,27.2,33.7,0.853,100,True
,42,4200.0,2025-10-02 21:01:35.878000+00:00,2025-10-02 14:01:35.878,00:00:08.0,75695878,0.0,0.0,0.0,0.0,0.0,0.0,0.0,0.0,0.0,0.0,1.0,0.0,0.0,0.0,0.0,0.001,0.0,0.0,0.0,0.0,0.0629456232323232,0.3470393232323232,-1.8281742424242424,-0.3379095454545454,-0.0538170777777777,0.9335881212121212,-0.3498984444444444,-0.1141116464646464,0.126108103030303,47.5965792,,-0.003,0.0741313131313131,2947.66,2966.48,-122.82085904,114.37958737,0.0,0.0,80.9,27.2,33.7,0.853,100,True
,43,4300.0,2025-10-02 21:01:35.978000+00:00,2025-10-02 14:01:35.978,00:00:08.1,75695978,0.0,0.0,0.0,0.0,0.0,0.0,0.0,0.0,0.0,0.0,1.0,0.0,0.0,0.0,0.0,0.001,0.0,0.0,0.0,0.0,0.0620389896551724,0.3473918965517241,-1.828960574712644,-0.3371772758620689,-0.0323797068965517,0.933721103448276,0.4241302988505747,0.0910134367816091,0.3658250459770115,47.5965792,,-0.003,0.075,2947.66,2966.48,-122.82085904,114.37958737,0.0,0.0,80.9,27.2,33.7,0.853,100,True
,44,4400.0,2025-10-02 21:01:36.078000+00:00,2025-10-02 14:01:36.078,00:00:08.2,75696078,0.0,0.0,0.0,0.0,0.0,0.0,0.0,0.0,0.0,0.0,1.0,0.0,0.0,0.0,0.0,0.001,0.0,0.0,0.0,0.0,0.0620069685393258,0.3470901235955056,-1.829171573033708,-0.3377131123595505,-0.0582071415730337,0.9333206741573034,-0.0821126820224719,-0.3760014831460674,0.1628374943820224,47.5965792,,-0.003,0.075,2947.66,2966.48,-122.82085904,114.37958737,0.0,0.0,80.9,27.2,33.7,0.853,100,True
,45,4500.0,2025-10-02 21:01:36.178000+00:00,2025-10-02 14:01:36.178,00:00:08.3,75696178,0.0,0.0,0.0,0.0,0.0,0.0,0.0,0.0,0.0,0.0,1.0,0.0,0.0,0.0,0.0,0.001,0.0,0.0,0.0,0.0,0.0624035452380952,0.3466009761904762,-1.829267380952381,-0.3357660476190476,-0.0586395166666666,0.9329880952380952,-0.6405546261904761,-0.4221074047619048,-0.071266,47.5965792,,-0.003,0.075,2947.66,2966.48,-122.82085904,114.37958737,0.0,0.0,80.9,27.2,33.7,0.853,100,True
,46,4600.0,2025-10-02 21:01:36.278000+00:00,2025-10-02 14:01:36.278,00:00:08.4,75696278,0.0,0.0,0.0,0.0,0.0,0.0,0.0,0.0,0.0,0.0,1.0,0.0,0.0,0.0,0.0,0.001,0.0,0.0,0.0,0.0,0.0629615787234042,0.346094659574468,-1.829331914893617,-0.3364343191489362,-0.0743736255319149,0.9329866808510638,0.2091853191489361,0.1975812553191488,0.4356508510638296,47.5965792,,-0.003,0.075,2947.66,2966.48,-122.82085904,114.37958737,0.0,0.0,80.9,27.2,33.7,0.853,100,True
,47,4700.0,2025-10-02 21:01:36.378000+00:00,2025-10-02 14:01:36.378,00:00:08.5,75696378,0.0,0.0,0.0,0.0,0.0,0.0,0.0,0.0,0.0,0.0,1.0,0.0,0.0,0.0,0.0,0.001,0.0,0.0,0.0,0.0,0.0617298413793103,0.3464945862068965,-1.8301103448275864,-0.3347886551724138,-0.0669533379310344,0.933455103448276,0.3963593103448277,-0.0952519655172414,0.3273595172413793,47.5965792,,-0.003,0.0743103448275862,2947.66,2966.48,-122.82085904,114.37958737,0.0,0.0,80.9,27.2,33.7,0.853,100,True
,48,4800.0,2025-10-02 21:01:36.478000+00:00,2025-10-02 14:01:36.478,00:00:08.6,75696478,0.0,0.0,0.0,0.0,0.0,0.0,0.0,0.0,0.0,0.0,1.0,0.0,0.0,0.0,0.0,0.001,0.0,0.0,0.0,0.0,0.061337548,0.34634926,-1.8304811,-0.33371933,-0.073738294,0.93330645,0.372326135,0.1053834499999999,0.3452483760000001,47.5965792,,-0.003,0.0747299999999999,2947.66,2966.48,-122.82085904,114.37958737,0.0,0.0,80.9,27.2,33.7,0.853,100,True
,49,4900.0,2025-10-02 21:01:36.578000+00:00,2025-10-02 14:01:36.578,00:00:08.7,75696578,0.0,0.0,0.0,0.0,0.0,0.0,0.0,0.0,0.0,0.0,1.0,0.0,0.0,0.0,0.0,0.001,0.0,0.0,0.0,0.0,0.0601065075949367,0.3463585189873417,-1.8311837974683545,-0.337743670886076,-0.065969964556962,0.9333074810126584,0.4491136582278481,-0.3158041265822784,0.234868658227848,47.5965792,,-0.003,0.0740759493670886,2947.66,2966.48,-122.82085904,114.36600589556964,0.0,0.0,80.9,27.10759493670886,33.7,0.853,100,True
,50,5000.0,2025-10-02 21:01:36.678000+00:00,2025-10-02 14:01:36.678,00:00:08.8,75696678,0.0,0.0,0.0,0.0,0.0,0.0,0.0,0.0,0.0,0.0,1.0,0.0,0.0,0.0,0.0,0.001,0.0,0.0,0.0,0.0,0.059287004347826,0.3461307391304348,-1.831707391304348,-0.3377239565217391,-0.0656999826086956,0.9332512608695652,0.308612,0.051639,0.292359,47.5965792,,-0.003,0.0740434782608695,2947.66,2966.48,-122.82085904,114.36488961,0.0,0.0,80.9,27.195652173913043,33.7,0.853,100,True
,51,5100.0,2025-10-02 21:01:36.778000+00:00,2025-10-02 14:01:36.778,00:00:08.9,75696778,0.0,0.0,0.0,0.0,0.0,0.0,0.0,0.0,0.0,0.0,1.0,0.0,0.0,0.0,0.0,0.001,0.0,0.0,0.0,0.0,0.0586723294117647,0.346136294117647,-1.832130588235294,-0.3352906470588235,-0.0614530823529411,0.9334339411764706,0.3276103823529411,0.04550925,0.2969554411764705,47.5965792,,-0.003,0.0749117647058823,2947.66,2966.48,-122.82085904,114.36488961,0.0,0.0,80.9,27.1,33.7,0.853,100,True
,52,5200.0,2025-10-02 21:01:36.878000+00:00,2025-10-02 14:01:36.878,00:00:09.0,75696878,0.0,0.0,0.0,0.0,0.0,0.0,0.0,0.0,0.0,0.0,1.0,0.0,0.0,0.0,0.0,0.001,0.0,0.0,0.0,0.0,0.0580042411764705,0.3462304117647058,-1.832468823529412,-0.3362877058823529,-0.0539504352941176,0.9336251176470588,0.4859302352941176,-0.005572,0.3352591176470588,47.5965792,,-0.003,0.0741764705882352,2947.66,2966.48,-122.82085904,114.36488961,0.0,0.0,80.9,27.1,33.7,0.853,100,True
,53,5300.0,2025-10-02 21:01:36.978000+00:00,2025-10-02 14:01:36.978,00:00:09.1,75696978,0.0,0.0,0.0,0.0,0.0,0.0,0.0,0.0,0.0,0.0,1.0,0.0,0.0,0.0,0.0,0.001,0.0,0.0,0.0,0.0,0.0579687088888888,0.3465806444444444,-1.8328117777777777,-0.3350146,-0.0550991911111111,0.9340484666666666,-0.5721652666666668,0.2153335444444444,0.0228451644444444,47.5965792,,-0.003,0.074,2947.66,2966.48,-122.82085904,114.36488961,0.0,0.0,80.9,27.184444444444445,33.7,0.853,100,True
,54,5400.0,2025-10-02 21:01:37.078000+00:00,2025-10-02 14:01:37.078,00:00:09.2,75697078,0.0,0.0,0.0,0.0,0.0,0.0,0.0,0.0,0.0,0.0,1.0,0.0,0.0,0.0,0.0,0.001,0.0,0.0,0.0,0.0,0.0593620591397849,0.3467880322580645,-1.8326380645161289,-0.3318647096774194,-0.0576695107526881,0.9341836559139786,-1.1134653655913975,0.3860504838709677,-0.2028782946236559,47.5965792,,-0.003,0.0749247311827956,2947.66,2966.48,-122.82085904,114.36488961,0.0,0.0,80.9,27.107526881720432,33.7,0.853,100,True
,55,5500.0,2025-10-02 21:01:37.178000+00:00,2025-10-02 14:01:37.178,00:00:09.3,75697178,0.0,0.0,0.0,0.0,0.0,0.0,0.0,0.0,0.0,0.0,1.0,0.0,0.0,0.0,0.0,0.001,0.0,0.0,0.0,0.0,0.0607820779069767,0.3471790930232558,-1.832436162790697,-0.3390659302325581,-0.0525252104651162,0.9342289418604652,-0.3837488988372093,-0.062665338372093,0.0200723554651162,47.5965792,,-0.0020813953488372,0.075,2947.66,2966.48,-122.82085904,114.36488961,0.0,0.0,80.9,27.108139534883723,33.7,0.853,100,True
,56,5600.0,2025-10-02 21:01:37.278000+00:00,2025-10-02 14:01:37.278,00:00:09.4,75697278,0.0,0.0,0.0,0.0,0.0,0.0,0.0,0.0,0.0,0.0,1.0,0.0,0.0,0.0,0.0,0.001,0.0,0.0,0.0,0.0,0.0616313633333333,0.3473874,-1.83235,-0.3385109666666667,-0.0642130933333333,0.9340715,-0.0193761233333333,0.21098326,0.1297694333333333,47.5965792,,-0.003,0.075,2947.66,2966.48,-122.82085904,114.36488961,0.0,0.0,80.9,27.176666666666662,33.7,0.853,100,True
,57,5700.0,2025-10-02 21:01:37.378000+00:00,2025-10-02 14:01:37.378,00:00:09.5,75697378,0.0,0.0,0.0,0.0,0.0,0.0,0.0,0.0,0.0,0.0,1.0,0.0,0.0,0.0,0.0,0.001,0.0,0.0,0.0,0.0,0.0615107810526315,0.3473988421052632,-1.8326485263157892,-0.3375098105263158,-0.0662943442105263,0.9337299789473684,-0.0166147368421052,0.0266677252631578,0.0844420105263157,47.5965792,,-0.003,0.075,2947.66,2966.48,-122.82085904,114.36488961,0.0,0.0,80.9,27.132631578947368,33.7,0.853,100,True
,58,5800.0,2025-10-02 21:01:37.478000+00:00,2025-10-02 14:01:37.478,00:00:09.6,75697478,0.0,0.0,0.0,0.0,0.0,0.0,0.0,0.0,0.0,0.0,1.0,0.0,0.0,0.0,0.0,0.001,0.0,0.0,0.0,0.0,0.0611872838709677,0.3472765806451613,-1.8329796774193547,-0.3370365161290322,-0.0637646806451612,0.9333796129032258,0.4889224516129032,-0.0718748161290322,0.3594101612903225,47.5965792,,-0.0033870967741935,0.0746129032258064,2947.66,2966.48,-122.82085904,114.36488961,0.0,0.0,80.9,27.161290322580644,33.7,0.853,100,True
,59,5900.0,2025-10-02 21:01:37.578000+00:00,2025-10-02 14:01:37.578,00:00:09.7,75697578,0.0,0.0,0.0,0.0,0.0,0.0,0.0,0.0,0.0,0.0,1.0,0.0,0.0,0.0,0.0,0.001,0.0,0.0,0.0,0.0,0.0600463,0.3471736666666666,-1.8335666666666668,-0.336132,-0.0576722,0.9331656666666668,0.884823,-0.0867135999999999,0.4540376666666667,47.5965792,,-0.0036666666666666,0.074,2947.66,2966.48,-122.82085904,114.38581316333334,0.0,0.0,80.9,27.1,33.7,0.853,100,True
,60,6000.0,2025-10-02 21:01:37.678000+00:00,2025-10-02 14:01:37.678,00:00:09.8,75697678,0.0,0.0,0.0,0.0,0.0,0.0,0.0,0.0,0.0,0.0,1.0,0.0,0.0,0.0,0.0,0.001,0.0,0.0,0.0,0.0,0.0585312917525773,0.3470776391752577,-1.834258350515464,-0.3379649690721649,-0.0516117216494845,0.933046030927835,0.7294416185567011,0.063002243298969,0.4154261958762886,47.5965792,,-0.0031443298969072,0.0741443298969072,2947.66,2966.48,-122.82085904,114.42766027,0.0,0.0,80.9,27.114432989690723,33.7,0.853,100,True
,61,6100.0,2025-10-02 21:01:37.778000+00:00,2025-10-02 14:01:37.778,00:00:09.9,75697778,0.0,0.0,0.0,0.0,0.0,0.0,0.0,0.0,0.0,0.0,1.0,0.0,0.0,0.0,0.0,0.001,0.0,0.0,0.0,0.0,0.0574402581395348,0.3469476395348837,-1.8349738372093023,-0.3346931976744186,-0.060165053488372,0.9330740813953488,-0.2493038720930232,0.065067465116279,0.172845388372093,47.5965792,,-0.004,0.0748023255813953,2947.66,2966.48,-122.82085904,114.42766027,0.0,0.0,80.9,27.180232558139533,33.7,0.853,100,True
,62,6200.0,2025-10-02 21:01:37.878000+00:00,2025-10-02 14:01:37.878,00:00:10.0,75697878,0.0,0.0,0.0,0.0,0.0,0.0,0.0,0.0,0.0,0.0,1.0,0.0,0.0,0.0,0.0,0.001,0.0,0.0,0.0,0.0,0.0581736389473684,0.3469783789473684,-1.8350267368421047,-0.3354600421052631,-0.0603073084210526,0.9331978842105264,-0.505667652631579,-0.0006091894736841,0.0832470284210526,47.5965792,,-0.0036736842105263,0.0743263157894736,2947.66,2966.48,-122.82085904,114.42766027,0.0,0.0,80.9,27.1,33.7,0.853,100,True
,63,6300.0,2025-10-02 21:01:37.978000+00:00,2025-10-02 14:01:37.978,00:00:10.1,75697978,0.0,0.0,0.0,0.0,0.0,0.0,0.0,0.0,0.0,0.0,1.0,0.0,0.0,0.0,0.0,0.001,0.0,0.0,0.0,0.0,0.0591794555555555,0.3471224444444444,-1.834988888888889,-0.3372102222222222,-0.0622317888888888,0.9334272222222222,-0.3976845555555556,0.2049439333333333,0.0716690555555555,47.5965792,,-0.003,0.0745555555555555,2947.66,2966.48,-122.82085904,114.42766027,0.0,0.0,80.9,27.1,33.7,0.853,100,True
,64,6400.0,2025-10-02 21:01:38.078000+00:00,2025-10-02 14:01:38.078,00:00:10.2,75698078,0.0,0.0,0.0,0.0,0.0,0.0,0.0,0.0,0.0,0.0,1.0,0.0,0.0,0.0,0.0,0.001,0.0,0.0,0.0,0.0,0.0599260098901098,0.3472907472527473,-1.8350346153846155,-0.3383049230769231,-0.0627514879120879,0.933582197802198,-0.2498274065934066,0.0065236824175824,0.0182547983516483,47.5965792,,-0.0036043956043956,0.0746043956043956,2947.66,2966.48,-122.82085904,114.42766027,0.0,0.0,80.9,27.1,33.7,0.853,100,True
,65,6500.0,2025-10-02 21:01:38.178000+00:00,2025-10-02 14:01:38.178,00:00:10.3,75698178,0.0,0.0,0.0,0.0,0.0,0.0,0.0,0.0,0.0,0.0,1.0,0.0,0.0,0.0,0.0,0.001,0.0,0.0,0.0,0.0,0.0603546092783505,0.3471877731958763,-1.8351559793814436,-0.3392474226804123,-0.0616895360824742,0.9335040412371134,-0.1296979175257732,-0.0663191824742268,0.1197566514432989,47.5965792,,-0.004,0.075,2947.66,2966.48,-122.82085904,114.42766027,0.0,0.0,80.9,27.1,33.7,0.853,100,True
,66,6600.0,2025-10-02 21:01:38.278000+00:00,2025-10-02 14:01:38.278,00:00:10.4,75698278,0.0,0.0,0.0,0.0,0.0,0.0,0.0,0.0,0.0,0.0,1.0,0.0,0.0,0.0,0.0,0.001,0.0,0.0,0.0,0.0,0.0606871283950617,0.3470032222222222,-1.8353471604938272,-0.336427,-0.060392886419753,0.933412012345679,-0.2405043703703704,-0.0910835098765432,0.0270733491358024,47.5965792,,-0.004,0.075,2947.66,2966.48,-122.82085904,114.42766027,0.0,0.0,80.9,27.1,33.7,0.853,100,True
,67,6700.0,2025-10-02 21:01:38.378000+00:00,2025-10-02 14:01:38.378,00:00:10.5,75698378,0.0,0.0,0.0,0.0,0.0,0.0,0.0,0.0,0.0,0.0,1.0,0.0,0.0,0.0,0.0,0.001,0.0,0.0,0.0,0.0,0.0609619401360544,0.3468057346938775,-1.8354268027210885,-0.3363147142857143,-0.061659525170068,0.9333291904761905,-0.3206295918367347,-0.0913844768707483,-0.0023312237823129,47.5965792,,-0.0034149659863945,0.075,2947.66,2966.48,-122.82085904,114.42766027,0.0,0.0,80.9,27.1,33.7,0.8535850340136054,100,True
,68,6800.0,2025-10-02 21:01:38.478000+00:00,2025-10-02 14:01:38.478,00:00:10.6,75698478,0.0,0.0,0.0,0.0,0.0,0.0,0.0,0.0,0.0,0.0,1.0,0.0,0.0,0.0,0.0,0.001,0.0,0.0,0.0,0.0,0.0611005534351145,0.3465632977099236,-1.835576106870229,-0.3377815648854962,-0.0626420213740458,0.933260007633588,-0.0199534809160305,0.0563566793893129,0.1789844183816794,47.5965792,,-0.003,0.0747022900763358,2947.66,2966.48,-122.82085904,114.461889760229,0.0,0.0,80.9,27.1,33.7,0.854,100,True
,69,6900.0,2025-10-02 21:01:38.578000+00:00,2025-10-02 14:01:38.578,00:00:10.7,75698578,0.0,0.0,0.0,0.0,0.0,0.0,0.0,0.0,0.0,0.0,1.0,0.0,0.0,0.0,0.0,0.001,0.0,0.0,0.0,0.0,0.0609115434782608,0.3463499130434782,-1.835912608695652,-0.3401001304347826,-0.0610098,0.9332822173913043,0.7240838260869565,0.3557748260869565,0.5674930869565218,47.5965792,,-0.003,0.074,2947.66,2966.48,-122.82085904,114.54263625,0.0,0.0,80.9,27.1,33.7,0.854,100,True
,70,7000.0,2025-10-02 21:01:38.678000+00:00,2025-10-02 14:01:38.678,00:00:10.8,75698678,0.0,0.0,0.0,0.0,0.0,0.0,0.0,0.0,0.0,0.0,1.0,0.0,0.0,0.0,0.0,0.001,0.0,0.0,0.0,0.0,0.0596417107913669,0.3469376115107913,-1.836582661870504,-0.3366379712230216,-0.0508272381294964,0.9338131942446044,0.3139272589928057,-0.1432077611510791,0.1993483410071942,47.5965792,,-0.003,0.074115107913669,2947.66,2966.48,-122.82085904,114.54263625,0.0,0.0,80.9,27.1,33.7,0.854,100,True
,71,7100.0,2025-10-02 21:01:38.778000+00:00,2025-10-02 14:01:38.778,00:00:10.9,75698778,0.0,0.0,0.0,0.0,0.0,0.0,0.0,0.0,0.0,0.0,1.0,0.0,0.0,0.0,0.0,0.001,0.0,0.0,0.0,0.0,0.05981365323741,0.3465476834532374,-1.836661798561151,-0.3346127913669064,-0.0628781014388489,0.9335081582733812,-0.0504461223021583,-0.0437187683453237,0.0786317223021582,47.5965792,,-0.003,0.0748345323741007,2947.66,2966.48,-122.82085904,114.54263625,0.0,0.0,80.9,27.1,33.7,0.854,100,True
,72,7200.0,2025-10-02 21:01:38.878000+00:00,2025-10-02 14:01:38.878,00:00:11.0,75698878,0.0,0.0,0.0,0.0,0.0,0.0,0.0,0.0,0.0,0.0,1.0,0.0,0.0,0.0,0.0,0.001,0.0,0.0,0.0,0.0,0.0589368397849462,0.3464042258064516,-1.8372937634408604,-0.3331296989247312,-0.0546679086021505,0.93339111827957,0.3024819784946236,-0.2893211720430108,0.2948762580645161,47.5965792,,-0.003010752688172,0.074010752688172,2947.66,2966.48,-122.82085904,114.54263625,0.0,0.0,80.9,27.1,33.7,0.854,100,True
,73,7300.0,2025-10-02 21:01:38.978000+00:00,2025-10-02 14:01:38.978,00:00:11.1,75698978,0.0,0.0,0.0,0.0,0.0,0.0,0.0,0.0,0.0,0.0,1.0,0.0,0.0,0.0,0.0,0.001,0.0,0.0,0.0,0.0,0.0585555044444444,0.3468029555555555,-1.837646222222222,-0.3372643111111111,-0.0442779177777777,0.9338576444444444,-0.2879051555555555,0.48452188,0.1809819377777777,47.5965792,,-0.0039111111111111,0.0749111111111111,2947.66,2966.48,-122.82085904,114.54263625,0.0,0.0,80.9088888888889,27.1,33.7,0.854,100,True
,74,7400.0,2025-10-02 21:01:39.078000+00:00,2025-10-02 14:01:39.078,00:00:11.2,75699078,0.0,0.0,0.0,0.0,0.0,0.0,0.0,0.0,0.0,0.0,1.0,0.0,0.0,0.0,0.0,0.001,0.0,0.0,0.0,0.0,0.0593213709677419,0.3469663548387097,-1.8376945161290323,-0.3332984838709677,-0.0539908032258064,0.9338478387096776,-0.4718632580645161,-0.0770049870967742,0.0787961612903225,47.5965792,,-0.0031935483870967,0.074,2947.66,2966.48,-122.82085904,114.54263625,0.0,0.0,80.98064516129033,27.1,33.7,0.854,100,True
,75,7500.0,2025-10-02 21:01:39.178000+00:00,2025-10-02 14:01:39.178,00:00:11.3,75699178,0.0,0.0,0.0,0.0,0.0,0.0,0.0,0.0,0.0,0.0,1.0,0.0,0.0,0.0,0.0,0.001,0.0,0.0,0.0,0.0,0.060084375,0.3472228928571428,-1.8376984523809523,-0.3323424642857143,-0.0565867392857142,0.9339302023809524,-0.0249455833333333,-0.0595082071428571,0.3436771309523809,47.5965792,,-0.0037023809523809,0.074297619047619,2947.66,2966.48,-122.82085904,114.54263625,0.0,0.0,80.9,27.1,33.7,0.854,100,True
,76,7600.0,2025-10-02 21:01:39.278000+00:00,2025-10-02 14:01:39.278,00:00:11.4,75699278,0.0,0.0,0.0,0.0,0.0,0.0,0.0,0.0,0.0,0.0,1.0,0.0,0.0,0.0,0.0,0.001,0.0,0.0,0.0,0.0,0.0600808580645161,0.3471826774193548,-1.837952580645161,-0.3358840860215054,-0.0531019720430107,0.9337123440860216,0.0749482580645161,-0.0040793010752688,0.2907621612903225,47.5965792,,-0.0034408602150537,0.0745591397849462,2947.66,2966.48,-122.82085904,114.54263625,0.0,0.0,80.9,27.1,33.7,0.854,100,True
,77,7700.0,2025-10-02 21:01:39.378000+00:00,2025-10-02 14:01:39.378,00:00:11.5,75699378,0.0,0.0,0.0,0.0,0.0,0.0,0.0,0.0,0.0,0.0,1.0,0.0,0.0,0.0,0.0,0.001,0.0,0.0,0.0,0.0,0.0598002087912087,0.3474908461538462,-1.8382651648351649,-0.3385571868131868,-0.0531998923076923,0.933795956043956,0.2084156043956044,0.2275835494505494,0.1958715054945055,47.5965792,,-0.0034725274725274,0.074,2947.66,2966.48,-122.82085904,114.54263625,0.0,0.0,80.9,27.1,33.7,0.854,100,True
,78,7800.0,2025-10-02 21:01:39.478000+00:00,2025-10-02 14:01:39.478,00:00:11.6,75699478,0.0,0.0,0.0,0.0,0.0,0.0,0.0,0.0,0.0,0.0,1.0,0.0,0.0,0.0,0.0,0.001,0.0,0.0,0.0,0.0,0.0593620488372093,0.3478514534883721,-1.838618953488372,-0.3391360348837209,-0.0537098848837209,0.9337644186046512,0.3033051744186046,0.1217348488372092,0.2218348720930232,47.5965792,,-0.003,0.074,2947.66,2966.48,-122.82085904,114.54263625,0.0,0.0,80.9,27.1,33.7,0.854,100,True
,79,7900.0,2025-10-02 21:01:39.578000+00:00,2025-10-02 14:01:39.578,00:00:11.7,75699578,0.0,0.0,0.0,0.0,0.0,0.0,0.0,0.0,0.0,0.0,1.0,0.0,0.0,0.0,0.0,0.001,0.0,0.0,0.0,0.0,0.0591927305263157,0.3480486210526315,-1.838837052631579,-0.3405648105263157,-0.0532019105263157,0.9335848,-0.2545670526315789,-0.0030373947368421,0.0619805244210526,47.5965792,,-0.003,0.074,2947.66,2966.48,-122.82085904,114.5635431416842,0.0,0.0,80.9,27.1,33.7,0.854,100,True
,80,8000.0,2025-10-02 21:01:39.678000+00:00,2025-10-02 14:01:39.678,00:00:11.8,75699678,0.0,0.0,0.0,0.0,0.0,0.0,0.0,0.0,0.0,0.0,1.0,0.0,0.0,0.0,0.0,0.001,0.0,0.0,0.0,0.0,0.059594776,0.3480086799999999,-1.8389104,-0.33831592,-0.057267708,0.93339336,0.18690992,0.5128608,0.2139894608,47.5965792,,-0.003,0.074,2947.66,2966.48,-122.82085904,114.57061026,0.0,0.0,80.9,27.1,33.7,0.854,100,True
,81,8100.0,2025-10-02 21:01:39.778000+00:00,2025-10-02 14:01:39.778,00:00:11.9,75699778,0.0,0.0,0.0,0.0,0.0,0.0,0.0,0.0,0.0,0.0,1.0,0.0,0.0,0.0,0.0,0.001,0.0,0.0,0.0,0.0,0.0591724,0.3482209069767442,-1.8393618604651163,-0.3391297674418604,-0.047191276744186,0.9333552558139536,-0.0692412093023255,-0.4333911395348837,0.144172,47.5965792,,-0.003,0.0748837209302325,2947.66,2966.48,-122.82085904,114.57061026,0.0,0.0,80.9,27.1,33.7,0.854,100,True
,82,8200.0,2025-10-02 21:01:39.878000+00:00,2025-10-02 14:01:39.878,00:00:12.0,75699878,0.0,0.0,0.0,0.0,0.0,0.0,0.0,0.0,0.0,0.0,1.0,0.0,0.0,0.0,0.0,0.001,0.0,0.0,0.0,0.0,0.0594315822222222,0.3487061111111111,-1.8395973333333333,-0.3362110222222222,-0.0674793711111111,0.9336090222222222,0.4744206666666666,0.5050442222222222,0.3621830666666666,47.5965792,,-0.0030888888888888,0.075,2947.66,2966.48,-122.82085904,114.57061026,0.0,0.0,80.9,27.1,33.7,0.854,100,True
,83,8300.0,2025-10-02 21:01:39.978000+00:00,2025-10-02 14:01:39.978,00:00:12.1,75699978,0.0,0.0,0.0,0.0,0.0,0.0,0.0,0.0,0.0,0.0,1.0,0.0,0.0,0.0,0.0,0.001,0.0,0.0,0.0,0.0,0.0582508681318681,0.3488596153846153,-1.840461208791209,-0.3382447692307692,-0.0471752032967033,0.9331235274725276,0.4627453186813187,-0.1262657032967033,0.4227469582417582,47.5965792,,-0.004,0.0748021978021978,2947.66,2966.48,-122.82085904,114.57061026,0.0,0.0,80.9,27.1,33.7,0.854,100,True
,84,8400.0,2025-10-02 21:01:40.078000+00:00,2025-10-02 14:01:40.078,00:00:12.2,75700078,0.0,0.0,0.0,0.0,0.0,0.0,0.0,0.0,0.0,0.0,1.0,0.0,0.0,0.0,0.0,0.001,0.0,0.0,0.0,0.0,0.0581129782608695,0.3484674891304348,-1.840764673913044,-0.3339774021739131,-0.0478797923913043,0.9326252717391303,-0.2099947391304348,-0.5862336521739131,0.0464947934782608,47.5965792,,-0.0037065217391304,0.0742934782608695,2947.66,2966.48,-122.82085904,114.57061026,0.0,0.0,80.9,27.1,33.7,0.854,100,True
,85,8500.0,2025-10-02 21:01:40.178000+00:00,2025-10-02 14:01:40.178,00:00:12.3,75700178,0.0,0.0,0.0,0.0,0.0,0.0,0.0,0.0,0.0,0.0,1.0,0.0,0.0,0.0,0.0,0.001,0.0,0.0,0.0,0.0,0.0581788604651162,0.348103511627907,-1.8410197674418605,-0.3376867790697674,-0.0523770430232558,0.9325399418604652,0.0407488604651163,0.6079449069767442,0.1671707348837209,47.5965792,,-0.003406976744186,0.075,2947.66,2966.48,-122.82085904,114.57061026,0.0,0.0,80.9,27.1,33.7,0.854,100,True
,86,8600.0,2025-10-02 21:01:40.278000+00:00,2025-10-02 14:01:40.278,00:00:12.4,75700278,0.0,0.0,0.0,0.0,0.0,0.0,0.0,0.0,0.0,0.0,1.0,0.0,0.0,0.0,0.0,0.001,0.0,0.0,0.0,0.0,0.0577839014925373,0.3490482089552238,-1.841299776119403,-0.3414816865671641,-0.0512494761194029,0.9332140820895524,-0.0901011268656716,0.4501003731343284,0.0232940858208955,47.5965792,,-0.0036343283582089,0.0746343283582089,2947.66,2966.48,-122.82085904,114.57061026,0.0,0.0,80.9,27.1,33.7,0.854,100,True
,87,8700.0,2025-10-02 21:01:40.378000+00:00,2025-10-02 14:01:40.378,00:00:12.5,75700378,0.0,0.0,0.0,0.0,0.0,0.0,0.0,0.0,0.0,0.0,1.0,0.0,0.0,0.0,0.0,0.001,0.0,0.0,0.0,0.0,0.0580718818181818,0.3491792424242424,-1.8412845454545452,-0.3396370303030303,-0.0607950787878787,0.9330605757575756,0.2860326666666666,0.412210303030303,0.079832503030303,47.5965792,,-0.0031515151515151,0.074,2947.66,2966.48,-122.82085904,114.57061026,0.0,0.0,80.9,27.1,33.7,0.854,100,True
,88,8800.0,2025-10-02 21:01:40.478000+00:00,2025-10-02 14:01:40.478,00:00:12.6,75700478,0.0,0.0,0.0,0.0,0.0,0.0,0.0,0.0,0.0,0.0,1.0,0.0,0.0,0.0,0.0,0.001,0.0,0.0,0.0,0.0,0.0577503189473684,0.3488348315789473,-1.841680947368421,-0.337181747368421,-0.0584067578947368,0.9324418631578948,-0.068381747368421,-0.2646739621052631,0.1296912315789473,47.5965792,,-0.0038315789473684,0.0741684210526315,2947.66,2966.48,-122.82085904,114.58225185157896,0.0,0.0,80.9,27.1,33.7,0.854,100,True
,89,8900.0,2025-10-02 21:01:40.578000+00:00,2025-10-02 14:01:40.578,00:00:12.7,75700578,0.0,0.0,0.0,0.0,0.0,0.0,0.0,0.0,0.0,0.0,1.0,0.0,0.0,0.0,0.0,0.001,0.0,0.0,0.0,0.0,0.0572221,0.349229,-1.84213,-0.340459,-0.0599589,0.932772,0.226645,-0.0897184,0.160453,47.5965792,,-0.003,0.075,2947.66,2966.48,-122.82085904,114.63973221,0.0,0.0,80.9,27.1,33.7,0.854,100,True
,90,9000.0,2025-10-02 21:01:40.678000+00:00,2025-10-02 14:01:40.678,00:00:12.8,75700678,0.0,0.0,0.0,0.0,0.0,0.0,0.0,0.0,0.0,0.0,1.0,0.0,0.0,0.0,0.0,0.001,0.0,0.0,0.0,0.0,0.0566378428571428,0.3493430408163265,-1.8424038775510203,-0.3418490408163265,-0.0545411530612244,0.9328694285714286,0.4540432857142857,0.0681807183673469,0.2335383469387755,47.5965792,,-0.0034489795918367,0.0741020408163265,2947.66,2966.48,-122.82085904,114.63973221,0.0,0.0,80.9,27.1,33.7,0.854,100,True
,91,9100.0,2025-10-02 21:01:40.778000+00:00,2025-10-02 14:01:40.778,00:00:12.9,75700778,0.0,0.0,0.0,0.0,0.0,0.0,0.0,0.0,0.0,0.0,1.0,0.0,0.0,0.0,0.0,0.001,0.0,0.0,0.0,0.0,0.0561338785714285,0.3486172142857143,-1.842876904761905,-0.3409204047619047,-0.0500524023809523,0.9324463095238096,-0.1371356666666667,0.1825404285714285,0.0540578809523809,47.5965792,,-0.0034523809523809,0.073547619047619,2947.66,2966.48,-122.82085904,114.63973221,0.0,0.0,80.95476190476191,27.1,33.7,0.854,100,True
,92,9200.0,2025-10-02 21:01:40.878000+00:00,2025-10-02 14:01:40.878,00:00:13.0,75700878,0.0,0.0,0.0,0.0,0.0,0.0,0.0,0.0,0.0,0.0,1.0,0.0,0.0,0.0,0.0,0.001,0.0,0.0,0.0,0.0,0.0582203454545454,0.3485276363636364,-1.8426095454545453,-0.3390272272727272,-0.0580769477272727,0.9328497954545456,-2.104115568181818,0.4551506818181818,-0.8544301136363637,47.5965792,,-0.003,0.0747045454545454,2947.66,2966.48,-122.82085904,114.63973221,0.0,0.0,81.0,27.1,33.7,0.854,100,True
,93,9300.0,2025-10-02 21:01:40.978000+00:00,2025-10-02 14:01:40.978,00:00:13.1,75700978,0.0,0.0,0.0,0.0,0.0,0.0,0.0,0.0,0.0,0.0,1.0,0.0,0.0,0.0,0.0,0.001,0.0,0.0,0.0,0.0,0.0590215,0.34879,-1.84245,-0.339146,-0.0606937,0.933207,-2.6275,0.596986,-1.14216,47.59659229640288,,-0.003,0.075,2947.66,2966.48,-122.82108687482014,113.97973170410071,0.0,0.0,81.0,27.1,33.7,0.854,100,True
,94,9400.0,2025-10-02 21:01:41.078000+00:00,2025-10-02 14:01:41.078,00:00:13.2,75701078,0.0,0.0,0.0,0.0,0.0,0.0,0.0,0.0,0.0,0.0,1.0,0.0,0.0,0.0,0.0,0.001,0.0,0.0,0.0,0.0,0.05945739,0.3492845499999999,-1.8423975,-0.339937,-0.062052295,0.93363225,-1.4915295,0.8727524,-0.531382,47.5966038,,-0.003,0.075,2947.66,2966.48,-122.821287,113.40000153,0.0,0.0,81.0,27.1,33.7,0.854,100,True
,95,9500.0,2025-10-02 21:01:41.178000+00:00,2025-10-02 14:01:41.178,00:00:13.3,75701178,0.0,0.0,0.0,0.0,0.0,0.0,0.0,0.0,0.0,0.0,1.0,0.0,0.0,0.0,0.0,0.001,0.0,0.0,0.0,0.0,0.0604059454545454,0.3501011818181818,-1.842443181818182,-0.3392853181818182,-0.0621931727272727,0.9339001818181818,0.1427480681818181,0.1845013636363637,0.2935736931818182,47.5966038,,-0.003,0.0746022727272727,2947.66,2966.48,-122.821287,113.40000153,0.0,0.0,80.96022727272728,27.1,33.7,0.854,100,True
,96,9600.0,2025-10-02 21:01:41.278000+00:00,2025-10-02 14:01:41.278,00:00:13.4,75701278,0.0,0.0,0.0,0.0,0.0,0.0,0.0,0.0,0.0,0.0,1.0,0.0,0.0,0.0,0.0,0.001,0.0,0.0,0.0,0.0,0.0609662148148148,0.3501036666666666,-1.84266,-0.3396378765432098,-0.0490914518518518,0.933192975308642,0.0283983456790124,-0.4513447901234568,0.208442049382716,47.5966038,,-0.0035802469135802,0.074,2947.66,2966.48,-122.821287,113.40000153,0.0,0.0,80.9,27.1,33.7,0.854,100,True
,97,9700.0,2025-10-02 21:01:41.378000+00:00,2025-10-02 14:01:41.378,00:00:13.5,75701378,0.0,0.0,0.0,0.0,0.0,0.0,0.0,0.0,0.0,0.0,1.0,0.0,0.0,0.0,0.0,0.001,0.0,0.0,0.0,0.0,0.0613460969072165,0.3495828556701031,-1.8427552577319588,-0.3407354226804124,-0.0528128659793814,0.9325902783505154,-0.2952208865979382,-0.506452969072165,-0.0119038350515464,47.5966038,,-0.0033195876288659,0.074,2947.66,2966.48,-122.821287,113.40000153,0.0,0.0,80.9680412371134,27.1,33.7,0.854,100,True
,98,9800.0,2025-10-02 21:01:41.478000+00:00,2025-10-02 14:01:41.478,00:00:13.6,75701478,0.0,0.0,0.0,0.0,0.0,0.0,0.0,0.0,0.0,0.0,1.0,0.0,0.0,0.0,0.0,0.001,0.0,0.0,0.0,0.0,0.0615863131868131,0.3490954395604395,-1.8429213186813187,-0.3370464615384615,-0.0474674329670329,0.9322888571428573,0.3683447032967032,0.1348265494505492,0.4530684065934066,47.5966038,,-0.0037582417582417,0.0747582417582417,2947.66,2966.48,-122.821287,113.40000153,0.0,0.0,80.92417582417583,27.1,33.7,0.854,100,True
ride_53,99,9900.0,2025-10-02 21:01:41.578000+00:00,2025-10-02 14:01:41.578,00:00:13.7,75701578,0.0,0.0,0.0,0.0,0.0,0.0,0.0,0.0,0.0,0.0,1.0,0.0,0.0,0.0,0.0,0.001,0.0,0.0,0.0,0.0,0.0613488,0.34951,-1.84325,-0.340553,-0.0576443,0.932645,-0.407063,-0.369854,0.148647,47.5965792,0.0,-0.004,0.074,2947.66,2966.48,-122.82085904,114.58826578,0.0,0.0,80.9,27.1,33.7,0.854,100,True
,100,10000.0,2025-10-02 21:01:41.678000+00:00,2025-10-02 14:01:41.678,00:00:13.8,75701678,0.0,0.0,0.0,0.0,0.0,0.0,0.0,0.0,0.0,0.0,1.0,0.0,0.0,0.0,0.0,0.001,0.0,0.0,0.0,0.0,0.0620375323943662,0.3493008450704225,-1.843130281690141,-0.3378558169014084,-0.0703262718309859,0.9325907746478872,-0.4777115915492957,0.0220227605633802,-0.0966037042253521,47.5965792,,-0.0032957746478873,0.074,2947.66,2966.48,-122.82085904,114.58826578,0.0,0.0,80.9,27.1,33.7,0.854,100,True
,101,10100.0,2025-10-02 21:01:41.778000+00:00,2025-10-02 14:01:41.778,00:00:13.9,75701778,0.0,0.0,0.0,0.0,0.0,0.0,0.0,0.0,0.0,0.0,1.0,0.0,0.0,0.0,0.0,0.001,0.0,0.0,0.0,0.0,0.06247035,0.3490238095238095,-1.843252619047619,-0.3357749761904762,-0.0613118547619047,0.932527261904762,-0.249745238095238,0.5750121428571429,-0.0321025833333333,47.5965792,,-0.003,0.0746904761904761,2947.66,2966.48,-122.82085904,114.58826578,0.0,0.0,80.9,27.1,33.7,0.854,100,True
,102,10200.0,2025-10-02 21:01:41.878000+00:00,2025-10-02 14:01:41.878,00:00:14.0,75701878,0.0,0.0,0.0,0.0,0.0,0.0,0.0,0.0,0.0,0.0,1.0,0.0,0.0,0.0,0.0,0.001,0.0,0.0,0.0,0.0,0.0614109791666666,0.3520038333333333,-1.8439235416666664,-0.3444959375,-0.0610840145833333,0.9342449166666666,0.2024071458333333,-0.7602711874999999,0.1914023645833333,47.5965792,,-0.0037708333333333,0.0734583333333333,2947.66,2966.48,-122.82085904,114.58826578,0.0,0.0,80.97708333333334,27.1,33.7,0.854,100,True
,103,10300.0,2025-10-02 21:01:41.978000+00:00,2025-10-02 14:01:41.978,00:00:14.1,75701978,0.0,0.0,0.0,0.0,0.0,0.0,0.0,0.0,0.0,0.0,1.0,0.0,0.0,0.0,0.0,0.001,0.0,0.0,0.0,0.0,0.0608851341463414,0.3471097073170732,-1.844509024390244,-0.3303127804878049,-0.0417911170731707,0.9299240487804876,1.5546375609756096,-3.200749512195122,0.8144971707317074,47.5965792,,-0.0030487804878048,0.0739512195121951,2947.66,2966.48,-122.82085904,114.58826578,0.0,0.0,80.90487804878049,27.1,33.7,0.854,100,True
,104,10400.0,2025-10-02 21:01:42.078000+00:00,2025-10-02 14:01:42.078,00:00:14.2,75702078,0.0,0.0,0.0,0.0,0.0,0.0,0.0,0.0,0.0,0.0,1.0,0.0,0.0,0.0,0.0,0.001,0.0,0.0,0.0,0.0,0.0597034212765957,0.3473686170212766,-1.8450742553191488,-0.339767085106383,-0.0231443978723404,0.9315671489361702,0.5615190212765957,0.4487549361702128,0.819315170212766,47.5965792,,-0.003,0.0750212765957446,2947.66,2966.48,-122.82085904,114.58826578,0.0,0.0,80.99787234042553,27.1,33.7,0.854,100,True
,105,10500.0,2025-10-02 21:01:42.178000+00:00,2025-10-02 14:01:42.178,00:00:14.3,75702178,0.0,0.0,0.0,0.0,0.0,0.0,0.0,0.0,0.0,0.0,1.0,0.0,0.0,0.0,0.0,0.001,0.0,0.0,0.0,0.0,0.0597498604651162,0.349375976744186,-1.845296976744186,-0.3400836046511628,-0.0315572255813953,0.933754046511628,0.2996805581395349,2.310677441860465,0.3909562093023256,47.5965792,,-0.0030930232558139,0.0758139534883721,2947.66,2966.48,-122.82085904,114.58826578,0.0,0.0,80.90930232558141,27.1,33.7,0.854,100,True
,106,10600.0,2025-10-02 21:01:42.278000+00:00,2025-10-02 14:01:42.278,00:00:14.4,75702278,0.0,0.0,0.0,0.0,0.0,0.0,0.0,0.0,0.0,0.0,1.0,0.0,0.0,0.0,0.0,0.001,0.0,0.0,0.0,0.0,0.059310417977528,0.3523816292134831,-1.84556,-0.3448159550561798,-0.0446240235955056,0.9352345617977528,-0.0754466966292134,0.1904420224719101,0.0980257415730337,47.5965792,,-0.004,0.0732584269662921,2947.66,2966.48,-122.82085904,114.58826578,0.0,0.0,80.9752808988764,27.1,33.7,0.854,100,True
,107,10700.0,2025-10-02 21:01:42.378000+00:00,2025-10-02 14:01:42.378,00:00:14.5,75702378,0.0,0.0,0.0,0.0,0.0,0.0,0.0,0.0,0.0,0.0,1.0,0.0,0.0,0.0,0.0,0.001,0.0,0.0,0.0,0.0,0.0595326,0.3486723103448276,-1.845863448275862,-0.3416333103448276,-0.099811724137931,0.9315493103448276,-1.0185895862068963,-3.284214379310345,-0.6329489655172414,47.5965792,,-0.004,0.0717586206896551,2947.66,2966.48,-122.82085904,114.58826578,0.0,0.0,80.9,27.1,33.7,0.854,100,True
,108,10800.0,2025-10-02 21:01:42.478000+00:00,2025-10-02 14:01:42.478,00:00:14.6,75702478,0.0,0.0,0.0,0.0,0.0,0.0,0.0,0.0,0.0,0.0,1.0,0.0,0.0,0.0,0.0,0.001,0.0,0.0,0.0,0.0,0.0596328444444444,0.3430154444444444,-1.846400888888889,-0.3312299555555555,-0.0968946511111111,0.9289838,-1.368947111111111,-0.2606454666666666,-0.8846284,47.5965792,,-0.0034888888888888,0.0735111111111111,2947.66,2966.48,-122.82085904,114.58826578,0.0,0.0,80.9,27.1,33.7,0.854,100,True
,109,10900.0,2025-10-02 21:01:42.578000+00:00,2025-10-02 14:01:42.578,00:00:14.7,75702578,0.0,0.0,0.0,0.0,0.0,0.0,0.0,0.0,0.0,0.0,1.0,0.0,0.0,0.0,0.0,0.001,0.0,0.0,0.0,0.0,0.0608539096774193,0.3433032580645161,-1.8462352688172043,-0.3327065806451613,-0.0693698311827957,0.9316028494623656,-0.7508109677419355,0.8595996989247312,-0.268256993548387,47.5965792,,-0.003,0.0746021505376344,2947.66,2966.48,-122.82085904,114.61259923720432,0.0,0.0,80.96021505376345,27.1,33.7,0.854,100,True
,110,11000.0,2025-10-02 21:01:42.678000+00:00,2025-10-02 14:01:42.678,00:00:14.8,75702678,0.0,0.0,0.0,0.0,0.0,0.0,0.0,0.0,0.0,0.0,1.0,0.0,0.0,0.0,0.0,0.001,0.0,0.0,0.0,0.0,0.0627443943181818,0.3453305909090909,-1.8457277272727275,-0.3282184204545454,-0.0866996999999999,0.9346902613636364,-0.6367014318181818,2.267979886363636,-0.3205641761363637,47.5965792,,-0.003,0.075,2947.66,2966.48,-122.82085904,114.6286767,0.0,0.0,80.9284090909091,27.1,33.7,0.854,100,True
,111,11100.0,2025-10-02 21:01:42.778000+00:00,2025-10-02 14:01:42.778,00:00:14.9,75702778,0.0,0.0,0.0,0.0,0.0,0.0,0.0,0.0,0.0,0.0,1.0,0.0,0.0,0.0,0.0,0.001,0.0,0.0,0.0,0.0,0.0629252620689655,0.3479458965517241,-1.8459989655172413,-0.3384725172413793,-0.0344489413793103,0.9366616896551724,-0.2507235517241379,1.226008275862069,0.1743303448275862,47.5965792,,-0.0035172413793103,0.0739655172413793,2947.66,2966.48,-122.82085904,114.6286767,0.0,0.0,80.9,27.1,33.7,0.854,100,True
,112,11200.0,2025-10-02 21:01:42.878000+00:00,2025-10-02 14:01:42.878,00:00:15.0,75702878,0.0,0.0,0.0,0.0,0.0,0.0,0.0,0.0,0.0,0.0,1.0,0.0,0.0,0.0,0.0,0.001,0.0,0.0,0.0,0.0,0.0629302857142857,0.3487148571428571,-1.846372142857143,-0.3438945714285714,-0.0155094357142857,0.9365697142857142,-0.1522491428571428,-0.6082192857142857,0.3094312857142857,47.5965792,,-0.0036428571428571,0.0737142857142857,2947.66,2966.48,-122.82085904,114.6286767,0.0,0.0,80.9,27.1,33.7,0.854,100,True
,113,11300.0,2025-10-02 21:01:42.978000+00:00,2025-10-02 14:01:42.978,00:00:15.1,75702978,0.0,0.0,0.0,0.0,0.0,0.0,0.0,0.0,0.0,0.0,1.0,0.0,0.0,0.0,0.0,0.001,0.0,0.0,0.0,0.0,0.0629407325581395,0.3479032558139535,-1.8466609302325585,-0.339332,-0.0627402418604651,0.934995976744186,-1.0443046511627907,-1.2759362790697677,-0.418621465116279,47.5965792,,-0.003,0.075,2947.66,2966.48,-122.82085904,114.6286767,0.0,0.0,80.95348837209302,27.1,33.7,0.854,100,True
,114,11400.0,2025-10-02 21:01:43.078000+00:00,2025-10-02 14:01:43.078,00:00:15.2,75703078,0.0,0.0,0.0,0.0,0.0,0.0,0.0,0.0,0.0,0.0,1.0,0.0,0.0,0.0,0.0,0.001,0.0,0.0,0.0,0.0,0.063655737113402,0.3493783505154639,-1.846420412371134,-0.3459221030927835,-0.0862882226804123,0.9356621958762886,-0.4552729896907217,1.5390418556701029,-0.4121774948453608,47.5965792,,-0.0036185567010309,0.074381443298969,2947.66,2966.48,-122.82085904,114.6286767,0.0,0.0,81.0,27.1,33.7,0.854,100,True
,115,11500.0,2025-10-02 21:01:43.178000+00:00,2025-10-02 14:01:43.178,00:00:15.3,75703178,0.0,0.0,0.0,0.0,0.0,0.0,0.0,0.0,0.0,0.0,1.0,0.0,0.0,0.0,0.0,0.001,0.0,0.0,0.0,0.0,0.0638757395522388,0.3498818283582089,-1.846353880597015,-0.3409064029850746,-0.0965579089552238,0.9353265895522388,0.1338564179104477,2.045675686567164,-0.1180944925373134,47.5965792,,-0.0035298507462686,0.0744701492537313,2947.66,2966.48,-122.82085904,114.6286767,0.0,0.0,80.95298507462687,27.1,33.7,0.854,100,True
,116,11600.0,2025-10-02 21:01:43.278000+00:00,2025-10-02 14:01:43.278,00:00:15.4,75703278,0.0,0.0,0.0,0.0,0.0,0.0,0.0,0.0,0.0,0.0,1.0,0.0,0.0,0.0,0.0,0.001,0.0,0.0,0.0,0.0,0.0626372467391304,0.3507799565217391,-1.8470025,-0.3359097065217391,-0.0740541630434782,0.9347860760869564,0.2328292173913043,0.8175967391304347,0.2651986847826086,47.5965792,,-0.003,0.0743695652173913,2947.66,2966.48,-122.82085904,114.6286767,0.0,0.0,80.9,27.1,33.7,0.854,100,True
,117,11700.0,2025-10-02 21:01:43.378000+00:00,2025-10-02 14:01:43.378,00:00:15.5,75703378,0.0,0.0,0.0,0.0,0.0,0.0,0.0,0.0,0.0,0.0,1.0,0.0,0.0,0.0,0.0,0.001,0.0,0.0,0.0,0.0,0.0608364472527472,0.3526863736263736,-1.847968901098901,-0.3410289010989011,-0.0522661098901098,0.9343241868131869,0.2327490703296703,0.3350875274725274,0.2520976043956043,47.5965792,,-0.0034065934065934,0.073,2947.66,2966.48,-122.82085904,114.6286767,0.0,0.0,80.9,27.1,33.7,0.854,100,True
,118,11800.0,2025-10-02 21:01:43.478000+00:00,2025-10-02 14:01:43.478,00:00:15.6,75703478,0.0,0.0,0.0,0.0,0.0,0.0,0.0,0.0,0.0,0.0,1.0,0.0,0.0,0.0,0.0,0.001,0.0,0.0,0.0,0.0,0.0607646905882352,0.3522108,-1.848235411764706,-0.3430517647058823,-0.0571940070588235,0.9323716117647058,-0.2627638847058823,-1.3766256588235293,0.0322017717647058,47.5965792,,-0.0045411764705882,0.0719176470588235,2947.66,2966.48,-122.82085904,114.6286767,0.0,0.0,80.9,27.1,33.7,0.854,100,True
,119,11900.0,2025-10-02 21:01:43.578000+00:00,2025-10-02 14:01:43.578,00:00:15.7,75703578,,,,,,,,,,,,,,0.0,0.0,0.001,0.0,0.0,0.0,0.0,0.0618691255813953,0.3461983139534884,-1.8484953488372091,-0.339228488372093,-0.0760868581395348,0.9274681860465116,-0.7467935697674419,-6.024011046511628,-0.0243380255813953,47.5965792,,-0.0071279069767441,0.067453488372093,2947.66,2966.48,-122.82085904,114.70117998069767,0.0,0.0,80.9,27.1,33.7,0.854,100,True
,120,12000.0,2025-10-02 21:01:43.678000+00:00,2025-10-02 14:01:43.678,00:00:15.8,75703678,,,,,,,,,,,,,,-0.0499999999999999,-73.48484848484848,0.0002424242424242,0.0,-0.3939393939393939,0.0227272727272727,0.4090909090909091,0.0651409666666666,0.3307754545454545,-1.848410606060606,-0.3346969696969696,-0.0483039969696969,0.9190724848484848,-4.9501186666666666,-13.516154545454544,-3.006445321212121,47.5965792,,-0.0314848484848484,0.0417575757575757,2947.66,2966.48,-122.82085904,114.73089444,0.0,0.0,80.97575757575758,27.1,33.7,0.854,100,True
,121,12100.0,2025-10-02 21:01:43.778000+00:00,2025-10-02 14:01:43.778,00:00:15.9,75703778,0.85,0.0,0.0,,,,,,,0.0,0.0,,,-0.066,-102.62962962962963,-0.0253333333333333,0.0375308641975308,0.5965432098765433,-0.8519753086419753,-0.9237037037037036,0.0724989765432098,0.2806247654320988,-1.84759,-0.3122827160493827,-0.0665328975308642,0.901534074074074,1.7372703703703705,-56.53797407407407,-0.2870675456790117,47.5965792,,-0.1656666666666666,-0.6312345679012346,2947.66,2966.48,-122.82085904,114.73089444,0.0,0.0,80.90617283950618,27.1,33.7,0.854,100,True
,122,12200.0,2025-10-02 21:01:43.878000+00:00,2025-10-02 14:01:43.878,00:00:16.0,75703878,0.85,0.0,0.0,,,,,,,0.0,0.0,,,-0.222,-80.5,0.0810869565217391,1.0456521739130435,16.922826086956523,-0.1132608695652173,17.420652173913044,0.0731611739130434,0.1377118804347826,-1.8622102173913044,0.1964056956521739,0.1857678130434782,0.8806757608695651,-14.980849130434782,-101.1762195652174,0.772516304347826,47.5965792,,-0.089891304347826,0.2314565217391304,2947.62,2966.52,-122.82085904,114.73089444,0.0,0.0,80.09347826086956,27.00217391304348,33.6,0.854,100,True
,123,12300.0,2025-10-02 21:01:43.978000+00:00,2025-10-02 14:01:43.978,00:00:16.1,75703978,0.85,0.0,0.0,,,,,,,0.0,0.0,,,-0.222,269.5,0.1173188405797101,4.90072463768116,52.68369565217392,0.1113768115942029,52.775724637681165,0.085780304347826,0.0186078949275362,-1.8675507971014491,-0.4602044492753623,0.0282282478260869,0.8744344565217391,0.9308465217391292,-87.51687173913044,-7.79060688405797,47.5965792,,-0.1196014492753623,3.546673913043479,2947.62,2966.52,-122.82085904,114.73089444,0.0,0.0,79.87608695652173,27.07463768115942,33.6,0.854,100,True
,124,12400.0,2025-10-02 21:01:44.078000+00:00,2025-10-02 14:01:44.078,00:00:16.2,75704078,0.85,0.0,0.0,,,,,,,0.0,0.0,1.0,0.0,0.2337558139534883,645.953488372093,0.1322674418604651,5.3656976744186045,52.305813953488375,-0.0065116279069767,52.26337209302326,0.0902282906976744,-0.0728416686046511,-1.8495043023255813,-0.3661789302325581,-0.2987280534883721,0.904780988372093,-4.819507674418603,-29.866989534883714,-9.59207034883721,47.5965792,,-0.4126744186046512,5.205081395348837,2947.65023255814,2966.5577906976746,-122.82085904,114.73089444,0.0,0.0,79.8,27.1,33.6,0.8509767441860465,100,True
,125,12500.0,2025-10-02 21:01:44.178000+00:00,2025-10-02 14:01:44.178,00:00:16.3,75704178,0.85,0.0,0.0,,,,,,,0.0,0.0,1.0,0.0,0.7979444444444445,885.1222222222223,0.1409,5.641777777777778,49.57955555555556,0.0089999999999999,49.54833333333333,0.0932231955555555,-0.0966705677777777,-1.8501097777777775,0.0004889122222221,-0.0509172035555555,0.9603824444444444,-4.657717555555555,-4.503936555555555,7.522451222222223,47.5965792,,-0.6216222222222222,5.803133333333333,2947.7916666666665,2966.692888888889,-122.82085904,114.73089444,0.0,0.0,79.71222222222222,27.1,33.6,0.8456111111111111,100,True
,126,12600.0,2025-10-02 21:01:44.278000+00:00,2025-10-02 14:01:44.278,00:00:16.4,75704278,0.85,0.0,0.0,0.0,,0.0,0.55,,,0.0,0.0,1.0,0.0,0.9948791208791208,1062.5054945054944,0.1498241758241758,5.944945054945055,48.49879120879121,0.0786813186813186,48.46879120879121,0.1182450505494505,-0.1035584703296703,-1.857985054945055,0.0442378109890109,-0.0151690468131868,0.9930157582417584,-20.07773362637363,-5.875894285714287,-2.743423516483517,47.5965792,,-0.7504725274725275,6.298241758241758,2947.898021978022,2966.807802197802,-122.82085904,114.73089444,0.0,0.0,79.6021978021978,27.1,33.6,0.842065934065934,100,True
,127,12700.0,2025-10-02 21:01:44.378000+00:00,2025-10-02 14:01:44.378,00:00:16.5,75704378,0.85,0.0,0.0,0.0,,0.0,0.55,,,0.0,0.0,1.0,0.0,1.0083516483516484,1222.1868131868132,0.1627252747252747,6.025164835164835,46.6454945054945,0.0767032967032967,46.56945054945055,0.1067177318681318,-0.1065135384615384,-1.838936923076923,-0.001550967032967,-0.1035669516483516,1.011153846153846,25.452321978021978,0.4332380769230769,-23.003976923076923,47.5965792,,-0.9062417582417582,6.661043956043956,2947.9072527472526,2966.8172527472525,-122.82085904,114.73089444,0.0,0.0,79.69340659340659,27.1,33.6,0.8418681318681318,100,True
