ride_id,sample_idx,_elapsed_ms,ts_utc,ts_pst,video_ts_anchor,ms_today,cf_accel,cf_brake,cf_cruise,cf_turn_left,cf_turn_right,cf_carve_left,cf_carve_right,cf_ascent,cf_descent,cf_traction_loss,cf_idle,cf_forward,cf_reverse,speed_meters_per_sec,erpm,duty_cycle,current_in,current_motor,d_axis_current,q_axis_current,roll,pitch,yaw,accX,accY,accZ,gyroX,gyroY,gyroZ,gnss_lat,fault_code,d_axis_voltage,q_axis_voltage,tacho_meters,tacho_abs_meters,gnss_lon,gnss_alt,gnss_gVel,gnss_vVel,input_voltage,temp_mos_max,temp_motor,battery_level,dt_ms,_on_grid
ride_54,0,0.0,2025-10-02 21:04:54.142000+00:00,2025-10-02 14:04:54.142,00:00:08.2,75894142,0.0,0.0,0.0,0.0,0.0,0.0,0.0,0.0,0.0,0.0,1.0,0.0,0.0,0.0,0.0,-0.001,1.91,4.52,0.04,2.83,0.00817233,0.313583,-2.17391,-0.312126,-0.00959263,0.944819,-0.052284,-0.0894679,0.184923,47.59959269,0.0,-1.106,9.65,3854.67,3875.95,-122.82556344,109.63538955,0.0,0.0,80.8,27.6,34.8,0.842,100,True
,1,100.0,2025-10-02 21:04:54.242000+00:00,2025-10-02 14:04:54.242,00:00:08.3,75894242,0.0,0.0,0.0,0.0,0.0,0.0,0.0,0.0,0.0,0.0,1.0,0.0,0.0,0.0,0.0,-0.001,0.5055882352941177,1.196470588235294,0.0105882352941176,0.7491176470588234,0.0339079697058823,0.2941962352941176,-0.8403820588235293,-0.2888980588235294,-0.0338868726470588,0.9515028235294116,-0.0055088529411764,-0.0900387088235294,0.1291538823529411,47.59959269,,-0.242764705882353,2.532352941176472,3854.67,3875.95,-122.82556344,109.63538955,0.0,0.0,80.8,27.52647058823529,34.8,0.842,100,True
,2,200.0,2025-10-02 21:04:54.342000+00:00,2025-10-02 14:04:54.342,00:00:08.4,75894342,0.0,0.0,0.0,0.0,0.0,0.0,0.0,0.0,0.0,0.0,1.0,0.0,0.0,0.0,0.0,-0.001,0.0,0.0,0.0,0.0,0.0432097777777777,0.2872319333333333,-0.3604584888888889,-0.2832289777777778,-0.0450914666666666,0.9539161111111112,-0.0339065644444444,0.0596332755555555,0.1614837555555555,47.59959269,,0.068,-0.03,3854.67,3875.95,-122.82556344,109.63538955,0.0,0.0,80.8,27.5,34.8,0.8427111111111111,100,True
,3,300.0,2025-10-02 21:04:54.442000+00:00,2025-10-02 14:04:54.442,00:00:08.5,75894442,0.0,0.0,0.0,0.0,0.0,0.0,0.0,0.0,0.0,0.0,1.0,0.0,0.0,0.0,0.0,-0.001,0.0,0.0,0.0,0.0,0.0432037384615384,0.2872501978021978,-0.3608131868131868,-0.2826998791208791,-0.0404385703296703,0.9539645384615384,0.0044212241758241,0.0635500263736263,0.178381978021978,47.59959269,,0.0688131868131868,-0.03,3854.67,3875.95,-122.82556344,109.63538955,0.0,0.0,80.8,27.5,34.8,0.843,100,True
,4,400.0,2025-10-02 21:04:54.542000+00:00,2025-10-02 14:04:54.542,00:00:08.6,75894542,0.0,0.0,0.0,0.0,0.0,0.0,0.0,0.0,0.0,0.0,1.0,0.0,0.0,0.0,0.0,-0.001,0.0,0.0,0.0,0.0,0.0431645933333333,0.2872668333333333,-0.3611087888888889,-0.2809897777777778,-0.0446479877777777,0.9540367888888888,-0.0468603922222222,0.0505198311111111,0.1830142333333333,47.599595595,,0.0680777777777777,-0.03,3854.67,3875.95,-122.82556528444444,108.35326080955556,0.0,0.0,80.8,27.5,34.8,0.843,100,True
,5,500.0,2025-10-02 21:04:54.642000+00:00,2025-10-02 14:04:54.642,00:00:08.7,75894642,0.0,0.0,0.0,0.0,0.0,0.0,0.0,0.0,0.0,0.0,1.0,0.0,0.0,0.0,0.0,-0.001,0.0,0.0,0.0,0.0,0.0431559242105263,0.2873052,-0.3613384736842105,-0.2813860526315789,-0.0426154989473684,0.9540713684210528,0.0099909536842105,-0.0872806442105263,0.1106435894736842,47.59959584,,0.068,-0.03,3854.67,3875.95,-122.82556544,108.24512947,0.0,0.0,80.8,27.5,34.8,0.843,100,True
,6,600.0,2025-10-02 21:04:54.742000+00:00,2025-10-02 14:04:54.742,00:00:08.8,75894742,0.0,0.0,0.0,0.0,0.0,0.0,0.0,0.0,0.0,0.0,1.0,0.0,0.0,0.0,0.0,-0.001,0.0,0.0,0.0,0.0,0.04319045,0.287315,-0.361565,-0.2815753571428571,-0.0369954071428571,0.9541136428571428,0.0129042214285714,-0.0844754071428571,0.1841714285714285,47.59959584,,0.0680714285714285,-0.03,3854.67,3875.95,-122.82556544,108.24512947,0.0,0.0,80.8,27.5,34.8,0.843,100,True
,7,700.0,2025-10-02 21:04:54.842000+00:00,2025-10-02 14:04:54.842,00:00:08.9,75894842,0.0,0.0,0.0,0.0,0.0,0.0,0.0,0.0,0.0,0.0,1.0,0.0,0.0,0.0,0.0,-0.001,0.0,0.0,0.0,0.0,0.043243517293233,0.2872838721804511,-0.3617776015037593,-0.2798348345864662,-0.0402353443609022,0.954076052631579,-0.0241088842105263,-0.030475017293233,0.2404956466165413,47.59959584,,0.0688345864661654,-0.0298345864661654,3854.67,3875.95,-122.82556544,108.24512947,0.0,0.0,80.8,27.5,34.8,0.843,100,True
,8,800.0,2025-10-02 21:04:54.942000+00:00,2025-10-02 14:04:54.942,00:00:09.0,75894942,0.0,0.0,0.0,0.0,0.0,0.0,0.0,0.0,0.0,0.0,1.0,0.0,0.0,0.0,0.0,-0.001,0.0,0.0,0.0,0.0,0.0432631413533834,0.2872605639097744,-0.3619166992481202,-0.2815340827067669,-0.0402187278195488,0.9540444736842104,0.0761516421052631,-0.0837346413533834,0.1794076766917293,47.59959584,,0.0680827067669173,-0.0290827067669172,3854.67,3875.95,-122.82556544,108.24512947,0.0,0.0,80.8,27.5,34.8,0.843,100,True
,9,900.0,2025-10-02 21:04:55.042000+00:00,2025-10-02 14:04:55.042,00:00:09.1,75895042,0.0,0.0,0.0,0.0,0.0,0.0,0.0,0.0,0.0,0.0,1.0,0.0,0.0,0.0,0.0,-0.001,0.0,0.0,0.0,0.0,0.0432275717391304,0.2872454239130435,-0.3623624891304348,-0.2833384782608695,-0.0411838076086956,0.9539945652173912,-0.0536545576086956,0.0452653076086956,0.1156835,47.59959584,,0.0689673913043478,-0.0299673913043478,3854.67,3875.95,-122.82556544,108.24512947,0.0,0.0,80.8,27.5,34.8,0.843,100,True
,10,1000.0,2025-10-02 21:04:55.142000+00:00,2025-10-02 14:04:55.142,00:00:09.2,75895142,0.0,0.0,0.0,0.0,0.0,0.0,0.0,0.0,0.0,0.0,1.0,0.0,0.0,0.0,0.0,-0.001,0.0,0.0,0.0,0.0,0.0432604439999999,0.28725332,-0.3625762,-0.28003724,-0.04106248,0.95397564,-0.0584018,-0.014585588,0.11442072,47.59959584,,0.06908,-0.03,3854.67,3875.95,-122.82556544,108.24512947,0.0,0.0,80.8,27.5,34.8,0.843,100,True
,11,1100.0,2025-10-02 21:04:55.242000+00:00,2025-10-02 14:04:55.242,00:00:09.3,75895242,0.0,0.0,0.0,0.0,0.0,0.0,0.0,0.0,0.0,0.0,1.0,0.0,0.0,0.0,0.0,-0.001,0.0,0.0,0.0,0.0,0.04328342,0.2872348,-0.3627906999999999,-0.2809009,-0.04083864,0.953986,-0.0450671599999999,0.0497272099999999,0.1055656,47.59959584,,0.07,-0.0301,3854.67,3875.95,-122.82556544,108.24512947,0.0,0.0,80.8,27.5,34.8,0.843,100,True
,12,1200.0,2025-10-02 21:04:55.342000+00:00,2025-10-02 14:04:55.342,00:00:09.4,75895342,0.0,0.0,0.0,0.0,0.0,0.0,0.0,0.0,0.0,0.0,1.0,0.0,0.0,0.0,0.0,-0.001,0.0,0.0,0.0,0.0,0.0432970842696629,0.2872482921348314,-0.363018393258427,-0.2793164269662921,-0.040769017977528,0.9540353370786516,0.056855813483146,0.0714621146067415,0.0773713033707865,47.59959584,,0.0690561797752809,-0.0306853932584269,3854.67,3875.95,-122.82556544,108.24512947,0.0,0.0,80.8,27.5,34.8,0.843,100,True
,13,1300.0,2025-10-02 21:04:55.442000+00:00,2025-10-02 14:04:55.442,00:00:09.5,75895442,0.0,0.0,0.0,0.0,0.0,0.0,0.0,0.0,0.0,0.0,1.0,0.0,0.0,0.0,0.0,-0.001,0.0,0.0,0.0,0.0,0.0432601515463917,0.2872648144329897,-0.3632931443298969,-0.2820521752577319,-0.0398869474226804,0.954119381443299,0.0454847577319587,0.092290149484536,0.1744844639175257,47.59959584,,0.067,-0.03,3854.67,3875.95,-122.82556544,108.24512947,0.0,0.0,80.8,27.5,34.8,0.843,100,True
,14,1400.0,2025-10-02 21:04:55.542000+00:00,2025-10-02 14:04:55.542,00:00:09.6,75895542,0.0,0.0,0.0,0.0,0.0,0.0,0.0,0.0,0.0,0.0,1.0,0.0,0.0,0.0,0.0,-0.001,0.0,0.0,0.0,0.0,0.0432239896551724,0.2872559655172413,-0.3635562413793103,-0.2829229310344827,-0.0426909206896551,0.9542067586206896,0.0812734103448275,0.0835020172413793,0.1035850827586206,47.59959760206897,,0.067,-0.03,3854.67,3875.95,-122.82556619793104,107.40904901137932,0.0,0.0,80.8,27.5,34.8,0.843,100,True
,15,1500.0,2025-10-02 21:04:55.642000+00:00,2025-10-02 14:04:55.642,00:00:09.7,75895642,0.0,0.0,0.0,0.0,0.0,0.0,0.0,0.0,0.0,0.0,1.0,0.0,0.0,0.0,0.0,-0.001,0.0,0.0,0.0,0.0,0.0432079758241758,0.2872438131868132,-0.363808010989011,-0.280850989010989,-0.0418069868131868,0.9542814725274724,-0.005649378021978,0.0348647527472527,0.0814860175824175,47.59959949,,0.067,-0.03,3854.67,3875.95,-122.82556701,106.51324852,0.0,0.0,80.8,27.5,34.8,0.843,100,True
,16,1600.0,2025-10-02 21:04:55.742000+00:00,2025-10-02 14:04:55.742,00:00:09.8,75895742,0.0,0.0,0.0,0.0,0.0,0.0,0.0,0.0,0.0,0.0,1.0,0.0,0.0,0.0,0.0,-0.001,0.0,0.0,0.0,0.0,0.0432468382978723,0.2872381914893617,-0.3640113404255319,-0.2804767659574468,-0.0439548978723404,0.9543427659574468,0.0323872382978723,-0.0207563978723404,0.0586729957446808,47.59959949,,0.0683617021276595,-0.0306808510638297,3854.67,3875.95,-122.82556701,106.51324852,0.0,0.0,80.8,27.5,34.8,0.843,100,True
,17,1700.0,2025-10-02 21:04:55.842000+00:00,2025-10-02 14:04:55.842,00:00:09.9,75895842,0.0,0.0,0.0,0.0,0.0,0.0,0.0,0.0,0.0,0.0,1.0,0.0,0.0,0.0,0.0,-0.001,0.0,0.0,0.0,0.0,0.0432780678160919,0.287224540229885,-0.3642192873563218,-0.2803233678160919,-0.0457838298850574,0.9543704597701148,-0.0884519747126436,0.0360201068965517,0.102807756321839,47.59959949,,0.0681954022988505,-0.0301954022988505,3854.67,3875.95,-122.82556701,106.51324852,0.0,0.0,80.8,27.5,34.8,0.843,100,True
,18,1800.0,2025-10-02 21:04:55.942000+00:00,2025-10-02 14:04:55.942,00:00:10.0,75895942,0.0,0.0,0.0,0.0,0.0,0.0,0.0,0.0,0.0,0.0,1.0,0.0,0.0,0.0,0.0,-0.001,0.0,0.0,0.0,0.0,0.0432819804347826,0.2871832065217391,-0.3644509673913043,-0.2861680326086956,-0.0429592967391304,0.9544090869565216,0.1179889673913043,-0.0141449217391304,0.0355418880434782,47.59959949,,0.068,-0.03,3854.67,3875.95,-122.82556701,106.51324852,0.0,0.0,80.8,27.5,34.8,0.843,100,True
,19,1900.0,2025-10-02 21:04:56.042000+00:00,2025-10-02 14:04:56.042,00:00:10.1,75896042,0.0,0.0,0.0,0.0,0.0,0.0,0.0,0.0,0.0,0.0,1.0,0.0,0.0,0.0,0.0,-0.001,0.0,0.0,0.0,0.0,0.0432695512,0.287180456,-0.364624152,-0.282348904,-0.0411796408,0.95447852,0.0476005296,0.0814387776,0.0850235407999999,47.59959949,,0.068,-0.029272,3854.67,3875.95,-122.82556701,106.51324852,0.0,0.0,80.8,27.5,34.8,0.843,100,True
,20,2000.0,2025-10-02 21:04:56.142000+00:00,2025-10-02 14:04:56.142,00:00:10.2,75896142,0.0,0.0,0.0,0.0,0.0,0.0,0.0,0.0,0.0,0.0,1.0,0.0,0.0,0.0,0.0,-0.001,0.0,0.0,0.0,0.0,0.0432369934782608,0.2871659347826087,-0.3649148695652174,-0.2827614347826087,-0.0434789152173913,0.9545804782608696,0.0613554739130434,0.019270402173913,0.1035670217391304,47.59959949,,0.0687173913043478,-0.0297173913043478,3854.67,3875.95,-122.82556701,106.51324852,0.0,0.0,80.8,27.5,34.8,0.843,100,True
,21,2100.0,2025-10-02 21:04:56.242000+00:00,2025-10-02 14:04:56.242,00:00:10.3,75896242,0.0,0.0,0.0,0.0,0.0,0.0,0.0,0.0,0.0,0.0,1.0,0.0,0.0,0.0,0.0,-0.001,0.0,0.0,0.0,0.0,0.0432519406593406,0.2871551208791209,-0.3651582527472527,-0.2824083846153846,-0.042569156043956,0.9546378351648352,0.0293320901098901,0.037240845054945,0.1633377252747253,47.59959949,,0.0681868131868131,-0.03,3854.67,3875.95,-122.82556701,106.51324852,0.0,0.0,80.8,27.5,34.8,0.843,100,True
,22,2200.0,2025-10-02 21:04:56.342000+00:00,2025-10-02 14:04:56.342,00:00:10.4,75896342,0.0,0.0,0.0,0.0,0.0,0.0,0.0,0.0,0.0,0.0,1.0,0.0,0.0,0.0,0.0,-0.001,0.0,0.0,0.0,0.0,0.043284317204301,0.2871370430107526,-0.3653759569892473,-0.2816526021505376,-0.0425839860215053,0.9545958064516128,0.0119880387096774,-0.0751144903225806,0.1164206559139784,47.59959949,,0.068,-0.03,3854.67,3875.95,-122.82556701,106.51324852,0.0,0.0,80.8,27.5,34.8,0.843,100,True
,23,2300.0,2025-10-02 21:04:56.442000+00:00,2025-10-02 14:04:56.442,00:00:10.5,75896442,0.0,0.0,0.0,0.0,0.0,0.0,0.0,0.0,0.0,0.0,1.0,0.0,0.0,0.0,0.0,-0.001,0.0,0.0,0.0,0.0,0.0432532,0.287132,-0.365624,-0.286011,-0.0421549,0.954531,-0.0584018,0.0498111,0.113762,47.59959949,,0.069,-0.031,3854.67,3875.95,-122.82556701,106.51324852,0.0,0.0,80.8,27.5,34.8,0.843,100,True
,24,2400.0,2025-10-02 21:04:56.542000+00:00,2025-10-02 14:04:56.542,00:00:10.6,75896542,0.0,0.0,0.0,0.0,0.0,0.0,0.0,0.0,0.0,0.0,1.0,0.0,0.0,0.0,0.0,-0.001,0.0,0.0,0.0,0.0,0.0432396083333333,0.2871471666666667,-0.3657435833333333,-0.2856779166666667,-0.0430033583333333,0.9545269166666668,-0.0177247999999999,0.00894335,0.1106108333333333,47.59960219083334,,0.0684166666666666,-0.0298333333333333,3854.67,3875.95,-122.82556981583332,105.628224695,0.0,0.0,80.8,27.5,34.8,0.843,100,True
,25,2500.0,2025-10-02 21:04:56.642000+00:00,2025-10-02 14:04:56.642,00:00:10.7,75896642,0.0,0.0,0.0,0.0,0.0,0.0,0.0,0.0,0.0,0.0,1.0,0.0,0.0,0.0,0.0,-0.001,0.0,0.0,0.0,0.0,0.0432197352941176,0.2871481176470588,-0.3659744117647059,-0.2843204705882353,-0.0439442,0.9545691764705884,-0.0378923882352941,-0.0202037117647058,0.1126785882352941,47.59960412,,0.068,-0.0297058823529411,3854.67,3875.95,-122.82557182,104.99606482,0.0,0.0,80.8,27.5,34.8,0.843,100,True
,26,2600.0,2025-10-02 21:04:56.742000+00:00,2025-10-02 14:04:56.742,00:00:10.8,75896742,0.0,0.0,0.0,0.0,0.0,0.0,0.0,0.0,0.0,0.0,1.0,0.0,0.0,0.0,0.0,-0.001,0.0,0.0,0.0,0.0,0.0432516956521739,0.2871130217391304,-0.3662110869565217,-0.2799743804347825,-0.0416635641304347,0.954649141304348,-0.0584018,-0.0201853,0.114478,47.59960412,,0.0688152173913043,-0.03,3854.67,3875.95,-122.82557182,104.99606482,0.0,0.0,80.8,27.5,34.8,0.843,100,True
,27,2700.0,2025-10-02 21:04:56.842000+00:00,2025-10-02 14:04:56.842,00:00:10.9,75896842,0.0,0.0,0.0,0.0,0.0,0.0,0.0,0.0,0.0,0.0,1.0,0.0,0.0,0.0,0.0,-0.001,0.0,0.0,0.0,0.0,0.0432923539325842,0.2871190561797753,-0.3664571011235955,-0.2802793820224719,-0.0429670191011235,0.9546769887640448,0.0066291662921348,-0.0202436797752809,0.1087724494382022,47.59960412,,0.068067415730337,-0.03,3854.67,3875.95,-122.82557182,104.99606482,0.0,0.0,80.8,27.5,34.8,0.843,100,True
,28,2800.0,2025-10-02 21:04:56.942000+00:00,2025-10-02 14:04:56.942,00:00:11.0,75896942,0.0,0.0,0.0,0.0,0.0,0.0,0.0,0.0,0.0,0.0,1.0,0.0,0.0,0.0,0.0,-0.001,0.0,0.0,0.0,0.0,0.0432899840425531,0.2870968723404255,-0.3666933191489361,-0.2792387872340425,-0.0392990744680851,0.9546608085106384,0.0115254521276595,0.0497712744680851,0.1098693936170212,47.59960412,,0.067063829787234,-0.03,3854.67,3875.95,-122.82557182,104.99606482,0.0,0.0,80.8,27.5,34.8,0.843,100,True
,29,2900.0,2025-10-02 21:04:57.042000+00:00,2025-10-02 14:04:57.042,00:00:11.1,75897042,0.0,0.0,0.0,0.0,0.0,0.0,0.0,0.0,0.0,0.0,1.0,0.0,0.0,0.0,0.0,-0.001,0.0,0.0,0.0,0.0,0.0432777964285714,0.2870945,-0.3669076071428571,-0.2808721071428571,-0.0431150714285714,0.9546560714285716,0.0181035785714285,0.0430389535714285,0.1849205714285714,47.59960412,,0.0688928571428571,-0.03,3854.67,3875.95,-122.82557182,104.99606482,0.0,0.0,80.8,27.5,34.8,0.843,100,True
,30,3000.0,2025-10-02 21:04:57.142000+00:00,2025-10-02 14:04:57.142,00:00:11.2,75897142,0.0,0.0,0.0,0.0,0.0,0.0,0.0,0.0,0.0,0.0,1.0,0.0,0.0,0.0,0.0,-0.001,0.0,0.0,0.0,0.0,0.0432503058823529,0.2871002352941176,-0.3671598235294117,-0.2809424117647059,-0.0429474117647058,0.95467,-0.0005422470588235,0.001365194117647,0.2083890588235294,47.59960412,,0.068,-0.03,3854.67,3875.95,-122.82557182,104.99606482,0.0,0.0,80.8,27.5,34.8,0.843,100,True
,31,3100.0,2025-10-02 21:04:57.242000+00:00,2025-10-02 14:04:57.242,00:00:11.3,75897242,0.0,0.0,0.0,0.0,0.0,0.0,0.0,0.0,0.0,0.0,1.0,0.0,0.0,0.0,0.0,-0.001,0.0,0.0,0.0,0.0,0.0432509263157894,0.2870907368421053,-0.3674338421052631,-0.2833982631578947,-0.0443066105263157,0.9547051578947368,-0.0609777157894736,0.0200384684210526,0.0847040631578947,47.59960412,,0.0684210526315789,-0.03,3854.67,3875.95,-122.82557182,104.99606482,0.0,0.0,80.8,27.5,34.8,0.843,100,True
,32,3200.0,2025-10-02 21:04:57.342000+00:00,2025-10-02 14:04:57.342,00:00:11.4,75897342,0.0,0.0,0.0,0.0,0.0,0.0,0.0,0.0,0.0,0.0,1.0,0.0,0.0,0.0,0.0,-0.001,0.0,0.0,0.0,0.0,0.0432769163043478,0.2870990217391304,-0.3676983152173912,-0.2816740978260869,-0.0436895923913043,0.9547472717391304,-0.0244267032608695,-0.0202313836956521,0.1099698565217391,47.59960412,,0.069,-0.03,3854.67,3875.95,-122.82557182,104.99606482,0.0,0.0,80.8,27.5,34.8,0.843,100,True
,33,3300.0,2025-10-02 21:04:57.442000+00:00,2025-10-02 14:04:57.442,00:00:11.5,75897442,0.0,0.0,0.0,0.0,0.0,0.0,0.0,0.0,0.0,0.0,1.0,0.0,0.0,0.0,0.0,-0.001,0.0,0.0,0.0,0.0,0.0432547125,0.2870937840909091,-0.3679244659090909,-0.2822093636363636,-0.0418912454545454,0.9547718522727272,0.0557612579545454,-0.0200017443181818,0.1324090227272727,47.59960412,,0.0683977272727272,-0.0293977272727272,3854.67,3875.95,-122.82557182,104.99606482,0.0,0.0,80.8,27.5,34.8,0.843,100,True
,34,3400.0,2025-10-02 21:04:57.542000+00:00,2025-10-02 14:04:57.542,00:00:11.6,75897542,0.0,0.0,0.0,0.0,0.0,0.0,0.0,0.0,0.0,0.0,1.0,0.0,0.0,0.0,0.0,-0.001,0.0,0.0,0.0,0.0,0.0432014714285714,0.2871324285714285,-0.3681495714285714,-0.286398,-0.0416341285714285,0.9547695714285714,0.0312536857142857,0.1797234285714285,0.1045658571428571,47.59960521285714,,0.068,-0.0268571428571428,3854.67,3875.95,-122.82557218428572,104.67080671285714,0.0,0.0,80.8,27.5,34.8,0.843,100,True
,35,3500.0,2025-10-02 21:04:57.642000+00:00,2025-10-02 14:04:57.642,00:00:11.7,75897642,0.0,0.0,0.0,0.0,0.0,0.0,0.0,0.0,0.0,0.0,1.0,0.0,0.0,0.0,0.0,-0.001,0.0,0.0,0.0,0.0,0.0431277071428571,0.2872168333333333,-0.3685611428571428,-0.2797542619047619,-0.0360252095238095,0.9546936428571428,0.195622619047619,-0.0487452142857142,0.0924827166666666,47.59960565,,0.0688809523809523,-0.026,3854.67,3875.95,-122.82557233,104.54070347,0.0,0.0,80.8,27.5,34.8,0.843,100,True
ride_54,36,3600.0,2025-10-02 21:04:57.742000+00:00,2025-10-02 14:04:57.742,00:00:11.8,75897742,0.0,0.0,0.0,0.0,0.0,0.0,0.0,0.0,0.0,0.0,1.0,0.0,0.0,0.0,0.0,-0.001,0.0,0.0,0.0,0.0,0.0429237,0.287026,-0.368796,-0.283299,-0.0410912,0.954564,0.0871803,-0.0895932,0.172688,47.59960565,0.0,0.069,-0.029,3854.67,3875.95,-122.82557233,104.54070347,0.0,0.0,80.8,27.5,34.8,0.843,100,True
,37,3700.0,2025-10-02 21:04:57.842000+00:00,2025-10-02 14:04:57.842,00:00:11.9,75897842,0.0,0.0,0.0,0.0,0.0,0.0,0.0,0.0,0.0,0.0,1.0,0.0,0.0,0.0,0.0,-0.001,0.0,0.0,0.0,0.0,0.0426618416666666,0.2870395416666667,-0.369114875,-0.2835785833333333,-0.0406391458333333,0.95461925,-0.0525389083333333,0.1146582375,0.1799283333333333,47.59960565,,0.0670833333333333,-0.03,3854.67,3875.95,-122.82557233,104.54070347,0.0,0.0,80.8,27.5,34.8,0.844,100,True
,38,3800.0,2025-10-02 21:04:57.942000+00:00,2025-10-02 14:04:57.942,00:00:12.0,75897942,0.0,0.0,0.0,0.0,0.0,0.0,0.0,0.0,0.0,0.0,1.0,0.0,0.0,0.0,0.0,-0.001,0.0,0.0,0.0,0.0,0.0426125361111111,0.2870485694444444,-0.3692794583333333,-0.2821216388888888,-0.0395715763888888,0.9546234166666666,-0.0567873805555555,0.0169455291666666,0.1325005555555555,47.59960565,,0.0684722222222222,-0.03,3854.67,3875.95,-122.82557233,104.54070347,0.0,0.0,80.8,27.5,34.8,0.844,100,True
,39,3900.0,2025-10-02 21:04:58.042000+00:00,2025-10-02 14:04:58.042,00:00:12.1,75898042,0.0,0.0,0.0,0.0,0.0,0.0,0.0,0.0,0.0,0.0,1.0,0.0,0.0,0.0,0.0,-0.001,0.0,0.0,0.0,0.0,0.0428622519480519,0.2870737402597402,-0.3694676103896104,-0.2847887792207792,-0.0443274402597402,0.954608896103896,-0.1145498051948051,0.0925864999999999,0.1182503376623376,47.59960565,,0.0681948051948052,-0.03,3854.67,3875.95,-122.82557233,104.54070347,0.0,0.0,80.8,27.5,34.8,0.844,100,True
,40,4000.0,2025-10-02 21:04:58.142000+00:00,2025-10-02 14:04:58.142,00:00:12.2,75898142,0.0,0.0,0.0,0.0,0.0,0.0,0.0,0.0,0.0,0.0,1.0,0.0,0.0,0.0,0.0,-0.001,0.0,0.0,0.0,0.0,0.0430164977528089,0.287070404494382,-0.3696785056179775,-0.2796294606741573,-0.0460044471910112,0.9545219101123597,0.0716603146067415,0.1196904494382022,0.1016348539325842,47.59960565,,0.068,-0.03,3854.67,3875.95,-122.82557233,104.54070347,0.0,0.0,80.8,27.5,34.8,0.844,100,True
,41,4100.0,2025-10-02 21:04:58.242000+00:00,2025-10-02 14:04:58.242,00:00:12.3,75898242,0.0,0.0,0.0,0.0,0.0,0.0,0.0,0.0,0.0,0.0,1.0,0.0,0.0,0.0,0.0,-0.001,0.0,0.0,0.0,0.0,0.04289676,0.2870696,-0.3699901333333333,-0.2815506666666666,-0.0408725533333333,0.9544521333333332,0.0924823866666666,0.0463516199999999,0.2317346,47.59960565,,0.0670666666666666,-0.03,3854.67,3875.95,-122.82557233,104.54070347,0.0,0.0,80.8,27.5,34.8,0.844,100,True
,42,4200.0,2025-10-02 21:04:58.342000+00:00,2025-10-02 14:04:58.342,00:00:12.4,75898342,0.0,0.0,0.0,0.0,0.0,0.0,0.0,0.0,0.0,0.0,1.0,0.0,0.0,0.0,0.0,-0.001,0.0,0.0,0.0,0.0,0.0426915376344086,0.2870448387096774,-0.3702972258064516,-0.2818291612903226,-0.0436195924731182,0.954449634408602,0.0560160344086021,0.0036730698924731,0.0921051247311827,47.59960565,,0.0678279569892473,-0.03,3854.67,3875.95,-122.82557233,104.54070347,0.0,0.0,80.8,27.5,34.8,0.844,100,True
,43,4300.0,2025-10-02 21:04:58.442000+00:00,2025-10-02 14:04:58.442,00:00:12.5,75898442,0.0,0.0,0.0,0.0,0.0,0.0,0.0,0.0,0.0,0.0,1.0,0.0,0.0,0.0,0.0,-0.001,0.0,0.0,0.0,0.0,0.0426572531914893,0.2870217127659574,-0.3705251489361701,-0.2778303085106383,-0.0429819265957446,0.9545270744680852,-0.0815817829787234,0.1019824893617021,0.0449887244680851,47.59960565,,0.067,-0.03,3854.67,3875.95,-122.82557233,104.54070347,0.0,0.0,80.8,27.5,34.8,0.844,100,True
,44,4400.0,2025-10-02 21:04:58.542000+00:00,2025-10-02 14:04:58.542,00:00:12.6,75898542,0.0,0.0,0.0,0.0,0.0,0.0,0.0,0.0,0.0,0.0,1.0,0.0,0.0,0.0,0.0,-0.001,0.0,0.0,0.0,0.0,0.0428216544444444,0.2870221666666666,-0.3707152777777777,-0.2801122,-0.0410638622222222,0.9546484555555556,-0.10981138,0.0042610399999999,0.0711089611111111,47.59960670044445,,0.0673222222222222,-0.03,3854.67,3875.95,-122.82557235255555,104.50264869688888,0.0,0.0,80.8,27.5,34.8,0.844,100,True
,45,4500.0,2025-10-02 21:04:58.642000+00:00,2025-10-02 14:04:58.642,00:00:12.7,75898642,0.0,0.0,0.0,0.0,0.0,0.0,0.0,0.0,0.0,0.0,1.0,0.0,0.0,0.0,0.0,-0.001,0.0,0.0,0.0,0.0,0.0429444,0.287012,-0.370861,-0.28254,-0.040629,0.954702,-0.0584018,-0.0901816,0.115194,47.59960891,,0.068,-0.03,3854.67,3875.95,-122.8255724,104.42260245,0.0,0.0,80.8,27.5,34.8,0.844,100,True
,46,4600.0,2025-10-02 21:04:58.742000+00:00,2025-10-02 14:04:58.742,00:00:12.8,75898742,0.0,0.0,0.0,0.0,0.0,0.0,0.0,0.0,0.0,0.0,1.0,0.0,0.0,0.0,0.0,-0.001,0.0,0.0,0.0,0.0,0.0429093613636363,0.2870169090909091,-0.3710217727272727,-0.2811795681818181,-0.0436399909090909,0.954698931818182,0.034686775,-0.089382584090909,0.1932620454545454,47.59960891,,0.068,-0.03,3854.67,3875.95,-122.8255724,104.42260245,0.0,0.0,80.8,27.5,34.8,0.844,100,True
,47,4700.0,2025-10-02 21:04:58.842000+00:00,2025-10-02 14:04:58.842,00:00:12.9,75898842,0.0,0.0,0.0,0.0,0.0,0.0,0.0,0.0,0.0,0.0,1.0,0.0,0.0,0.0,0.0,-0.001,0.0,0.0,0.0,0.0,0.0428170955555555,0.2870082666666667,-0.3712427777777777,-0.2816654888888888,-0.0450476444444444,0.9546940666666668,0.0532249044444444,-0.0211058111111111,0.1765274666666666,47.59960891,,0.068,-0.03,3854.67,3875.95,-122.8255724,104.42260245,0.0,0.0,80.8,27.5,34.8,0.844,100,True
,48,4800.0,2025-10-02 21:04:58.942000+00:00,2025-10-02 14:04:58.942,00:00:13.0,75898942,0.0,0.0,0.0,0.0,0.0,0.0,0.0,0.0,0.0,0.0,1.0,0.0,0.0,0.0,0.0,-0.001,0.0,0.0,0.0,0.0,0.0427344688888888,0.2869891111111111,-0.371439874074074,-0.2820604666666667,-0.0436544429629629,0.9546875555555556,-0.0206949125925925,0.065850474074074,0.1102891037037037,47.59960891,,0.068,-0.03,3854.67,3875.95,-122.8255724,104.42260245,0.0,0.0,80.8,27.5,34.8,0.844,100,True
,49,4900.0,2025-10-02 21:04:59.042000+00:00,2025-10-02 14:04:59.042,00:00:13.1,75899042,0.0,0.0,0.0,0.0,0.0,0.0,0.0,0.0,0.0,0.0,1.0,0.0,0.0,0.0,0.0,-0.001,0.0,0.0,0.0,0.0,0.0427046911111111,0.2869668888888889,-0.3716717259259259,-0.2788071333333333,-0.040806517037037,0.9546764444444444,-0.1240017274074074,0.1177923259259259,0.1188216962962963,47.59960891,,0.068,-0.03,3854.67,3875.95,-122.8255724,104.42260245,0.0,0.0,80.8,27.5,34.8,0.844,100,True
,50,5000.0,2025-10-02 21:04:59.142000+00:00,2025-10-02 14:04:59.142,00:00:13.2,75899142,0.0,0.0,0.0,0.0,0.0,0.0,0.0,0.0,0.0,0.0,1.0,0.0,0.0,0.0,0.0,-0.001,0.0,0.0,0.0,0.0,0.042835404,0.28696408,-0.37181924,-0.2809282,-0.044428632,0.95466448,-0.061191088,0.11980952,0.11328972,47.59960891,,0.068,-0.03,3854.67,3875.95,-122.8255724,104.42260245,0.0,0.0,80.8,27.5,34.8,0.844,100,True
,51,5100.0,2025-10-02 21:04:59.242000+00:00,2025-10-02 14:04:59.242,00:00:13.3,75899242,0.0,0.0,0.0,0.0,0.0,0.0,0.0,0.0,0.0,0.0,1.0,0.0,0.0,0.0,0.0,-0.001,0.0,0.0,0.0,0.0,0.0429225294117647,0.2869679411764705,-0.3721672352941176,-0.279675294117647,-0.0421958823529411,0.9546263529411764,0.0331359705882352,-0.0813944235294117,0.1690779882352941,47.59960891,,0.066235294117647,-0.0291176470588235,3854.67,3875.95,-122.8255724,104.42260245,0.0,0.0,80.8,27.5,34.8,0.844,100,True
,52,5200.0,2025-10-02 21:04:59.342000+00:00,2025-10-02 14:04:59.342,00:00:13.4,75899342,0.0,0.0,0.0,0.0,0.0,0.0,0.0,0.0,0.0,0.0,1.0,0.0,0.0,0.0,0.0,-0.001,0.0,0.0,0.0,0.0,0.0427886404494382,0.2869630898876404,-0.3724667528089888,-0.2800358426966292,-0.0363584494382022,0.9545733258426966,0.0937503370786517,-0.0004579876404494,0.120666017977528,47.59960891,,0.0677191011235955,-0.03,3854.67,3875.95,-122.8255724,104.42260245,0.0,0.0,80.8,27.5,34.8,0.844,100,True
,53,5300.0,2025-10-02 21:04:59.442000+00:00,2025-10-02 14:04:59.442,00:00:13.5,75899442,0.0,0.0,0.0,0.0,0.0,0.0,0.0,0.0,0.0,0.0,1.0,0.0,0.0,0.0,0.0,-0.001,0.0,0.0,0.0,0.0,0.0426930514285714,0.2869697142857143,-0.3727080285714286,-0.2804317142857143,-0.0404546485714285,0.9545439428571428,-0.0374992037142857,0.0501415828571428,0.1460565571428571,47.599609910285714,,0.0675142857142857,-0.03,3854.67,3875.95,-122.82557254657142,104.35792065085714,0.0,0.0,80.8,27.5,34.8,0.844,100,True
,54,5400.0,2025-10-02 21:04:59.542000+00:00,2025-10-02 14:04:59.542,00:00:13.6,75899542,0.0,0.0,0.0,0.0,0.0,0.0,0.0,0.0,0.0,0.0,1.0,0.0,0.0,0.0,0.0,-0.001,0.0,0.0,0.0,0.0,0.0426931942857142,0.2869661428571428,-0.3728608857142857,-0.2849031428571428,-0.0439720057142857,0.9545382285714286,0.0035696748571428,0.0490773685714285,0.0420747714285714,47.59961268885714,,0.0689428571428571,-0.03,3854.67,3875.95,-122.82557295371429,104.17824898657145,0.0,0.0,80.8,27.5,34.8,0.844,100,True
,55,5500.0,2025-10-02 21:04:59.642000+00:00,2025-10-02 14:04:59.642,00:00:13.7,75899642,0.0,0.0,0.0,0.0,0.0,0.0,0.0,0.0,0.0,0.0,1.0,0.0,0.0,0.0,0.0,-0.001,0.0,0.0,0.0,0.0,0.0428679848837209,0.2869581860465116,-0.3732246046511628,-0.277254488372093,-0.0413088965116279,0.954555558139535,0.0061523,0.0498116790697674,0.1138175116279069,47.5996128,,0.068,-0.0290813953488372,3854.67,3875.95,-122.82557297,104.17106212,0.0,0.0,80.8,27.5,34.8,0.844,100,True
,56,5600.0,2025-10-02 21:04:59.742000+00:00,2025-10-02 14:04:59.742,00:00:13.8,75899742,0.0,0.0,0.0,0.0,0.0,0.0,0.0,0.0,0.0,0.0,1.0,0.0,0.0,0.0,0.0,-0.001,0.0,0.0,0.0,0.0,0.0428130814432989,0.2869500824742268,-0.373461793814433,-0.2800115257731959,-0.0424379257731958,0.9546215051546392,-0.0358628876288659,0.0355117999999999,0.1974164639175257,47.5996128,,0.068,-0.03,3854.67,3875.95,-122.82557297,104.17106212,0.0,0.0,80.8,27.5,34.8,0.844,100,True
,57,5700.0,2025-10-02 21:04:59.842000+00:00,2025-10-02 14:04:59.842,00:00:13.9,75899842,0.0,0.0,0.0,0.0,0.0,0.0,0.0,0.0,0.0,0.0,1.0,0.0,0.0,0.0,0.0,-0.001,0.0,0.0,0.0,0.0,0.0427271857142857,0.2869637142857142,-0.3737105714285714,-0.2824182857142857,-0.0379777142857142,0.954684,0.0200699857142857,0.0007705714285714,0.2077675714285714,47.5996128,,0.0677142857142857,-0.03,3854.67,3875.95,-122.82557297,104.17106212,0.0,0.0,80.8,27.5,34.8,0.844,100,True
,58,5800.0,2025-10-02 21:04:59.942000+00:00,2025-10-02 14:04:59.942,00:00:14.0,75899942,0.0,0.0,0.0,0.0,0.0,0.0,0.0,0.0,0.0,0.0,1.0,0.0,0.0,0.0,0.0,-0.001,0.0,0.0,0.0,0.0,0.0426912404255319,0.2869973617021276,-0.3739649787234042,-0.2801241063829787,-0.0387253191489361,0.9547387872340426,-0.0183429914893617,0.0497751382978723,0.1102474042553191,47.5996128,,0.0665744680851063,-0.0295744680851063,3854.67,3875.95,-122.82557297,104.17106212,0.0,0.0,80.8,27.5,34.8,0.844,100,True
,59,5900.0,2025-10-02 21:05:00.042000+00:00,2025-10-02 14:05:00.042,00:00:14.1,75900042,0.0,0.0,0.0,0.0,0.0,0.0,0.0,0.0,0.0,0.0,1.0,0.0,0.0,0.0,0.0,-0.001,0.0,0.0,0.0,0.0,0.0427224755555555,0.2869910888888888,-0.3741710444444444,-0.2780674666666667,-0.0404534622222222,0.9548112,-0.0552749244444444,0.0143999422222222,0.1497667111111111,47.5996128,,0.0665111111111111,-0.0295111111111111,3854.67,3875.95,-122.82557297,104.17106212,0.0,0.0,80.8,27.5,34.8,0.844,100,True
,60,6000.0,2025-10-02 21:05:00.142000+00:00,2025-10-02 14:05:00.142,00:00:14.2,75900142,0.0,0.0,0.0,0.0,0.0,0.0,0.0,0.0,0.0,0.0,1.0,0.0,0.0,0.0,0.0,-0.001,0.0,0.0,0.0,0.0,0.04273676,0.2869725851851851,-0.3743535037037037,-0.2799565185185185,-0.0418116,0.954855274074074,-0.054821754074074,-0.0197676533333333,0.1552817925925926,47.5996128,,0.0678296296296296,-0.03,3854.67,3875.95,-122.82557297,104.17106212,0.0,0.0,80.8,27.5,34.8,0.844,100,True
,61,6100.0,2025-10-02 21:05:00.242000+00:00,2025-10-02 14:05:00.242,00:00:14.3,75900242,0.0,0.0,0.0,0.0,0.0,0.0,0.0,0.0,0.0,0.0,1.0,0.0,0.0,0.0,0.0,-0.001,0.0,0.0,0.0,0.0,0.0427163752808988,0.2869731797752809,-0.3745651685393258,-0.2809639662921348,-0.043158104494382,0.9548905168539326,-0.0584018,-0.0201853,0.114478,47.5996128,,0.0687640449438202,-0.03,3854.67,3875.95,-122.82557297,104.17106212,0.0,0.0,80.8,27.5,34.8,0.844,100,True
,62,6200.0,2025-10-02 21:05:00.342000+00:00,2025-10-02 14:05:00.342,00:00:14.4,75900342,0.0,0.0,0.0,0.0,0.0,0.0,0.0,0.0,0.0,0.0,1.0,0.0,0.0,0.0,0.0,-0.001,0.0,0.0,0.0,0.0,0.0426376021978021,0.2869615274725274,-0.3749032527472527,-0.2816083846153846,-0.0388002186813186,0.954949978021978,-0.0338806571428571,0.0044068054945054,0.1120748351648351,47.5996128,,0.068,-0.03,3854.67,3875.95,-122.82557297,104.17106212,0.0,0.0,80.8,27.5,34.8,0.844,100,True
,63,6300.0,2025-10-02 21:05:00.442000+00:00,2025-10-02 14:05:00.442,00:00:14.5,75900442,0.0,0.0,0.0,0.0,0.0,0.0,0.0,0.0,0.0,0.0,1.0,0.0,0.0,0.0,0.0,-0.001,0.0,0.0,0.0,0.0,0.0425932930232558,0.2869368139534883,-0.3751392558139534,-0.2798722558139535,-0.0392958441860465,0.9549343023255814,0.0113302,0.0163781232558139,0.1079853488372093,47.5996128,,0.0675232558139534,-0.03,3854.67,3875.95,-122.82557297,104.17106212,0.0,0.0,80.8,27.5,34.8,0.844,100,True
,64,6400.0,2025-10-02 21:05:00.542000+00:00,2025-10-02 14:05:00.542,00:00:14.6,75900542,0.0,0.0,0.0,0.0,0.0,0.0,0.0,0.0,0.0,0.0,1.0,0.0,0.0,0.0,0.0,-0.001,0.0,0.0,0.0,0.0,0.0426271333333333,0.2869434444444445,-0.3753468333333333,-0.2805819444444444,-0.0431996722222222,0.9548548888888888,0.0539443222222222,0.0224893611111111,0.1041842777777777,47.59961443166667,,0.067,-0.0293888888888888,3854.67,3875.95,-122.82557150333334,104.02527292333332,0.0,0.0,80.8,27.5,34.8,0.844,100,True
,65,6500.0,2025-10-02 21:05:00.642000+00:00,2025-10-02 14:05:00.642,00:00:14.7,75900642,0.0,0.0,0.0,0.0,0.0,0.0,0.0,0.0,0.0,0.0,1.0,0.0,0.0,0.0,0.0,-0.001,0.0,0.0,0.0,0.0,0.042656,0.2869521428571429,-0.3755738571428571,-0.2829591428571428,-0.0442864714285714,0.9547301428571427,0.0810624,0.0496858,0.101527,47.59961547,,0.0684285714285714,-0.0297142857142857,3854.67,3875.95,-122.82557057,103.93249798,0.0,0.0,80.8,27.5,34.8,0.844,100,True
,66,6600.0,2025-10-02 21:05:00.742000+00:00,2025-10-02 14:05:00.742,00:00:14.8,75900742,0.0,0.0,0.0,0.0,0.0,0.0,0.0,0.0,0.0,0.0,1.0,0.0,0.0,0.0,0.0,-0.001,0.0,0.0,0.0,0.0,0.0426475910112359,0.2869649775280899,-0.3758202584269663,-0.2826122696629213,-0.042588311235955,0.9545990449438202,0.0861491932584269,-0.0079199573033707,0.1600984157303371,47.59961547,,0.0681685393258427,-0.03,3854.67,3875.95,-122.82557057,103.93249798,0.0,0.0,80.8,27.5,34.8,0.844,100,True
,67,6700.0,2025-10-02 21:05:00.842000+00:00,2025-10-02 14:05:00.842,00:00:14.9,75900842,0.0,0.0,0.0,0.0,0.0,0.0,0.0,0.0,0.0,0.0,1.0,0.0,0.0,0.0,0.0,-0.001,0.0,0.0,0.0,0.0,0.0426266873134328,0.2869581194029851,-0.3759914776119403,-0.2820157985074626,-0.043420419402985,0.954522276119403,-0.0012858604477611,0.0248832559701492,0.1792778283582089,47.59961547,,0.067365671641791,-0.03,3854.67,3875.95,-122.82557057,103.93249798,0.0,0.0,80.8,27.5,34.8,0.844,100,True
,68,6800.0,2025-10-02 21:05:00.942000+00:00,2025-10-02 14:05:00.942,00:00:15.0,75900942,0.0,0.0,0.0,0.0,0.0,0.0,0.0,0.0,0.0,0.0,1.0,0.0,0.0,0.0,0.0,-0.001,0.0,0.0,0.0,0.0,0.0426096386138613,0.2869504752475247,-0.3762230099009901,-0.2799033366336633,-0.0423569603960396,0.9544440594059406,-0.0584623722772277,0.0498039841584158,0.1130711188118811,47.59961547,,0.0675049504950495,-0.03,3854.67,3875.95,-122.82557057,103.93249798,0.0,0.0,80.8,27.5,34.8,0.844,100,True
,69,6900.0,2025-10-02 21:05:01.042000+00:00,2025-10-02 14:05:01.042,00:00:15.1,75901042,0.0,0.0,0.0,0.0,0.0,0.0,0.0,0.0,0.0,0.0,1.0,0.0,0.0,0.0,0.0,-0.001,0.0,0.0,0.0,0.0,0.0426206264367816,0.2869600689655172,-0.3764699770114942,-0.2779783793103448,-0.0406439770114942,0.9544235632183908,-0.0174117264367816,-0.0708016804597701,0.1219002413793103,47.59961547,,0.068,-0.0305747126436781,3854.67,3875.95,-122.82557057,103.93249798,0.0,0.0,80.8,27.5,34.8,0.844,100,True
,70,7000.0,2025-10-02 21:05:01.142000+00:00,2025-10-02 14:05:01.142,00:00:15.2,75901142,0.0,0.0,0.0,0.0,0.0,0.0,0.0,0.0,0.0,0.0,1.0,0.0,0.0,0.0,0.0,-0.001,0.0,0.0,0.0,0.0,0.0426255917647058,0.2869667764705882,-0.3766951647058824,-0.2795337176470588,-0.0399570070588235,0.9545143764705882,-0.0387700611764705,-0.0562502105882352,0.1313129176470588,47.59961547,,0.068,-0.0302588235294117,3854.67,3875.95,-122.82557057,103.93249798,0.0,0.0,80.8,27.425882352941176,34.8,0.844,100,True
,71,7100.0,2025-10-02 21:05:01.242000+00:00,2025-10-02 14:05:01.242,00:00:15.3,75901242,0.0,0.0,0.0,0.0,0.0,0.0,0.0,0.0,0.0,0.0,1.0,0.0,0.0,0.0,0.0,-0.001,0.0,0.0,0.0,0.0,0.042628548275862,0.2869776551724138,-0.3769283103448275,-0.2819657931034482,-0.0401102620689655,0.9546287586206896,-0.0529168758620689,0.043209872413793,0.1763508275862068,47.59961547,,0.0697931034482758,-0.0308965517241379,3854.67,3875.95,-122.82557057,103.93249798,0.0,0.0,80.8,27.489655172413794,34.8,0.844,100,True
,72,7200.0,2025-10-02 21:05:01.342000+00:00,2025-10-02 14:05:01.342,00:00:15.4,75901342,0.0,0.0,0.0,0.0,0.0,0.0,0.0,0.0,0.0,0.0,1.0,0.0,0.0,0.0,0.0,-0.001,0.0,0.0,0.0,0.0,0.0426232652173913,0.2869819673913044,-0.3771685869565217,-0.2817428260869565,-0.0425750217391304,0.9546904347826086,-0.052284,-0.0187107706521739,0.1841982173913043,47.59961547,,0.0680217391304347,-0.0300108695652173,3854.67,3875.95,-122.82557057,103.93249798,0.0,0.0,80.8,27.5,34.8,0.844,100,True
,73,7300.0,2025-10-02 21:05:01.442000+00:00,2025-10-02 14:05:01.442,00:00:15.5,75901442,0.0,0.0,0.0,0.0,0.0,0.0,0.0,0.0,0.0,0.0,1.0,0.0,0.0,0.0,0.0,-0.001,0.0,0.0,0.0,0.0,0.0425880818181818,0.2869457727272727,-0.3773895,-0.2770588636363636,-0.0392007636363636,0.954763,-0.1132845363636363,-0.0187630272727272,0.253435,47.59961547,,0.0689545454545454,-0.03,3854.67,3875.95,-122.82557057,103.93249798,0.0,0.0,80.8,27.5,34.8,0.844,100,True
,74,7400.0,2025-10-02 21:05:01.542000+00:00,2025-10-02 14:05:01.542,00:00:15.6,75901542,0.0,0.0,0.0,0.0,0.0,0.0,0.0,0.0,0.0,0.0,1.0,0.0,0.0,0.0,0.0,-0.001,0.0,0.0,0.0,0.0,0.0426129909090909,0.2869386363636363,-0.3776109090909091,-0.2810039090909091,-0.0396788818181818,0.9547792727272728,-0.0721927454545454,-0.0075770636363636,0.1027820909090909,47.59961590454546,,0.068,-0.03,3854.67,3875.95,-122.8255701590909,103.89634237090908,0.0,0.0,80.8,27.48181818181818,34.8,0.844,100,True
,75,7500.0,2025-10-02 21:05:01.642000+00:00,2025-10-02 14:05:01.642,00:00:15.7,75901642,0.0,0.0,0.0,0.0,0.0,0.0,0.0,0.0,0.0,0.0,1.0,0.0,0.0,0.0,0.0,-0.001,0.0,0.0,0.0,0.0,0.042638059090909,0.2869232272727273,-0.3778571363636363,-0.2806318636363636,-0.0432676727272727,0.954759909090909,-0.0879303909090909,0.04934725,0.0684438863636363,47.59961786,,0.0683181818181818,-0.03,3854.67,3875.95,-122.82556831,103.73364213,0.0,0.0,80.8,27.4,34.8,0.844,100,True
,76,7600.0,2025-10-02 21:05:01.742000+00:00,2025-10-02 14:05:01.742,00:00:15.8,75901742,0.0,0.0,0.0,0.0,0.0,0.0,0.0,0.0,0.0,0.0,1.0,0.0,0.0,0.0,0.0,-0.001,0.0,0.0,0.0,0.0,0.0426236783505154,0.2869125876288659,-0.3780592474226804,-0.2805784639175258,-0.0403155391752577,0.9547586391752576,0.0138530453608247,-0.0365506752577319,0.137284412371134,47.59961786,,0.069,-0.03,3854.67,3875.95,-122.82556831,103.73364213,0.0,0.0,80.8,27.4,34.8,0.844,100,True
,77,7700.0,2025-10-02 21:05:01.842000+00:00,2025-10-02 14:05:01.842,00:00:15.9,75901842,0.0,0.0,0.0,0.0,0.0,0.0,0.0,0.0,0.0,0.0,1.0,0.0,0.0,0.0,0.0,-0.001,0.0,0.0,0.0,0.0,0.0425808447058823,0.2869023882352941,-0.3782806117647059,-0.2796280470588235,-0.0428348564705882,0.9547353176470588,-0.0178281388235294,-0.0886754447058823,0.1818915529411764,47.59961786,,0.0684941176470588,-0.03,3854.67,3875.95,-122.82556831,103.73364213,0.0,0.0,80.8,27.4,34.8,0.844,100,True
,78,7800.0,2025-10-02 21:05:01.942000+00:00,2025-10-02 14:05:01.942,00:00:16.0,75901942,0.0,0.0,0.0,0.0,0.0,0.0,0.0,0.0,0.0,0.0,1.0,0.0,0.0,0.0,0.0,-0.001,0.0,0.0,0.0,0.0,0.0425738715328467,0.286898503649635,-0.3784569781021897,-0.2815458248175183,-0.0403306642335766,0.9547102627737226,-0.0201723635036496,-0.0191959941605839,0.211136204379562,47.59961786,,0.068,-0.03,3854.67,3875.95,-122.82556831,103.73364213,0.0,0.0,80.8,27.4,34.8,0.844,100,True
,79,7900.0,2025-10-02 21:05:02.042000+00:00,2025-10-02 14:05:02.042,00:00:16.1,75902042,0.0,0.0,0.0,0.0,0.0,0.0,0.0,0.0,0.0,0.0,1.0,0.0,0.0,0.0,0.0,-0.001,0.0,0.0,0.0,0.0,0.0425888921348314,0.2869102471910112,-0.3786363033707865,-0.2814147752808989,-0.0396728988764044,0.9546807191011236,0.0206788247191011,0.0138746539325842,0.2145735280898876,47.59961786,,0.0682359550561797,-0.0302359550561797,3854.67,3875.95,-122.82556831,103.73364213,0.0,0.0,80.8,27.42359550561797,34.8,0.844,100,True
,80,8000.0,2025-10-02 21:05:02.142000+00:00,2025-10-02 14:05:02.142,00:00:16.2,75902142,0.0,0.0,0.0,0.0,0.0,0.0,0.0,0.0,0.0,0.0,1.0,0.0,0.0,0.0,0.0,-0.001,0.0,0.0,0.0,0.0,0.0426539454545454,0.2869207272727272,-0.3789255454545454,-0.2790582727272727,-0.0421806545454545,0.9546243636363636,-0.0371593272727272,0.0691435454545454,0.1372538181818181,47.59961786,,0.0686363636363636,-0.0306363636363636,3854.67,3875.95,-122.82556831,103.73364213,0.0,0.0,80.8,27.463636363636365,34.8,0.8443636363636363,100,True
,81,8100.0,2025-10-02 21:05:02.242000+00:00,2025-10-02 14:05:02.242,00:00:16.3,75902242,0.0,0.0,0.0,0.0,0.0,0.0,0.0,0.0,0.0,0.0,1.0,0.0,0.0,0.0,0.0,-0.001,0.0,0.0,0.0,0.0,0.0426794612903225,0.2869202043010753,-0.3791510967741935,-0.2820390107526881,-0.0436388623655914,0.9546208387096774,-0.0890245161290322,-0.019438617204301,0.1874294623655914,47.59961786,,0.0684731182795699,-0.03,3854.67,3875.95,-122.82556831,103.73364213,0.0,0.0,80.8,27.4,34.8,0.845,100,True
,82,8200.0,2025-10-02 21:05:02.342000+00:00,2025-10-02 14:05:02.342,00:00:16.4,75902342,0.0,0.0,0.0,0.0,0.0,0.0,0.0,0.0,0.0,0.0,1.0,0.0,0.0,0.0,0.0,-0.001,0.0,0.0,0.0,0.0,0.0426778127906976,0.2869254069767442,-0.3793951744186046,-0.2802612093023255,-0.0413843186046511,0.9546133255813952,-0.0595399953488372,0.0211914116279069,0.1010801511627907,47.59961786,,0.0678139534883721,-0.03,3854.67,3875.95,-122.82556831,103.73364213,0.0,0.0,80.8,27.4,34.8,0.845,100,True
,83,8300.0,2025-10-02 21:05:02.442000+00:00,2025-10-02 14:05:02.442,00:00:16.5,75902442,0.0,0.0,0.0,0.0,0.0,0.0,0.0,0.0,0.0,0.0,1.0,0.0,0.0,0.0,0.0,-0.001,0.0,0.0,0.0,0.0,0.0426539888888888,0.2869105555555555,-0.3796618888888889,-0.2804177222222222,-0.0395218944444444,0.9545901111111113,-0.0556827777777777,-0.0004246555555555,0.1452690555555555,47.59961786,,0.0684444444444444,-0.03,3854.67,3875.95,-122.82556831,103.73364213,0.0,0.0,80.8,27.4,34.8,0.845,100,True
,84,8400.0,2025-10-02 21:05:02.542000+00:00,2025-10-02 14:05:02.542,00:00:16.6,75902542,0.0,0.0,0.0,0.0,0.0,0.0,0.0,0.0,0.0,0.0,1.0,0.0,0.0,0.0,0.0,-0.001,0.0,0.0,0.0,0.0,0.0426576769230769,0.2868720329670329,-0.3799175604395604,-0.2795999230769231,-0.0392490901098901,0.9545683406593408,0.0576168791208791,-0.0778522593406593,0.1172441868131868,47.5996168132967,,0.0681758241758241,-0.03,3854.67,3875.95,-122.82556737043956,103.53189574813187,0.0,0.0,80.8,27.4,34.8,0.845,100,True
,85,8500.0,2025-10-02 21:05:02.642000+00:00,2025-10-02 14:05:02.642,00:00:16.7,75902642,0.0,0.0,0.0,0.0,0.0,0.0,0.0,0.0,0.0,0.0,1.0,0.0,0.0,0.0,0.0,-0.001,0.0,0.0,0.0,0.0,0.0427183647058823,0.2868946470588235,-0.3802157647058823,-0.2787145294117646,-0.0432416823529411,0.954557588235294,0.0286741529411764,-0.0896675764705882,0.1654204117647058,47.59961659,,0.068,-0.03,3854.67,3875.95,-122.82556717,103.48885652,0.0,0.0,80.8,27.4,34.8,0.845,100,True
,86,8600.0,2025-10-02 21:05:02.742000+00:00,2025-10-02 14:05:02.742,00:00:16.8,75902742,0.0,0.0,0.0,0.0,0.0,0.0,0.0,0.0,0.0,0.0,1.0,0.0,0.0,0.0,0.0,-0.001,0.0,0.0,0.0,0.0,0.042730445054945,0.2869024285714286,-0.380287978021978,-0.2787433076923076,-0.0439665054945054,0.9545573736263736,0.0206072483516483,-0.0857665065934066,0.1707670549450549,47.59961659,,0.0679450549450549,-0.03,3854.67,3875.95,-122.82556717,103.48885652,0.0,0.0,80.8,27.494505494505493,34.8,0.845,100,True
,87,8700.0,2025-10-02 21:05:02.842000+00:00,2025-10-02 14:05:02.842,00:00:16.9,75902842,0.0,0.0,0.0,0.0,0.0,0.0,0.0,0.0,0.0,0.0,1.0,0.0,0.0,0.0,0.0,-0.001,0.0,0.0,0.0,0.0,0.0427159514851485,0.2869290792079207,-0.3806258811881188,-0.2812684653465346,-0.0413469623762376,0.9545962475247524,0.0766406376237623,-0.0208262564356435,0.0518450178217821,47.59961659,,0.0674158415841584,-0.03,3854.67,3875.95,-122.82556717,103.48885652,0.0,0.0,80.8,27.413861386138613,34.8,0.845,100,True
,88,8800.0,2025-10-02 21:05:02.942000+00:00,2025-10-02 14:05:02.942,00:00:17.0,75902942,0.0,0.0,0.0,0.0,0.0,0.0,0.0,0.0,0.0,0.0,1.0,0.0,0.0,0.0,0.0,-0.001,0.0,0.0,0.0,0.0,0.0426852,0.286942,-0.380911,-0.280681,-0.0391767,0.954691,0.0871803,-0.0195968,0.171971,47.59961659,,0.069551724137931,-0.0298505747126436,3854.67,3875.95,-122.82556717,103.48885652,0.0,0.0,80.8,27.48505747126437,34.8,0.845,100,True
,89,8900.0,2025-10-02 21:05:03.042000+00:00,2025-10-02 14:05:03.042,00:00:17.1,75903042,0.0,0.0,0.0,0.0,0.0,0.0,0.0,0.0,0.0,0.0,1.0,0.0,0.0,0.0,0.0,-0.001,0.0,0.0,0.0,0.0,0.0426849062146892,0.2869455254237288,-0.3809665254237288,-0.2811808757062147,-0.0395346627118644,0.954695847457627,0.0666940186440677,-0.019578409039548,0.1737682316384181,47.59961659,,0.067,-0.0291468926553672,3854.67,3875.95,-122.82556717,103.48885652,0.0,0.0,80.8,27.4,34.8,0.845,100,True
,90,9000.0,2025-10-02 21:05:03.142000+00:00,2025-10-02 14:05:03.142,00:00:17.2,75903142,0.0,0.0,0.0,0.0,0.0,0.0,0.0,0.0,0.0,0.0,1.0,0.0,0.0,0.0,0.0,-0.001,0.0,0.0,0.0,0.0,0.0426837762711864,0.2869590847457627,-0.3811800847457627,-0.2831034745762712,-0.0409114423728813,0.9547144915254238,-0.0120993711864406,-0.0195076745762711,0.1806806610169491,47.59961659,,0.067,-0.0297118644067796,3854.67,3875.95,-122.82556717,103.48885652,0.0,0.0,80.8,27.4,34.8,0.845,100,True
,91,9100.0,2025-10-02 21:05:03.242000+00:00,2025-10-02 14:05:03.242,00:00:17.3,75903242,0.0,0.0,0.0,0.0,0.0,0.0,0.0,0.0,0.0,0.0,1.0,0.0,0.0,0.0,0.0,-0.001,0.0,0.0,0.0,0.0,0.0426966656488549,0.286966748091603,-0.3814599389312977,-0.2831047480916031,-0.0423576893129771,0.954717641221374,-0.0806553740458015,-0.0197151038167938,0.1604125725190839,47.599578141832055,,0.0673740458015267,-0.03,3854.67,3875.95,-122.82560114458016,102.520506180229,0.0,0.0,80.8,27.4,34.8,0.845,100,True
,92,9200.0,2025-10-02 21:05:03.342000+00:00,2025-10-02 14:05:03.342,00:00:17.4,75903342,0.0,0.0,0.0,0.0,0.0,0.0,0.0,0.0,0.0,0.0,1.0,0.0,0.0,0.0,0.0,-0.001,0.0,0.0,0.0,0.0,0.0427153,0.286965375,-0.38181125,-0.2811204375,-0.04231381875,0.9547124375,-0.10083735625,-0.020012275,0.1313751249999999,47.5995138,,0.0678125,-0.0298125,3854.67,3875.95,-122.825658,100.90000153,0.0,0.0,80.8,27.4,34.8,0.845,100,True
,93,9300.0,2025-10-02 21:05:03.442000+00:00,2025-10-02 14:05:03.442,00:00:17.5,75903442,0.0,0.0,0.0,0.0,0.0,0.0,0.0,0.0,0.0,0.0,1.0,0.0,0.0,0.0,0.0,-0.001,0.0,0.0,0.0,0.0,0.0426918776470588,0.2869503764705882,-0.3821486117647059,-0.2796628588235294,-0.0368735176470588,0.9547523058823528,-0.0006002082352941,-0.0376346870588235,0.1798578,47.5995138,,0.0672588235294117,-0.0292588235294117,3854.67,3875.95,-122.825658,100.90000153,0.0,0.0,80.8,27.425882352941176,34.8,0.845,100,True
,94,9400.0,2025-10-02 21:05:03.542000+00:00,2025-10-02 14:05:03.542,00:00:17.6,75903542,0.0,0.0,0.0,0.0,0.0,0.0,0.0,0.0,0.0,0.0,1.0,0.0,0.0,0.0,0.0,-0.001,0.0,0.0,0.0,0.0,0.0426836620689655,0.2869310689655172,-0.3823943103448275,-0.2805386896551724,-0.0374656781609195,0.954788367816092,-0.0845420459770115,-0.0599762206896551,0.1575651149425287,47.59955896551724,,0.068,-0.03,3854.67,3875.95,-122.82562125091954,101.81916174344828,0.0,0.0,80.8,27.45747126436781,34.8,0.845,100,True
,95,9500.0,2025-10-02 21:05:03.642000+00:00,2025-10-02 14:05:03.642,00:00:17.7,75903642,0.0,0.0,0.0,0.0,0.0,0.0,0.0,0.0,0.0,0.0,1.0,0.0,0.0,0.0,0.0,-0.001,0.0,0.0,0.0,0.0,0.0427242851485148,0.2869135544554455,-0.3826694554455445,-0.2808457227722772,-0.0403599207920792,0.9547759801980198,-0.1251052871287128,0.0495341326732673,0.154404900990099,47.59962,,0.068,-0.03,3854.67,3875.95,-122.82557159,103.06127014,0.0,0.0,80.8,27.4,34.8,0.845,100,True
,96,9600.0,2025-10-02 21:05:03.742000+00:00,2025-10-02 14:05:03.742,00:00:17.8,75903742,0.0,0.0,0.0,0.0,0.0,0.0,0.0,0.0,0.0,0.0,1.0,0.0,0.0,0.0,0.0,-0.001,0.0,0.0,0.0,0.0,0.0427513,0.286908,-0.382827,-0.280109,-0.043071,0.954778,-0.122016,0.120584,0.188891,47.59962,,0.0685903614457831,-0.03,3854.67,3875.95,-122.82557159,103.06127014,0.0,0.0,80.8,27.4,34.8,0.845,100,True
,97,9700.0,2025-10-02 21:05:03.842000+00:00,2025-10-02 14:05:03.842,00:00:17.9,75903842,0.0,0.0,0.0,0.0,0.0,0.0,0.0,0.0,0.0,0.0,1.0,0.0,0.0,0.0,0.0,-0.001,0.0,0.0,0.0,0.0,0.0427258031578947,0.2868871578947368,-0.3830659894736842,-0.2813477157894736,-0.0404239831578947,0.9547759157894736,-0.0251251515789473,0.0718677326315789,0.1808890210526315,47.59962,,0.0683052631578947,-0.03,3854.67,3875.95,-122.82557159,103.06127014,0.0,0.0,80.8,27.4,34.8,0.845,100,True
,98,9800.0,2025-10-02 21:05:03.942000+00:00,2025-10-02 14:05:03.942,00:00:18.0,75903942,0.0,0.0,0.0,0.0,0.0,0.0,0.0,0.0,0.0,0.0,1.0,0.0,0.0,0.0,0.0,-0.001,0.0,0.0,0.0,0.0,0.0427164933333333,0.2868740555555555,-0.3833256222222222,-0.2810037111111111,-0.0399722411111111,0.9547608,-0.0925735788888889,0.0505608688888888,0.1870250555555555,47.59962,,0.068,-0.03,3854.67,3875.95,-122.82557159,103.06127014,0.0,0.0,80.8,27.4,34.8,0.845,100,True
,99,9900.0,2025-10-02 21:05:04.042000+00:00,2025-10-02 14:05:04.042,00:00:18.1,75904042,0.0,0.0,0.0,0.0,0.0,0.0,0.0,0.0,0.0,0.0,1.0,0.0,0.0,0.0,0.0,-0.001,0.0,0.0,0.0,0.0,0.0427053867469879,0.2868700722891566,-0.3835934096385542,-0.2822727951807229,-0.0449332072289156,0.954688686746988,0.0021466846987951,-0.0192374325301204,0.042269878313253,47.59962,,0.0689759036144578,-0.03,3854.67,3875.95,-122.82557159,103.06127014,0.0,0.0,80.8,27.4,34.8,0.845,100,True
,100,10000.0,2025-10-02 21:05:04.142000+00:00,2025-10-02 14:05:04.142,00:00:18.2,75904142,0.0,0.0,0.0,0.0,0.0,0.0,0.0,0.0,0.0,0.0,1.0,0.0,0.0,0.0,0.0,-0.001,0.0,0.0,0.0,0.0,0.0427381646616541,0.2868693609022556,-0.3837935187969924,-0.2760708721804511,-0.0440011052631578,0.9546183157894736,-0.0555319851127819,-0.0202203165413533,0.1110563714285714,47.59962,,0.0680451127819549,-0.03,3854.67,3875.95,-122.82557159,103.06127014,0.0,0.0,80.8,27.4,34.8,0.845,100,True
,101,10100.0,2025-10-02 21:05:04.242000+00:00,2025-10-02 14:05:04.242,00:00:18.3,75904242,0.0,0.0,0.0,0.0,0.0,0.0,0.0,0.0,0.0,0.0,1.0,0.0,0.0,0.0,0.0,-0.001,0.0,0.0,0.0,0.0,0.0427359090225563,0.2868753759398496,-0.3839521654135338,-0.2812520751879699,-0.0421695263157894,0.9546235789473684,-0.0077017369924812,-0.0208039255639097,0.0540292285714285,47.59962,,0.068796992481203,-0.03,3854.67,3875.95,-122.82557159,103.06127014,0.0,0.0,80.8,27.4,34.8,0.845,100,True
,102,10200.0,2025-10-02 21:05:04.342000+00:00,2025-10-02 14:05:04.342,00:00:18.4,75904342,0.0,0.0,0.0,0.0,0.0,0.0,0.0,0.0,0.0,0.0,1.0,0.0,0.0,0.0,0.0,-0.001,0.0,0.0,0.0,0.0,0.042743723076923,0.2868561428571429,-0.3841578461538461,-0.2797983846153846,-0.0392684868131868,0.9546073516483516,0.0150278575824175,-0.0759674813186813,0.1510784527472527,47.59962,,0.0681978021978022,-0.03,3854.67,3875.95,-122.82557159,103.06127014,0.0,0.0,80.8,27.4,34.8,0.845,100,True
,103,10300.0,2025-10-02 21:05:04.442000+00:00,2025-10-02 14:05:04.442,00:00:18.5,75904442,0.0,0.0,0.0,0.0,0.0,0.0,0.0,0.0,0.0,0.0,1.0,0.0,0.0,0.0,0.0,-0.001,0.0,0.0,0.0,0.0,0.0427304468085106,0.2868597234042553,-0.384403,-0.2800545744680851,-0.0374103808510638,0.9546134680851064,0.0174481,0.0325906914893616,0.1775558085106383,47.59962,,0.068,-0.03,3854.67,3875.95,-122.82557159,103.06127014,0.0,0.0,80.8,27.4,34.8,0.845,100,True
,104,10400.0,2025-10-02 21:05:04.542000+00:00,2025-10-02 14:05:04.542,00:00:18.6,75904542,0.0,0.0,0.0,0.0,0.0,0.0,0.0,0.0,0.0,0.0,1.0,0.0,0.0,0.0,0.0,-0.001,0.0,0.0,0.0,0.0,0.0427232803149606,0.2868492204724409,-0.3845895984251968,-0.2800529527559055,-0.0433741440944881,0.9546565748031496,-0.039348416535433,-0.0474863346456692,0.0859727354330708,47.59962209259843,,0.068,-0.0306929133858267,3854.67,3875.95,-122.8255748397638,102.91027492425196,0.0,0.0,80.8,27.4,34.8,0.845,100,True
,105,10500.0,2025-10-02 21:05:04.642000+00:00,2025-10-02 14:05:04.642,00:00:18.7,75904642,0.0,0.0,0.0,0.0,0.0,0.0,0.0,0.0,0.0,0.0,1.0,0.0,0.0,0.0,0.0,-0.001,0.0,0.0,0.0,0.0,0.0427080943396226,0.2868509056603773,-0.3847896320754717,-0.2784442830188679,-0.0458024867924528,0.954700320754717,-0.017349508490566,-0.009548116981132,0.1213746603773584,47.59962302,,0.068,-0.0304245283018867,3854.67,3875.95,-122.82557628,102.84335659,0.0,0.0,80.8,27.4,34.8,0.845,100,True
,106,10600.0,2025-10-02 21:05:04.742000+00:00,2025-10-02 14:05:04.742,00:00:18.8,75904742,0.0,0.0,0.0,0.0,0.0,0.0,0.0,0.0,0.0,0.0,1.0,0.0,0.0,0.0,0.0,-0.001,0.0,0.0,0.0,0.0,0.0427050872093023,0.2868361744186046,-0.3850785,-0.2790601627906977,-0.0412000999999999,0.9547215581395349,-0.0271480104651162,0.0057370593023255,0.1817429418604651,47.59962302,,0.068,-0.03,3854.67,3875.95,-122.82557628,102.84335659,0.0,0.0,80.8,27.4,34.8,0.845,100,True
,107,10700.0,2025-10-02 21:05:04.842000+00:00,2025-10-02 14:05:04.842,00:00:18.9,75904842,0.0,0.0,0.0,0.0,0.0,0.0,0.0,0.0,0.0,0.0,1.0,0.0,0.0,0.0,0.0,-0.001,0.0,0.0,0.0,0.0,0.0427171785714285,0.2868474523809524,-0.3853074761904762,-0.2824551428571428,-0.0405676476190476,0.9547339523809524,-0.052284,-0.0194716,0.184206,47.59962302,,0.068,-0.03,3854.67,3875.95,-122.82557628,102.84335659,0.0,0.0,80.8,27.4,34.8,0.845,100,True
,108,10800.0,2025-10-02 21:05:04.942000+00:00,2025-10-02 14:05:04.942,00:00:19.0,75904942,0.0,0.0,0.0,0.0,0.0,0.0,0.0,0.0,0.0,0.0,1.0,0.0,0.0,0.0,0.0,-0.001,0.0,0.0,0.0,0.0,0.042723952739726,0.2868695342465753,-0.3855097876712329,-0.2833643493150685,-0.042078306849315,0.9547362260273972,-0.0540858178082191,-0.0196817993150684,0.1636696712328767,47.59962302,,0.0682945205479452,-0.03,3854.67,3875.95,-122.82557628,102.84335659,0.0,0.0,80.8,27.4,34.8,0.845,100,True
,109,10900.0,2025-10-02 21:05:05.042000+00:00,2025-10-02 14:05:05.042,00:00:19.1,75905042,0.0,0.0,0.0,0.0,0.0,0.0,0.0,0.0,0.0,0.0,1.0,0.0,0.0,0.0,0.0,-0.001,0.0,0.0,0.0,0.0,0.0427236102739726,0.2868777534246575,-0.3857488287671233,-0.2808581849315068,-0.0420599506849315,0.9547204726027396,-0.0582760917808219,-0.0201706349315068,0.1159107671232876,47.59962302,,0.0689794520547945,-0.03,3854.67,3875.95,-122.82557628,102.84335659,0.0,0.0,80.8,27.4,34.8,0.845,100,True
,110,11000.0,2025-10-02 21:05:05.142000+00:00,2025-10-02 14:05:05.142,00:00:19.2,75905142,0.0,0.0,0.0,0.0,0.0,0.0,0.0,0.0,0.0,0.0,1.0,0.0,0.0,0.0,0.0,-0.001,0.0,0.0,0.0,0.0,0.0427242208,0.2868826559999999,-0.386006648,-0.280690656,-0.0410012464,0.954672664,-0.0042897679999999,-0.0202338776,0.109730432,47.59962302,,0.068224,-0.03,3854.67,3875.95,-122.82557628,102.84335659,0.0,0.0,80.8,27.4,34.8,0.845,100,True
,111,11100.0,2025-10-02 21:05:05.242000+00:00,2025-10-02 14:05:05.242,00:00:19.3,75905242,0.0,0.0,0.0,0.0,0.0,0.0,0.0,0.0,0.0,0.0,1.0,0.0,0.0,0.0,0.0,-0.001,0.0,0.0,0.0,0.0,0.0427222966292134,0.2868783370786517,-0.3863192696629213,-0.2817197303370787,-0.043397417977528,0.954584573033708,-0.0401329730337078,0.0370063382022471,0.1691393258426966,47.59962302,,0.0696179775280898,-0.0308089887640449,3854.67,3875.95,-122.82557628,102.84335659,0.0,0.0,80.8,27.4,34.8,0.845,100,True
,112,11200.0,2025-10-02 21:05:05.342000+00:00,2025-10-02 14:05:05.342,00:00:19.4,75905342,0.0,0.0,0.0,0.0,0.0,0.0,0.0,0.0,0.0,0.0,1.0,0.0,0.0,0.0,0.0,-0.001,0.0,0.0,0.0,0.0,0.042725384090909,0.2868798295454545,-0.3865646363636363,-0.2810597727272727,-0.0400026318181818,0.9545339886363636,0.0019455873863636,-0.016899784090909,0.0468624738636363,47.59962302,,0.0690568181818181,-0.0300568181818181,3854.67,3875.95,-122.82557628,102.84335659,0.0,0.0,80.8,27.4,34.8,0.845,100,True
,113,11300.0,2025-10-02 21:05:05.442000+00:00,2025-10-02 14:05:05.442,00:00:19.5,75905442,0.0,0.0,0.0,0.0,0.0,0.0,0.0,0.0,0.0,0.0,1.0,0.0,0.0,0.0,0.0,-0.001,0.0,0.0,0.0,0.0,0.0427314655913978,0.2868792473118279,-0.3867842258064516,-0.2810821505376344,-0.0421217623655914,0.9545118602150536,-0.0637040107526881,-0.0208919,0.0454333849462365,47.59962302,,0.0689784946236559,-0.03,3854.67,3875.95,-122.82557628,102.84335659,0.0,0.0,80.8,27.4,34.8,0.845,100,True
,114,11400.0,2025-10-02 21:05:05.542000+00:00,2025-10-02 14:05:05.542,00:00:19.6,75905542,0.0,0.0,0.0,0.0,0.0,0.0,0.0,0.0,0.0,0.0,1.0,0.0,0.0,0.0,0.0,-0.001,0.0,0.0,0.0,0.0,0.0426900129411764,0.2869015294117647,-0.3870104588235294,-0.2789693647058823,-0.0392242435294117,0.9545005058823528,-0.0012200305882352,-0.0069931329411764,0.1159393882352941,47.59962305952941,,0.0670941176470588,-0.03,3854.67,3875.95,-122.82557636188236,102.78093409870588,0.0,0.0,80.8,27.4,34.8,0.845,100,True
,115,11500.0,2025-10-02 21:05:05.642000+00:00,2025-10-02 14:05:05.642,00:00:19.7,75905642,0.0,0.0,0.0,0.0,0.0,0.0,0.0,0.0,0.0,0.0,1.0,0.0,0.0,0.0,0.0,-0.001,0.0,0.0,0.0,0.0,0.0426683619047619,0.2868980952380952,-0.3872509523809523,-0.2809432063492063,-0.0406864476190476,0.9545135396825396,-0.0976750269841269,0.0820994873015873,0.1743217777777777,47.59962344,,0.068,-0.03,3854.67,3875.95,-122.82557715,102.18011762,0.0,0.0,80.8,27.4,34.8,0.845,100,True
,116,11600.0,2025-10-02 21:05:05.742000+00:00,2025-10-02 14:05:05.742,00:00:19.8,75905742,0.0,0.0,0.0,0.0,0.0,0.0,0.0,0.0,0.0,0.0,1.0,0.0,0.0,0.0,0.0,-0.001,0.0,0.0,0.0,0.0,0.0426364571428571,0.2869028571428572,-0.3873985714285714,-0.2822701904761905,-0.0430288285714285,0.9545071904761904,0.0081552904761904,-0.0852244809523809,0.1109773333333333,47.59962344,,0.068,-0.03,3854.67,3875.95,-122.82557715,102.18011762,0.0,0.0,80.8,27.4,34.8,0.845,100,True
,117,11700.0,2025-10-02 21:05:05.842000+00:00,2025-10-02 14:05:05.842,00:00:19.9,75905842,0.0,0.0,0.0,0.0,0.0,0.0,0.0,0.0,0.0,0.0,1.0,0.0,0.0,0.0,0.0,-0.001,0.0,0.0,0.0,0.0,0.04263725,0.286877,-0.3877705,-0.2794355,-0.04091085,0.9544565,0.01438925,0.0151071499999999,0.1428665,47.59962344,,0.067,-0.0295,3854.67,3875.95,-122.82557715,102.18011762,0.0,0.0,80.8,27.4,34.8,0.845,100,True
,118,11800.0,2025-10-02 21:05:05.942000+00:00,2025-10-02 14:05:05.942,00:00:20.0,75905942,0.0,0.0,0.0,0.0,0.0,0.0,0.0,0.0,0.0,0.0,1.0,0.0,0.0,0.0,0.0,-0.001,0.0,0.0,0.0,0.0,0.0426300846153846,0.2868636153846153,-0.3880593076923077,-0.2796452307692307,-0.0429190923076923,0.9544196923076924,0.027422323076923,0.0066593461538461,0.1066733846153846,47.59962344,,0.0673846153846153,-0.03,3854.67,3875.95,-122.82557715,102.18011762,0.0,0.0,80.8,27.4,34.8,0.845,100,True
,119,11900.0,2025-10-02 21:05:06.042000+00:00,2025-10-02 14:05:06.042,00:00:20.1,75906042,0.0,0.0,0.0,0.0,0.0,0.0,0.0,0.0,0.0,0.0,1.0,0.0,0.0,0.0,0.0,-0.001,0.0,0.0,0.0,0.0,0.0426187425531914,0.2868548510638298,-0.3882286666666666,-0.2799449716312057,-0.0436819567375886,0.954402319148936,0.1103882794326241,0.0115994751773049,0.0669482304964539,47.59962344,,0.067,-0.0295390070921985,3854.67,3875.95,-122.82557715,102.18011762,0.0,0.0,80.8,27.4,34.8,0.845,100,True
,120,12000.0,2025-10-02 21:05:06.142000+00:00,2025-10-02 14:05:06.142,00:00:20.2,75906142,0.0,0.0,0.0,0.0,0.0,0.0,0.0,0.0,0.0,0.0,1.0,0.0,0.0,0.0,0.0,-0.001,0.0,0.0,0.0,0.0,0.0418907943820224,0.2868532359550562,-0.3900437078651685,-0.2773505730337078,-0.0225546101123595,0.9541763483146068,-0.0522556741573033,-0.2029519550561797,1.2393792415730338,47.59962344,,0.0680786516853932,-0.0254943820224719,3854.67,3875.95,-122.82557715,102.18011762,0.0,0.0,80.8,27.4,34.8,0.845,100,True
,121,12100.0,2025-10-02 21:05:06.242000+00:00,2025-10-02 14:05:06.242,00:00:20.3,75906242,0.0,0.0,0.0,0.0,0.0,0.0,0.0,0.0,0.0,0.0,1.0,0.0,0.0,0.0,-43.56382978723404,-0.000627659574468,0.0,0.275531914893617,0.0372340425531914,0.2718085106382978,0.0443258,0.2755771063829787,-0.3982211170212766,-0.2669269255319149,0.0537161244680851,0.9488532446808512,-8.714210478723404,-18.505388755319142,4.504221489361703,47.59962344,,0.049031914893617,-0.0364787234042553,3854.67,3875.95,-122.82557715,102.18011762,0.0,0.0,80.8,27.4,34.83723404255319,0.845,100,True
,122,12200.0,2025-10-02 21:05:06.342000+00:00,2025-10-02 14:05:06.342,00:00:20.4,75906342,0.0,0.0,0.0,0.0,0.0,0.0,0.0,0.0,0.0,0.0,1.0,0.0,0.0,-0.0004555555555555,-63.7,0.0,0.0,1.254777777777778,0.2594444444444445,1.1946666666666663,0.0674876222222222,0.2171748666666667,-0.4037638,-0.2113867111111111,-0.0007164311111111,0.9317092555555556,-20.575435555555558,-48.504128888888886,-2.638645555555556,47.59962344,,-0.0312777777777777,0.0301333333333333,3854.665444444444,3875.954555555556,-122.82557715,102.18011762,0.0,0.0,80.8,27.4,34.9,0.845,100,True
,123,12300.0,2025-10-02 21:05:06.442000+00:00,2025-10-02 14:05:06.442,00:00:20.5,75906442,0.0,0.0,0.0,0.0,0.0,0.0,0.0,0.0,0.0,0.0,1.0,0.0,0.0,-0.0003855421686746,0.0,0.0,0.0,1.9867469879518076,0.7879518072289158,1.7868674698795182,0.0983552843373494,0.0951852578313253,-0.3961793012048193,-0.0795947843373494,-0.1795432048192771,0.9140139638554216,-2.3701353012048187,-58.04105662650602,-4.797865180722892,47.59962344,,-0.0836144578313253,0.1503855421686747,3854.66,3875.96,-122.82557715,102.18011762,0.0,0.0,80.8,27.4,34.9,0.845,100,True
,124,12400.0,2025-10-02 21:05:06.542000+00:00,2025-10-02 14:05:06.542,00:00:20.6,75906542,0.0,0.0,0.0,0.0,0.0,0.0,0.0,0.0,0.0,0.0,1.0,0.0,0.0,0.0,-83.19148936170212,0.0,0.0,2.2191489361702126,1.1012765957446808,1.8895744680851063,0.105885,0.0481724,-0.391734,-0.0372141,-0.22317,0.909773,7.67207,-63.8031,-0.82451,47.59962306382979,,-0.0999148936170212,0.1304680851063829,3854.66,3875.96,-122.82557722957446,101.9408039974468,0.0,0.0,80.8,27.4,34.9,0.845,100,True
,125,12500.0,2025-10-02 21:05:06.642000+00:00,2025-10-02 14:05:06.642,00:00:20.7,75906642,0.0,0.0,0.0,0.0,0.0,0.0,0.0,0.0,0.0,0.0,1.0,0.0,0.0,-0.0008314606741573,-19.382022471910105,0.0,-0.008314606741573,1.7146067415730335,0.0258426966292135,2.5020224719101125,0.0914503438202247,-0.0422710651685393,-0.4048178651685393,0.100804297752809,-0.0396471730337078,0.9081067528089888,11.11633764044944,-60.56165056179776,3.105430449438202,47.59962292,,-0.1625393258426966,0.0232247191011236,3854.6516853932585,3875.968314606741,-122.82557726,101.84930173,0.0,0.0,80.8,27.4,34.9,0.845,100,True
,126,12600.0,2025-10-02 21:05:06.742000+00:00,2025-10-02 14:05:06.742,00:00:20.8,75906742,0.0,0.0,0.0,0.0,0.0,0.0,0.0,0.0,0.0,0.0,1.0,0.0,0.0,-0.0003703703703703,0.0,0.0,-0.0037037037037037,0.5800000000000001,0.2722222222222222,1.045925925925926,0.083616437037037,-0.1184789999999999,-0.4074315925925926,0.1463142962962963,-0.1494445925925926,0.9132140370370372,3.644117407407407,-53.5846925925926,-3.056053703703704,47.59962292,,-0.1746296296296296,0.0055185185185185,3854.65,3875.97,-122.82557726,101.84930173,0.0,0.0,80.8,27.4,34.9,0.845,100,True
,127,12700.0,2025-10-02 21:05:06.842000+00:00,2025-10-02 14:05:06.842,00:00:20.9,75906842,0.0,0.0,0.0,0.0,0.0,0.0,0.0,0.0,0.0,0.0,1.0,0.0,0.0,0.0489130434782608,0.0,0.0,-0.0054347826086956,-1.8406521739130437,0.8652173913043477,-1.6843478260869569,0.0775151608695652,-0.1797132173913043,-0.4085095434782609,0.2053019130434782,-0.1714297608695652,0.9273496086956522,5.531374130434783,-30.72900217391304,-3.3109996739130434,47.59962292,,-0.1489130434782608,0.0548260869565217,3854.6554347826086,3875.9754347826088,-122.82557726,101.84930173,0.0,0.0,80.8,27.4,34.9,0.845,100,True
