ride_id,sample_idx,_elapsed_ms,ts_utc,ts_pst,video_ts_anchor,ms_today,cf_accel,cf_brake,cf_cruise,cf_turn_left,cf_turn_right,cf_carve_left,cf_carve_right,cf_ascent,cf_descent,cf_traction_loss,cf_idle,cf_forward,cf_reverse,speed_meters_per_sec,erpm,duty_cycle,current_in,current_motor,d_axis_current,q_axis_current,roll,pitch,yaw,accX,accY,accZ,gyroX,gyroY,gyroZ,gnss_lat,fault_code,d_axis_voltage,q_axis_voltage,tacho_meters,tacho_abs_meters,gnss_lon,gnss_alt,gnss_gVel,gnss_vVel,input_voltage,temp_mos_max,temp_motor,battery_level,dt_ms,_on_grid
ride_50,0,0.0,2025-10-02 20:51:26.671000+00:00,2025-10-02 13:51:26.671,00:00:04.5,75086671,0.0,0.0,0.0,0.0,0.0,0.0,0.0,0.0,0.0,0.0,1.0,0.0,0.0,0.0,0.0,-0.001,0.0,-0.25,0.02,-0.25,-0.0461486,0.358942,1.59952,-0.356569,0.0507606,0.925628,1.53077,-0.225129,0.609599,47.60062722,0.0,0.004,0.011,1289.97,1295.89,-122.8251012,100.93515773,0.0,0.0,81.4,25.6,29.3,0.886,100,True
,1,100.0,2025-10-02 20:51:26.771000+00:00,2025-10-02 13:51:26.771,00:00:04.6,75086771,0.0,0.0,0.0,0.0,0.0,0.0,0.0,0.0,0.0,0.0,1.0,0.0,0.0,0.0,0.0,-0.001,0.0,0.0,0.0,0.0,0.0752720435294117,0.3010129764705882,-1.5286723529411763,-0.2920487176470588,-0.0712353647058823,0.9467768941176472,-0.1346273235294117,0.1414954,-0.0210341847058823,47.60062722,,0.006,-0.0730823529411764,1289.97,1295.89,-122.8251012,100.93515773,0.0,0.0,81.4,25.6,29.3,0.886,100,True
,2,200.0,2025-10-02 20:51:26.871000+00:00,2025-10-02 13:51:26.871,00:00:04.7,75086871,0.0,0.0,0.0,0.0,0.0,0.0,0.0,0.0,0.0,0.0,1.0,0.0,0.0,0.0,0.0,-0.001,0.0,0.0,0.0,0.0,0.0753428065217391,0.3012682391304347,-1.5288315217391304,-0.2920733695652174,-0.0681208152173913,0.9468846086956522,-0.0691745239130434,0.3148444869565218,-0.0117467282608695,47.60062722,,0.006,-0.074,1289.97,1295.89,-122.8251012,100.93515773,0.0,0.0,81.4,25.6,29.3,0.886,100,True
,3,300.0,2025-10-02 20:51:26.971000+00:00,2025-10-02 13:51:26.971,00:00:04.8,75086971,0.0,0.0,0.0,0.0,0.0,0.0,0.0,0.0,0.0,0.0,1.0,0.0,0.0,0.0,0.0,-0.001,0.0,0.0,0.0,0.0,0.0754623727272727,0.3015378636363636,-1.528944318181818,-0.2941142045454545,-0.0707203636363636,0.946847568181818,-0.0841206454545454,0.0734678318181818,0.093416409090909,47.60062722,,0.006,-0.074,1289.97,1295.89,-122.8251012,100.93515773,0.0,0.0,81.4,25.6,29.3,0.886,100,True
,4,400.0,2025-10-02 20:51:27.071000+00:00,2025-10-02 13:51:27.071,00:00:04.9,75087071,0.0,0.0,0.0,0.0,0.0,0.0,0.0,0.0,0.0,0.0,1.0,0.0,0.0,0.0,0.0,-0.001,0.0,0.0,0.0,0.0,0.0755488235294117,0.3015835882352941,-1.5290835294117646,-0.295591,-0.0718463411764705,0.9466373529411763,-0.0671087411764705,0.0914164411764705,0.1554363529411764,47.60062722,,0.006,-0.074,1289.97,1295.89,-122.8251012,100.93515773,0.0,0.0,81.4,25.6,29.3,0.886,100,True
,5,500.0,2025-10-02 20:51:27.171000+00:00,2025-10-02 13:51:27.171,00:00:05.0,75087171,0.0,0.0,0.0,0.0,0.0,0.0,0.0,0.0,0.0,0.0,1.0,0.0,0.0,0.0,0.0,-0.001,0.0,0.0,0.0,0.0,0.0754598,0.3015609999999999,-1.52929,-0.293035,-0.07102185,0.946383,0.0780035999999999,0.04932905,0.0666622499999999,47.60062722,,0.006,-0.074,1289.97,1295.89,-122.8251012,100.93515773,0.0,0.0,81.4,25.6,29.3,0.886,100,True
,6,600.0,2025-10-02 20:51:27.271000+00:00,2025-10-02 13:51:27.271,00:00:05.1,75087271,0.0,0.0,0.0,0.0,0.0,0.0,0.0,0.0,0.0,0.0,1.0,0.0,0.0,0.0,0.0,-0.001,0.0,0.0,0.0,0.0,0.0752256638297872,0.3016417659574468,-1.529528510638298,-0.2942687872340425,-0.073065044680851,0.9463518510638296,0.1485821063829787,0.0493651531914893,0.0701880531914893,47.60062722,,0.006,-0.0733617021276595,1289.97,1295.89,-122.8251012,100.93515773,0.0,0.0,81.4,25.6,29.3,0.886,100,True
,7,700.0,2025-10-02 20:51:27.371000+00:00,2025-10-02 13:51:27.371,00:00:05.2,75087371,0.0,0.0,0.0,0.0,0.0,0.0,0.0,0.0,0.0,0.0,1.0,0.0,0.0,0.0,0.0,-0.001,0.0,0.0,0.0,0.0,0.0750116666666666,0.3017762666666667,-1.5297366666666667,-0.2924339333333333,-0.0733588066666666,0.9464178,0.1552808,0.0501466066666666,0.1465436,47.60062722,,0.006,-0.0737333333333333,1289.97,1295.89,-122.8251012,100.93515773,0.0,0.0,81.4,25.6,29.3,0.886,100,True
,8,800.0,2025-10-02 20:51:27.471000+00:00,2025-10-02 13:51:27.471,00:00:05.3,75087471,0.0,0.0,0.0,0.0,0.0,0.0,0.0,0.0,0.0,0.0,1.0,0.0,0.0,0.0,0.0,-0.001,0.0,0.0,0.0,0.0,0.0747309952941176,0.3018692705882353,-1.5299688235294118,-0.2920393294117647,-0.0716690294117647,0.9463816588235294,0.0945636564705882,0.1129779776470588,0.1699671294117647,47.60062722,,0.006,-0.074,1289.97,1295.89,-122.8251012,100.93515773,0.0,0.0,81.4,25.6,29.3,0.886,100,True
,9,900.0,2025-10-02 20:51:27.571000+00:00,2025-10-02 13:51:27.571,00:00:05.4,75087571,0.0,0.0,0.0,0.0,0.0,0.0,0.0,0.0,0.0,0.0,1.0,0.0,0.0,0.0,0.0,-0.001,0.0,0.0,0.0,0.0,0.0744396578947368,0.3019905789473684,-1.5301884210526315,-0.2935268947368421,-0.0708183210526315,0.9464426842105264,0.130706147368421,0.2156490526315789,0.1176637578947368,47.60062722,,0.006,-0.074,1289.97,1295.89,-122.8251012,100.87186582052632,0.0,0.0,81.4,25.6,29.3,0.886,100,True
,10,1000.0,2025-10-02 20:51:27.671000+00:00,2025-10-02 13:51:27.671,00:00:05.5,75087671,0.0,0.0,0.0,0.0,0.0,0.0,0.0,0.0,0.0,0.0,1.0,0.0,0.0,0.0,0.0,-0.001,0.0,0.0,0.0,0.0,0.0742648695652174,0.3022800434782609,-1.530349347826087,-0.2961626521739131,-0.06900905,0.9465707173913044,0.0590146841304347,0.1268568086956521,0.0583688282608695,47.60062722,,0.006,-0.074,1289.97,1295.89,-122.8251012,100.84265417,0.0,0.0,81.4,25.6,29.23695652173913,0.886,100,True
,11,1100.0,2025-10-02 20:51:27.771000+00:00,2025-10-02 13:51:27.771,00:00:05.6,75087771,0.0,0.0,0.0,0.0,0.0,0.0,0.0,0.0,0.0,0.0,1.0,0.0,0.0,0.0,0.0,-0.001,0.0,0.0,0.0,0.0,0.0742906780821917,0.3024217123287671,-1.5304306849315068,-0.2958833287671232,-0.0694218616438356,0.9465769178082192,-0.0578331342465753,0.0490913972602739,0.0434463904109589,47.60062722,,0.006,-0.074,1289.97,1295.89,-122.8251012,100.84265417,0.0,0.0,81.4,25.6,29.245205479452054,0.886,100,True
,12,1200.0,2025-10-02 20:51:27.871000+00:00,2025-10-02 13:51:27.871,00:00:05.7,75087871,0.0,0.0,0.0,0.0,0.0,0.0,0.0,0.0,0.0,0.0,1.0,0.0,0.0,0.0,0.0,-0.001,0.0,0.0,0.0,0.0,0.0744326818181818,0.3024815909090909,-1.5305072727272728,-0.2951835,-0.0716495954545454,0.9465106818181818,-0.1156229090909091,0.049470159090909,0.0804549318181818,47.60062722,,0.006,-0.0737727272727272,1289.97,1295.89,-122.8251012,100.84265417,0.0,0.0,81.4,25.6,29.3,0.886,100,True
,13,1300.0,2025-10-02 20:51:27.971000+00:00,2025-10-02 13:51:27.971,00:00:05.8,75087971,0.0,0.0,0.0,0.0,0.0,0.0,0.0,0.0,0.0,0.0,1.0,0.0,0.0,0.0,0.0,-0.001,0.0,0.0,0.0,0.0,0.0747773072289156,0.3027248915662651,-1.5306269879518073,-0.2969599759036145,-0.0731675469879518,0.9464720963855422,-0.1376553734939759,0.104019948192771,0.1362467036144578,47.60062722,,0.006,-0.0733855421686747,1289.97,1295.89,-122.8251012,100.84265417,0.0,0.0,81.4,25.6,29.3,0.886,100,True
,14,1400.0,2025-10-02 20:51:28.071000+00:00,2025-10-02 13:51:28.071,00:00:05.9,75088071,0.0,0.0,0.0,0.0,0.0,0.0,0.0,0.0,0.0,0.0,1.0,0.0,0.0,0.0,0.0,-0.001,0.0,0.0,0.0,0.0,0.0749699538461538,0.3029093846153846,-1.53074,-0.2948273076923077,-0.0714176307692307,0.946396846153846,-0.0826814769230769,0.2271840769230769,0.0816428692307692,47.60062722,,0.006,-0.074,1289.97,1295.89,-122.8251012,100.84265417,0.0,0.0,81.4,25.6,29.3,0.886,100,True
,15,1500.0,2025-10-02 20:51:28.171000+00:00,2025-10-02 13:51:28.171,00:00:06.0,75088171,0.0,0.0,0.0,0.0,0.0,0.0,0.0,0.0,0.0,0.0,1.0,0.0,0.0,0.0,0.0,-0.001,0.0,0.0,0.0,0.0,0.0749203388235294,0.3031051294117647,-1.530916,-0.2931969529411764,-0.0683071011764705,0.9462892588235294,-0.0700326494117646,-0.0277443411764706,0.019674314117647,47.60062722,,0.006,-0.0733176470588235,1289.97,1295.89,-122.8251012,100.84265417,0.0,0.0,81.4,25.6,29.3,0.886,100,True
,16,1600.0,2025-10-02 20:51:28.271000+00:00,2025-10-02 13:51:28.271,00:00:06.1,75088271,0.0,0.0,0.0,0.0,0.0,0.0,0.0,0.0,0.0,0.0,1.0,0.0,0.0,0.0,0.0,-0.001,0.0,0.0,0.0,0.0,0.0749016588888888,0.3030138666666667,-1.5310916666666667,-0.2934302333333333,-0.0726234988888888,0.9460236444444444,-0.0788468977777777,0.1228593222222222,0.0312613888888888,47.60062722,,0.006,-0.0738111111111111,1289.97,1295.89,-122.8251012,100.84265417,0.0,0.0,81.4,25.6,29.3,0.886,100,True
,17,1700.0,2025-10-02 20:51:28.371000+00:00,2025-10-02 13:51:28.371,00:00:06.2,75088371,0.0,0.0,0.0,0.0,0.0,0.0,0.0,0.0,0.0,0.0,1.0,0.0,0.0,0.0,0.0,-0.001,0.0,0.0,0.0,0.0,0.0748704333333333,0.3031943010752688,-1.531253870967742,-0.2955640322580645,-0.0700579817204301,0.9460253333333332,0.1167225913978494,0.0633458924731182,-0.0347309892473118,47.60062722,,0.006,-0.0748924731182795,1289.97,1295.89,-122.8251012,100.84265417,0.0,0.0,81.4,25.6,29.3,0.886,100,True
,18,1800.0,2025-10-02 20:51:28.471000+00:00,2025-10-02 13:51:28.471,00:00:06.3,75088471,0.0,0.0,0.0,0.0,0.0,0.0,0.0,0.0,0.0,0.0,1.0,0.0,0.0,0.0,0.0,-0.001,0.0,0.0,0.0,0.0,0.0748113087912087,0.3032358241758242,-1.5314183516483515,-0.2977926923076923,-0.0715316604395604,0.945946945054945,0.1567103186813186,0.1195402857142857,0.1621301318681318,47.60062722,,0.006,-0.074010989010989,1289.97,1295.89,-122.8251012,100.84265417,0.0,0.0,81.4,25.6,29.3,0.886,100,True
,19,1900.0,2025-10-02 20:51:28.571000+00:00,2025-10-02 13:51:28.571,00:00:06.4,75088571,0.0,0.0,0.0,0.0,0.0,0.0,0.0,0.0,0.0,0.0,1.0,0.0,0.0,0.0,0.0,-0.001,0.0,0.0,0.0,0.0,0.0746122499999999,0.3032301739130434,-1.5316573913043476,-0.2926741956521739,-0.0726572173913043,0.9458205869565218,0.0919681326086956,0.0509580478260869,0.2258256304347826,47.60062722,,0.006,-0.073891304347826,1289.97,1295.89,-122.8251012,100.86691473,0.0,0.0,81.4,25.6,29.3,0.886,100,True
,20,2000.0,2025-10-02 20:51:28.671000+00:00,2025-10-02 13:51:28.671,00:00:06.5,75088671,0.0,0.0,0.0,0.0,0.0,0.0,0.0,0.0,0.0,0.0,1.0,0.0,0.0,0.0,0.0,-0.001,0.0,0.0,0.0,0.0,0.0744799723404255,0.3032514468085106,-1.5318325531914894,-0.297098744680851,-0.0732289191489361,0.9458095744680852,0.0798909063829787,0.0361456063829787,0.0883118212765957,47.60062722,,0.006,-0.073,1289.97,1295.89,-122.8251012,100.86691473,0.0,0.0,81.4,25.6,29.3,0.886,100,True
,21,2100.0,2025-10-02 20:51:28.771000+00:00,2025-10-02 13:51:28.771,00:00:06.6,75088771,0.0,0.0,0.0,0.0,0.0,0.0,0.0,0.0,0.0,0.0,1.0,0.0,0.0,0.0,0.0,-0.001,0.0,0.0,0.0,0.0,0.0743228142857142,0.3033208571428571,-1.5320357142857144,-0.295593,-0.0690336571428571,0.9459008571428572,0.0948681428571428,0.1189507857142857,0.0293337428571428,47.60062722,,0.0062857142857142,-0.073,1289.97,1295.89,-122.8251012,100.86691473,0.0,0.0,81.4,25.6,29.27142857142857,0.886,100,True
,22,2200.0,2025-10-02 20:51:28.871000+00:00,2025-10-02 13:51:28.871,00:00:06.7,75088871,0.0,0.0,0.0,0.0,0.0,0.0,0.0,0.0,0.0,0.0,1.0,0.0,0.0,0.0,0.0,-0.001,0.0,0.0,0.0,0.0,0.0742226,0.303458,-1.5322,-0.291103,-0.0713988,0.946123,0.144677,0.468888,0.0213821,47.60062722,,0.0067202797202797,-0.073,1289.97,1295.89,-122.8251012,100.86691473,0.0,0.0,81.4,25.6,29.2,0.886,100,True
,23,2300.0,2025-10-02 20:51:28.971000+00:00,2025-10-02 13:51:28.971,00:00:06.8,75088971,0.0,0.0,0.0,0.0,0.0,0.0,0.0,0.0,0.0,0.0,1.0,0.0,0.0,0.0,0.0,-0.001,0.0,0.0,0.0,0.0,0.0742226,0.303458,-1.5322,-0.291103,-0.0713988,0.946123,0.144677,0.468888,0.0213821,47.60062722,,0.006020979020979,-0.073,1289.97,1295.89,-122.8251012,100.86691473,0.0,0.0,81.4,25.6,29.2,0.886,100,True
,24,2400.0,2025-10-02 20:51:29.071000+00:00,2025-10-02 13:51:29.071,00:00:06.9,75089071,0.0,0.0,0.0,0.0,0.0,0.0,0.0,0.0,0.0,0.0,1.0,0.0,0.0,0.0,0.0,-0.001,0.0,0.0,0.0,0.0,0.074325303125,0.3038956874999999,-1.53237875,-0.2956592812499999,-0.068850303125,0.94631890625,-0.1879263125,0.1569969218749999,0.113048828125,47.60062722,,0.006,-0.074,1289.97,1295.89,-122.8251012,100.86691473,0.0,0.0,81.4,25.6,29.2,0.886,100,True
,25,2500.0,2025-10-02 20:51:29.171000+00:00,2025-10-02 13:51:29.171,00:00:07.0,75089171,0.0,0.0,0.0,0.0,0.0,0.0,0.0,0.0,0.0,0.0,1.0,0.0,0.0,0.0,0.0,-0.001,0.0,0.0,0.0,0.0,0.0745713,0.3038264819277108,-1.5324960240963856,-0.2961579156626506,-0.0709891180722891,0.9462095662650604,-0.167578,-0.0049477445783132,0.0375417490361445,47.60062722,,0.006,-0.0737710843373494,1289.97,1295.89,-122.8251012,100.86691473,0.0,0.0,81.4,25.6,29.2,0.886,100,True
,26,2600.0,2025-10-02 20:51:29.271000+00:00,2025-10-02 13:51:29.271,00:00:07.1,75089271,0.0,0.0,0.0,0.0,0.0,0.0,0.0,0.0,0.0,0.0,1.0,0.0,0.0,0.0,0.0,-0.001,0.0,0.0,0.0,0.0,0.0752190258426966,0.3037421797752809,-1.5325783146067418,-0.2973464382022472,-0.0746443550561797,0.9461772808988764,-0.1031726966292135,0.0775986831460674,0.0621345908988764,47.60062722,,0.006,-0.0734044943820224,1289.97,1295.89,-122.8251012,100.86691473,0.0,0.0,81.4,25.6,29.2,0.886,100,True
,27,2700.0,2025-10-02 20:51:29.371000+00:00,2025-10-02 13:51:29.371,00:00:07.2,75089371,0.0,0.0,0.0,0.0,0.0,0.0,0.0,0.0,0.0,0.0,1.0,0.0,0.0,0.0,0.0,-0.001,0.0,0.0,0.0,0.0,0.075415377173913,0.3037786413043478,-1.5326915217391304,-0.2980973152173913,-0.0736371434782608,0.9461975760869564,0.0081651739130435,0.0124548706521738,0.1067756532608695,47.60062722,,0.006,-0.074,1289.97,1295.89,-122.8251012,100.86691473,0.0,0.0,81.4,25.6,29.2,0.886,100,True
,28,2800.0,2025-10-02 20:51:29.471000+00:00,2025-10-02 13:51:29.471,00:00:07.3,75089471,0.0,0.0,0.0,0.0,0.0,0.0,0.0,0.0,0.0,0.0,1.0,0.0,0.0,0.0,0.0,-0.001,0.0,0.0,0.0,0.0,0.0755019626373626,0.3038155494505494,-1.5328446153846154,-0.2971038351648352,-0.0704256879120879,0.9462303406593406,-0.0884084725274725,0.0364770087912087,0.0887304813186813,47.60062722,,0.006,-0.0733956043956043,1289.97,1295.89,-122.8251012,100.86691473,0.0,0.0,81.4,25.6,29.2,0.886,100,True
,29,2900.0,2025-10-02 20:51:29.571000+00:00,2025-10-02 13:51:29.571,00:00:07.4,75089571,0.0,0.0,0.0,0.0,0.0,0.0,0.0,0.0,0.0,0.0,1.0,0.0,0.0,0.0,0.0,-0.001,0.0,0.0,0.0,0.0,0.0755609466666666,0.3038458,-1.5330208888888888,-0.2961090444444444,-0.0734577333333333,0.9462029111111112,-0.0627522355555555,-0.1295761111111111,0.0660075599999999,47.60062722,,0.006,-0.073,1289.97,1295.89,-122.8251012,100.81780243133332,0.0,0.0,81.4,25.6,29.2,0.886,100,True
,30,3000.0,2025-10-02 20:51:29.671000+00:00,2025-10-02 13:51:29.671,00:00:07.5,75089671,0.0,0.0,0.0,0.0,0.0,0.0,0.0,0.0,0.0,0.0,1.0,0.0,0.0,0.0,0.0,-0.001,0.0,0.0,0.0,0.0,0.07567236,0.3035148666666666,-1.5332097777777778,-0.2947020888888889,-0.06842208,0.9459837111111112,0.0028760644444444,0.0004443044444444,0.1541775511111111,47.60062722,,0.006,-0.0738222222222222,1289.97,1295.89,-122.8251012,100.79785056,0.0,0.0,81.4,25.6,29.2,0.886,100,True
,31,3100.0,2025-10-02 20:51:29.771000+00:00,2025-10-02 13:51:29.771,00:00:07.6,75089771,0.0,0.0,0.0,0.0,0.0,0.0,0.0,0.0,0.0,0.0,1.0,0.0,0.0,0.0,0.0,-0.001,0.0,0.0,0.0,0.0,0.0755026827586207,0.3035116206896552,-1.5334427586206896,-0.2981298620689655,-0.0751642758620689,0.946106172413793,0.0056343496551724,-0.0184986172413793,0.0434160758620689,47.60062722,,0.006,-0.074,1289.97,1295.89,-122.8251012,100.79785056,0.0,0.0,81.4,25.6,29.29655172413793,0.886,100,True
,32,3200.0,2025-10-02 20:51:29.871000+00:00,2025-10-02 13:51:29.871,00:00:07.7,75089871,0.0,0.0,0.0,0.0,0.0,0.0,0.0,0.0,0.0,0.0,1.0,0.0,0.0,0.0,0.0,-0.001,0.0,0.0,0.0,0.0,0.0754434960784313,0.3032315588235294,-1.5336401960784314,-0.2967659607843137,-0.0712096568627451,0.9459256078431372,0.071526356372549,-0.2207163578431372,0.0348581245098039,47.60062722,,0.0069509803921568,-0.074,1289.97,1295.89,-122.8251012,100.79785056,0.0,0.0,81.4,25.6,29.204901960784312,0.886,100,True
,33,3300.0,2025-10-02 20:51:29.971000+00:00,2025-10-02 13:51:29.971,00:00:07.8,75089971,0.0,0.0,0.0,0.0,0.0,0.0,0.0,0.0,0.0,0.0,1.0,0.0,0.0,0.0,0.0,-0.001,0.0,0.0,0.0,0.0,0.075436664516129,0.3029528709677419,-1.5338612903225808,-0.2947525483870967,-0.0698121064516129,0.9459008064516128,-0.06077,0.0495348483870967,0.0867702258064516,47.60062722,,0.006,-0.074,1289.97,1295.89,-122.8251012,100.79785056,0.0,0.0,81.4,25.6,29.2,0.886,100,True
,34,3400.0,2025-10-02 20:51:30.071000+00:00,2025-10-02 13:51:30.071,00:00:07.9,75090071,0.0,0.0,0.0,0.0,0.0,0.0,0.0,0.0,0.0,0.0,1.0,0.0,0.0,0.0,0.0,-0.001,0.0,0.0,0.0,0.0,0.0754952604477611,0.3029546343283582,-1.5339705223880595,-0.2978985522388059,-0.0741010014925373,0.9460807835820896,-0.0423352798507462,0.0486267104477611,-0.0019599589552238,47.60062722,,0.0061865671641791,-0.0738134328358209,1289.97,1295.89,-122.8251012,100.79785056,0.0,0.0,81.4,25.6,29.2,0.886,100,True
,35,3500.0,2025-10-02 20:51:30.171000+00:00,2025-10-02 13:51:30.171,00:00:08.0,75090171,0.0,0.0,0.0,0.0,0.0,0.0,0.0,0.0,0.0,0.0,1.0,0.0,0.0,0.0,0.0,-0.001,0.0,0.0,0.0,0.0,0.0756119022388059,0.3029971716417911,-1.5340526119402984,-0.2948567611940298,-0.0784998074626865,0.9462039179104478,0.0708736007462686,0.0495983522388059,0.0929822052238806,47.60062722,,0.0069328358208955,-0.0730671641791044,1289.97,1295.89,-122.8251012,100.79785056,0.0,0.0,81.4,25.6,29.2,0.886,100,True
,36,3600.0,2025-10-02 20:51:30.271000+00:00,2025-10-02 13:51:30.271,00:00:08.1,75090271,0.0,0.0,0.0,0.0,0.0,0.0,0.0,0.0,0.0,0.0,1.0,0.0,0.0,0.0,0.0,-0.001,0.0,0.0,0.0,0.0,0.0753386715789473,0.3028515684210526,-1.5343761052631577,-0.2999663684210526,-0.0760623431578947,0.946153694736842,0.0259868052631579,0.0511130631578947,0.2409715684210526,47.60062722,,0.0060421052631578,-0.0739578947368421,1289.97,1295.89,-122.8251012,100.79785056,0.0,0.0,81.4,25.6,29.2,0.886,100,True
,37,3700.0,2025-10-02 20:51:30.371000+00:00,2025-10-02 13:51:30.371,00:00:08.2,75090371,0.0,0.0,0.0,0.0,0.0,0.0,0.0,0.0,0.0,0.0,1.0,0.0,0.0,0.0,0.0,-0.001,0.0,0.0,0.0,0.0,0.0751253228260869,0.3027091630434782,-1.5346152173913044,-0.2947354565217391,-0.0686193826086956,0.9461145869565216,0.1511408347826087,-0.0897053326086956,0.1617300326086956,47.60062722,,0.0069239130434782,-0.0740760869565217,1289.97,1295.89,-122.8251012,100.79785056,0.0,0.0,81.4,25.6,29.2,0.886,100,True
,38,3800.0,2025-10-02 20:51:30.471000+00:00,2025-10-02 13:51:30.471,00:00:08.3,75090471,0.0,0.0,0.0,0.0,0.0,0.0,0.0,0.0,0.0,0.0,1.0,0.0,0.0,0.0,0.0,-0.001,0.0,0.0,0.0,0.0,0.0749891357142857,0.3024148928571428,-1.5348392857142856,-0.29144725,-0.0693638857142857,0.9459845714285716,0.0810624,-0.0778074607142857,0.1028311428571428,47.60062722,,0.006,-0.0748214285714285,1289.97,1295.89,-122.8251012,100.7999441225,0.0,0.0,81.4,25.6,29.2,0.886,100,True
,39,3900.0,2025-10-02 20:51:30.571000+00:00,2025-10-02 13:51:30.571,00:00:08.4,75090571,0.0,0.0,0.0,0.0,0.0,0.0,0.0,0.0,0.0,0.0,1.0,0.0,0.0,0.0,0.0,-0.001,0.0,0.0,0.0,0.0,0.0747776641304347,0.3022442717391304,-1.535080652173913,-0.2952673369565217,-0.0723479239130434,0.9460421956521738,0.1024977543478261,-0.0677433641304347,0.0771689532608695,47.60062722,,0.006,-0.074,1289.97,1295.89,-122.8251012,100.80957451,0.0,0.0,81.4,25.6,29.2,0.886,100,True
,40,4000.0,2025-10-02 20:51:30.671000+00:00,2025-10-02 13:51:30.671,00:00:08.5,75090671,0.0,0.0,0.0,0.0,0.0,0.0,0.0,0.0,0.0,0.0,1.0,0.0,0.0,0.0,0.0,-0.001,0.0,0.0,0.0,0.0,0.07464119,0.3020679,-1.53526,-0.2966366,-0.0746301,0.9460537,0.1465124,-0.13986612,0.04853333,47.60062722,,0.006,-0.074,1289.97,1295.89,-122.8251012,100.80957451,0.0,0.0,81.4,25.6,29.2,0.886,100,True
,41,4100.0,2025-10-02 20:51:30.771000+00:00,2025-10-02 13:51:30.771,00:00:08.6,75090771,0.0,0.0,0.0,0.0,0.0,0.0,0.0,0.0,0.0,0.0,1.0,0.0,0.0,0.0,0.0,-0.001,0.0,0.0,0.0,0.0,0.0745648404411764,0.3018214264705882,-1.535416544117647,-0.291788669117647,-0.0739545617647058,0.9460219485294118,0.1315267279411764,-0.0765509323529411,0.0890901397058823,47.60062722,,0.0060661764705882,-0.0739338235294117,1289.97,1295.89,-122.8251012,100.80957451,0.0,0.0,81.4,25.6,29.2,0.886,100,True
,42,4200.0,2025-10-02 20:51:30.871000+00:00,2025-10-02 13:51:30.871,00:00:08.7,75090871,0.0,0.0,0.0,0.0,0.0,0.0,0.0,0.0,0.0,0.0,1.0,0.0,0.0,0.0,0.0,-0.001,0.0,0.0,0.0,0.0,0.0745541786764705,0.3017817205882353,-1.5356003676470589,-0.2925849926470588,-0.0750819147058823,0.9462991544117648,-0.0825651838235294,0.0769875970588235,0.0029605808823529,47.60062722,,0.0068014705882352,-0.0731985294117647,1289.97,1295.89,-122.8251012,100.80957451,0.0,0.0,81.4,25.6,29.2,0.886,100,True
,43,4300.0,2025-10-02 20:51:30.971000+00:00,2025-10-02 13:51:30.971,00:00:08.8,75090971,0.0,0.0,0.0,0.0,0.0,0.0,0.0,0.0,0.0,0.0,1.0,0.0,0.0,0.0,0.0,-0.001,0.0,0.0,0.0,0.0,0.0748826778846153,0.3019570096153846,-1.5357201923076922,-0.2921956442307692,-0.0733809759615384,0.9466547692307692,-0.1807277692307692,0.0703565663461538,0.0823909096153846,47.60062722,,0.0062980769230769,-0.073701923076923,1289.97,1295.89,-122.8251012,100.80957451,0.0,0.0,81.4,25.6,29.2,0.886,100,True
,44,4400.0,2025-10-02 20:51:31.071000+00:00,2025-10-02 13:51:31.071,00:00:08.9,75091071,0.0,0.0,0.0,0.0,0.0,0.0,0.0,0.0,0.0,0.0,1.0,0.0,0.0,0.0,0.0,-0.001,0.0,0.0,0.0,0.0,0.0751108,0.3019661481481481,-1.535826666666667,-0.2937185185185185,-0.0683367555555555,0.9466734814814816,-0.0738517037037037,0.0504375296296296,0.1749725185185185,47.60062722,,0.006,-0.074,1289.97,1295.89,-122.8251012,100.80957451,0.0,0.0,81.4,25.6,29.2,0.886,100,True
,45,4500.0,2025-10-02 20:51:31.171000+00:00,2025-10-02 13:51:31.171,00:00:09.0,75091171,0.0,0.0,0.0,0.0,0.0,0.0,0.0,0.0,0.0,0.0,1.0,0.0,0.0,0.0,0.0,-0.001,0.0,0.0,0.0,0.0,0.0750460965517241,0.3017841379310345,-1.536021724137931,-0.2923905287356321,-0.0719702609195402,0.9464364827586208,0.0027375514942528,-0.1609600459770115,0.0394741712643678,47.60062722,,0.0069885057471264,-0.074,1289.97,1295.89,-122.8251012,100.80957451,0.0,0.0,81.4,25.6,29.2,0.886,100,True
,46,4600.0,2025-10-02 20:51:31.271000+00:00,2025-10-02 13:51:31.271,00:00:09.1,75091271,0.0,0.0,0.0,0.0,0.0,0.0,0.0,0.0,0.0,0.0,1.0,0.0,0.0,0.0,0.0,-0.001,0.0,0.0,0.0,0.0,0.0751199904761904,0.3015362857142857,-1.536182380952381,-0.2950408571428571,-0.0711654428571428,0.9463177142857144,-0.1968196666666666,-0.1481592952380952,-0.0126129952380952,47.60062722,,0.006,-0.074,1289.97,1295.89,-122.8251012,100.80957451,0.0,0.0,81.4,25.6,29.2,0.886,100,True
,47,4700.0,2025-10-02 20:51:31.371000+00:00,2025-10-02 13:51:31.371,00:00:09.2,75091371,0.0,0.0,0.0,0.0,0.0,0.0,0.0,0.0,0.0,0.0,1.0,0.0,0.0,0.0,0.0,-0.001,0.0,0.0,0.0,0.0,0.075158493877551,0.3015240408163265,-1.5362708163265306,-0.2933755510204081,-0.0688807489795918,0.946401387755102,-0.1019458571428571,-0.0530114040816326,-0.0219108183673469,47.60062722,,0.006,-0.074,1289.97,1295.89,-122.8251012,100.80957451,0.0,0.0,81.4,25.6,29.2,0.886,100,True
,48,4800.0,2025-10-02 20:51:31.471000+00:00,2025-10-02 13:51:31.471,00:00:09.3,75091471,0.0,0.0,0.0,0.0,0.0,0.0,0.0,0.0,0.0,0.0,1.0,0.0,0.0,0.0,0.0,-0.001,0.0,0.0,0.0,0.0,0.0752809728,0.30152536,-1.53640184,-0.291985016,-0.0675668408,0.946515832,-0.0267028128,-0.0208811208,0.0464906575999999,47.60062722,,0.006536,-0.074,1289.97,1295.89,-122.8251012,100.81557121368,0.0,0.0,81.4,25.6,29.2,0.886,100,True
,49,4900.0,2025-10-02 20:51:31.571000+00:00,2025-10-02 13:51:31.571,00:00:09.4,75091571,0.0,0.0,0.0,0.0,0.0,0.0,0.0,0.0,0.0,0.0,1.0,0.0,0.0,0.0,0.0,-0.001,0.0,0.0,0.0,0.0,0.0754232853932584,0.3014898876404495,-1.536546629213483,-0.2940016292134831,-0.0677964775280898,0.9465683483146068,-0.0215770359550561,-0.0862823292134831,0.1119233932584269,47.60062722,,0.0065280898876404,-0.074,1289.97,1295.89,-122.8251012,100.82076239,0.0,0.0,81.4,25.6,29.2,0.886,100,True
,50,5000.0,2025-10-02 20:51:31.671000+00:00,2025-10-02 13:51:31.671,00:00:09.5,75091671,0.0,0.0,0.0,0.0,0.0,0.0,0.0,0.0,0.0,0.0,1.0,0.0,0.0,0.0,0.0,-0.001,0.0,0.0,0.0,0.0,0.0754411067961165,0.3012849708737864,-1.5366923300970874,-0.2939923106796116,-0.0690621456310679,0.9464611844660196,0.0492431553398058,-0.1242570699029126,0.1060986932038835,47.60062722,,0.0065145631067961,-0.074,1289.97,1295.89,-122.8251012,100.82076239,0.0,0.0,81.4,25.6,29.2,0.886,100,True
,51,5100.0,2025-10-02 20:51:31.771000+00:00,2025-10-02 13:51:31.771,00:00:09.6,75091771,0.0,0.0,0.0,0.0,0.0,0.0,0.0,0.0,0.0,0.0,1.0,0.0,0.0,0.0,0.0,-0.001,0.0,0.0,0.0,0.0,0.075321125,0.301124625,-1.536829659090909,-0.2909624204545454,-0.0699521988636363,0.9464260454545456,0.2102256818181818,-0.1103082068181818,0.0918315443181818,47.60062722,,0.006715909090909,-0.074,1289.97,1295.89,-122.8251012,100.82076239,0.0,0.0,81.4,25.6,29.2,0.886,100,True
,52,5200.0,2025-10-02 20:51:31.871000+00:00,2025-10-02 13:51:31.871,00:00:09.7,75091871,0.0,0.0,0.0,0.0,0.0,0.0,0.0,0.0,0.0,0.0,1.0,0.0,0.0,0.0,0.0,-0.001,0.0,0.0,0.0,0.0,0.0751473749999999,0.301105875,-1.5369489772727274,-0.2907152613636363,-0.070852596590909,0.9465101363636363,0.3290870454545455,-0.1501858204545454,0.0818110329545454,47.60062722,,0.0061477272727272,-0.074,1289.97,1295.89,-122.8251012,100.82076239,0.0,0.0,81.4,25.6,29.2,0.886,100,True
,53,5300.0,2025-10-02 20:51:31.971000+00:00,2025-10-02 13:51:31.971,00:00:09.8,75091971,0.0,0.0,0.0,0.0,0.0,0.0,0.0,0.0,0.0,0.0,1.0,0.0,0.0,0.0,0.0,-0.001,0.0,0.0,0.0,0.0,0.074751625,0.3009677999999999,-1.53726675,-0.296126075,-0.0701882475,0.9466689,-0.1560267250000001,-0.03059705,0.1231499524999999,47.60062722,,0.006,-0.073075,1289.97,1295.89,-122.8251012,100.82076239,0.0,0.0,81.4,25.6,29.2,0.886,100,True
,54,5400.0,2025-10-02 20:51:32.071000+00:00,2025-10-02 13:51:32.071,00:00:09.9,75092071,0.0,0.0,0.0,0.0,0.0,0.0,0.0,0.0,0.0,0.0,1.0,0.0,0.0,0.0,0.0,-0.001,0.0,0.0,0.0,0.0,0.0746783425531914,0.3010088723404255,-1.537543829787234,-0.2939554468085106,-0.071094629787234,0.946887489361702,0.1552981787234042,-0.0241410936170212,0.1645462978723404,47.60062722,,0.006,-0.0740212765957446,1289.97,1295.89,-122.8251012,100.82076239,0.0,0.0,81.4,25.6,29.2,0.886,100,True
,55,5500.0,2025-10-02 20:51:32.171000+00:00,2025-10-02 13:51:32.171,00:00:10.0,75092171,0.0,0.0,0.0,0.0,0.0,0.0,0.0,0.0,0.0,0.0,1.0,0.0,0.0,0.0,0.0,-0.001,0.0,0.0,0.0,0.0,0.0745301633093525,0.3005717338129496,-1.5377338129496405,-0.287798417266187,-0.0714895021582733,0.9466326762589928,0.084723671942446,-0.2303437194244604,0.1000267683453237,47.60062722,,0.006,-0.0748848920863309,1289.97,1295.89,-122.8251012,100.82076239,0.0,0.0,81.4,25.6,29.2,0.886,100,True
,56,5600.0,2025-10-02 20:51:32.271000+00:00,2025-10-02 13:51:32.271,00:00:10.1,75092271,0.0,0.0,0.0,0.0,0.0,0.0,0.0,0.0,0.0,0.0,1.0,0.0,0.0,0.0,0.0,-0.001,0.0,0.0,0.0,0.0,0.074320954676259,0.3003559064748201,-1.537906474820144,-0.2922286330935251,-0.0729582791366906,0.9466161294964028,0.1304895712230215,-0.2309027122302158,0.0454613726618705,47.60062722,,0.006,-0.0734460431654676,1289.97,1295.89,-122.8251012,100.82076239,0.0,0.0,81.4,25.6,29.2,0.886,100,True
,57,5700.0,2025-10-02 20:51:32.371000+00:00,2025-10-02 13:51:32.371,00:00:10.2,75092371,0.0,0.0,0.0,0.0,0.0,0.0,0.0,0.0,0.0,0.0,1.0,0.0,0.0,0.0,0.0,-0.001,0.0,0.0,0.0,0.0,0.0741258819548872,0.3001385488721804,-1.5381156390977444,-0.2930225037593985,-0.0726754556390977,0.9466457593984964,0.1541984812030075,-0.193651022556391,0.1366991383458646,47.60062722,,0.006,-0.0735187969924812,1289.97,1295.89,-122.8251012,100.82076239,0.0,0.0,81.4,25.6,29.2,0.8865187969924813,100,True
,58,5800.0,2025-10-02 20:51:32.471000+00:00,2025-10-02 13:51:32.471,00:00:10.3,75092471,0.0,0.0,0.0,0.0,0.0,0.0,0.0,0.0,0.0,0.0,1.0,0.0,0.0,0.0,0.0,-0.001,0.0,0.0,0.0,0.0,0.0739522441860465,0.2999043953488372,-1.538346511627907,-0.2908736511627907,-0.0704802790697674,0.946702,0.1401553209302325,-0.1593189302325581,0.1998041162790697,47.60062722,,0.006,-0.074,1289.97,1295.89,-122.8251012,100.84589468767442,0.0,0.0,81.4,25.6,29.2,0.887,100,True
,59,5900.0,2025-10-02 20:51:32.571000+00:00,2025-10-02 13:51:32.571,00:00:10.4,75092571,0.0,0.0,0.0,0.0,0.0,0.0,0.0,0.0,0.0,0.0,1.0,0.0,0.0,0.0,0.0,-0.001,0.0,0.0,0.0,0.0,0.0738320516853932,0.2996490674157303,-1.5385865168539326,-0.2873750561797752,-0.0666649078651685,0.9467808314606742,0.0586430202247191,-0.1273074382022472,0.0997782426966292,47.60062722,,0.006,-0.074,1289.97,1295.89,-122.8251012,100.91081979,0.0,0.0,81.4,25.6,29.2,0.887,100,True
,60,6000.0,2025-10-02 20:51:32.671000+00:00,2025-10-02 13:51:32.671,00:00:10.5,75092671,0.0,0.0,0.0,0.0,0.0,0.0,0.0,0.0,0.0,0.0,1.0,0.0,0.0,0.0,0.0,-0.001,0.0,0.0,0.0,0.0,0.07405764,0.2995074,-1.538802,-0.2950806,-0.06863776,0.9469822,-0.2064312,0.1749308,0.0270871,47.60062722,,0.006,-0.074,1289.97,1295.89,-122.8251012,100.91081979,0.0,0.0,81.4,25.6,29.2,0.887,100,True
,61,6100.0,2025-10-02 20:51:32.771000+00:00,2025-10-02 13:51:32.771,00:00:10.6,75092771,0.0,0.0,0.0,0.0,0.0,0.0,0.0,0.0,0.0,0.0,1.0,0.0,0.0,0.0,0.0,-0.001,0.0,0.0,0.0,0.0,0.074255288,0.29943564,-1.5389208,-0.29348332,-0.07230088,0.94700964,-0.21450696,-0.122796124,-0.061916932,47.60062722,,0.00628,-0.074,1289.97,1295.89,-122.8251012,100.91081979,0.0,0.0,81.4,25.6,29.2,0.887,100,True
,62,6200.0,2025-10-02 20:51:32.871000+00:00,2025-10-02 13:51:32.871,00:00:10.7,75092871,0.0,0.0,0.0,0.0,0.0,0.0,0.0,0.0,0.0,0.0,1.0,0.0,0.0,0.0,0.0,-0.001,0.0,0.0,0.0,0.0,0.074553855,0.2993952,-1.5390245,-0.2902353,-0.07070425,0.94707725,-0.1548657,-0.020781805,0.056188435,47.60062722,,0.00665,-0.074,1289.97,1295.89,-122.8251012,100.91081979,0.0,0.0,81.4,25.6,29.2,0.887,100,True
,63,6300.0,2025-10-02 20:51:32.971000+00:00,2025-10-02 13:51:32.971,00:00:10.8,75092971,0.0,0.0,0.0,0.0,0.0,0.0,0.0,0.0,0.0,0.0,1.0,0.0,0.0,0.0,0.0,-0.001,0.0,0.0,0.0,0.0,0.0750215499999999,0.299558,-1.539095,-0.2920709999999999,-0.07416695,0.9472625,-0.166059,0.1545426999999999,0.0869987,47.60062722,,0.006,-0.074,1289.97,1295.89,-122.8251012,100.91081979,0.0,0.0,81.4,25.6,29.2,0.887,100,True
,64,6400.0,2025-10-02 20:51:33.071000+00:00,2025-10-02 13:51:33.071,00:00:10.9,75093071,0.0,0.0,0.0,0.0,0.0,0.0,0.0,0.0,0.0,0.0,1.0,0.0,0.0,0.0,0.0,-0.001,0.0,0.0,0.0,0.0,0.0752439422222222,0.2997222444444444,-1.539252888888889,-0.2951909555555556,-0.0725042555555555,0.9472331777777776,-0.1518953955555555,0.1270614488888888,0.0618325466666666,47.60062722,,0.006,-0.0734222222222222,1289.97,1295.89,-122.8251012,100.91081979,0.0,0.0,81.4,25.6,29.2,0.887,100,True
,65,6500.0,2025-10-02 20:51:33.171000+00:00,2025-10-02 13:51:33.171,00:00:11.0,75093171,0.0,0.0,0.0,0.0,0.0,0.0,0.0,0.0,0.0,0.0,1.0,0.0,0.0,0.0,0.0,-0.001,0.0,0.0,0.0,0.0,0.0753389311111111,0.2995044222222222,-1.539432666666667,-0.2946321333333333,-0.07141034,0.9469243333333331,-0.0626162844444444,0.0275427822222222,0.0659492222222222,47.60062722,,0.006,-0.0736888888888888,1289.97,1295.89,-122.8251012,100.91081979,0.0,0.0,81.4,25.6,29.2,0.887,100,True
,66,6600.0,2025-10-02 20:51:33.271000+00:00,2025-10-02 13:51:33.271,00:00:11.1,75093271,0.0,0.0,0.0,0.0,0.0,0.0,0.0,0.0,0.0,0.0,1.0,0.0,0.0,0.0,0.0,-0.001,0.0,0.0,0.0,0.0,0.0755999847058823,0.2995563176470588,-1.5395208235294118,-0.2926129411764706,-0.0705810058823529,0.9470207411764706,-0.311152974117647,0.0481005811764705,-0.0533677529411764,47.60062722,,0.0068470588235294,-0.074,1289.97,1295.89,-122.8251012,100.91081979,0.0,0.0,81.4,25.6,29.2,0.887,100,True
,67,6700.0,2025-10-02 20:51:33.371000+00:00,2025-10-02 13:51:33.371,00:00:11.2,75093371,0.0,0.0,0.0,0.0,0.0,0.0,0.0,0.0,0.0,0.0,1.0,0.0,0.0,0.0,0.0,-0.001,0.0,0.0,0.0,0.0,0.0762163164835164,0.2999377362637362,-1.539568241758242,-0.2942740109890109,-0.0735158197802197,0.9474326373626374,-0.3439858461538461,0.383883432967033,0.0589484725274725,47.60062722,,0.006043956043956,-0.074,1289.97,1295.89,-122.8251012,100.91081979,0.0,0.0,81.4,25.6,29.2,0.887,100,True
,68,6800.0,2025-10-02 20:51:33.471000+00:00,2025-10-02 13:51:33.471,00:00:11.3,75093471,0.0,0.0,0.0,0.0,0.0,0.0,0.0,0.0,0.0,0.0,1.0,0.0,0.0,0.0,0.0,-0.001,0.0,0.0,0.0,0.0,0.0765746279069767,0.2998719186046511,-1.5396480232558138,-0.2890909302325581,-0.0920302360465116,0.9471756511627908,0.1546929104651162,-0.0196323232558139,0.1684997906976744,47.60062722,,0.006,-0.074,1289.97,1295.89,-122.8251012,100.91324040069767,0.0,0.0,81.4,25.6,29.2,0.887,100,True
,69,6900.0,2025-10-02 20:51:33.571000+00:00,2025-10-02 13:51:33.571,00:00:11.4,75093571,0.0,0.0,0.0,0.0,0.0,0.0,0.0,0.0,0.0,0.0,1.0,0.0,0.0,0.0,0.0,-0.001,0.0,0.0,0.0,0.0,0.076292739,0.29978161,-1.5399176,-0.28987724,-0.077771769,0.94700799,0.1170069629999999,0.0048942239999999,0.23937644,47.60062722,,0.006,-0.0738299999999999,1289.97,1295.89,-122.8251012,100.98021063,0.0,0.0,81.4,25.6,29.2,0.887,100,True
,70,7000.0,2025-10-02 20:51:33.671000+00:00,2025-10-02 13:51:33.671,00:00:11.5,75093671,0.0,0.0,0.0,0.0,0.0,0.0,0.0,0.0,0.0,0.0,1.0,0.0,0.0,0.0,0.0,-0.001,0.0,0.0,0.0,0.0,0.0759233442028985,0.2998764782608695,-1.5401955797101448,-0.2921633478260869,-0.0696729652173913,0.9470380072463768,0.2234181594202898,0.1381493188405797,0.2200193333333333,47.60062722,,0.006,-0.0731231884057971,1289.97,1295.89,-122.8251012,100.98021063,0.0,0.0,81.4,25.6,29.2,0.887,100,True
,71,7100.0,2025-10-02 20:51:33.771000+00:00,2025-10-02 13:51:33.771,00:00:11.6,75093771,0.0,0.0,0.0,0.0,0.0,0.0,0.0,0.0,0.0,0.0,1.0,0.0,0.0,0.0,0.0,-0.001,0.0,0.0,0.0,0.0,0.0756706630434782,0.2997851739130434,-1.5404636956521738,-0.2901242173913043,-0.0671668782608695,0.946985108695652,0.1684543913043478,0.2391217826086956,0.1728859999999999,47.60062722,,0.006,-0.0738478260869565,1289.97,1295.89,-122.8251012,100.98021063,0.0,0.0,81.4,25.6,29.2,0.887,100,True
,72,7200.0,2025-10-02 20:51:33.871000+00:00,2025-10-02 13:51:33.871,00:00:11.7,75093871,0.0,0.0,0.0,0.0,0.0,0.0,0.0,0.0,0.0,0.0,1.0,0.0,0.0,0.0,0.0,-0.001,0.0,0.0,0.0,0.0,0.0756176,0.299766,-1.54052,-0.289696,-0.0666406,0.946974,0.156912,0.260326,0.162988,47.60062722,,0.006,-0.0746528925619834,1289.97,1295.89,-122.8251012,100.98021063,0.0,0.0,81.4,25.6,29.2,0.887,100,True
,73,7300.0,2025-10-02 20:51:33.971000+00:00,2025-10-02 13:51:33.971,00:00:11.8,75093971,0.0,0.0,0.0,0.0,0.0,0.0,0.0,0.0,0.0,0.0,1.0,0.0,0.0,0.0,0.0,-0.001,0.0,0.0,0.0,0.0,0.0755602581560283,0.2996162695035461,-1.540631063829787,-0.2908852056737588,-0.0674177177304964,0.9468863829787234,0.1231949134751773,0.1158004893617021,0.1096126978723404,47.60062722,,0.006,-0.0745886524822695,1289.97,1295.89,-122.8251012,100.98021063,0.0,0.0,81.4,25.6,29.2,0.887,100,True
,74,7400.0,2025-10-02 20:51:34.071000+00:00,2025-10-02 13:51:34.071,00:00:11.9,75094071,0.0,0.0,0.0,0.0,0.0,0.0,0.0,0.0,0.0,0.0,1.0,0.0,0.0,0.0,0.0,-0.001,0.0,0.0,0.0,0.0,0.0754237420454545,0.2993492613636364,-1.540834431818182,-0.2921817045454545,-0.06785575,0.9467608068181818,0.0761264477272727,-0.1044046193181818,0.0468395318181818,47.60062722,,0.006,-0.074,1289.97,1295.89,-122.8251012,100.98021063,0.0,0.0,81.4,25.6,29.2,0.887,100,True
,75,7500.0,2025-10-02 20:51:34.171000+00:00,2025-10-02 13:51:34.171,00:00:12.0,75094171,0.0,0.0,0.0,0.0,0.0,0.0,0.0,0.0,0.0,0.0,1.0,0.0,0.0,0.0,0.0,-0.001,0.0,0.0,0.0,0.0,0.0752127021505376,0.2991112258064516,-1.5410605376344086,-0.2906405483870967,-0.0647361311827957,0.9468360860215054,-0.0097307999999999,-0.0733628709677419,0.0669261709677419,47.60062722,,0.006,-0.074,1289.97,1295.89,-122.8251012,100.98021063,0.0,0.0,81.4,25.6,29.2,0.887,100,True
,76,7600.0,2025-10-02 20:51:34.271000+00:00,2025-10-02 13:51:34.271,00:00:12.1,75094271,0.0,0.0,0.0,0.0,0.0,0.0,0.0,0.0,0.0,0.0,1.0,0.0,0.0,0.0,0.0,-0.001,0.0,0.0,0.0,0.0,0.0753804218045112,0.2991445413533835,-1.541166240601504,-0.2911157518796992,-0.0672815714285714,0.9471217443609022,-0.2223530977443609,0.1571874060150376,0.0625867120300751,47.60062722,,0.006,-0.074,1289.97,1295.89,-122.8251012,100.98021063,0.0,0.0,81.4,25.6,29.2,0.887,100,True
,77,7700.0,2025-10-02 20:51:34.371000+00:00,2025-10-02 13:51:34.371,00:00:12.2,75094371,0.0,0.0,0.0,0.0,0.0,0.0,0.0,0.0,0.0,0.0,1.0,0.0,0.0,0.0,0.0,-0.001,0.0,0.0,0.0,0.0,0.0757486989010989,0.2993501208791209,-1.5412132967032968,-0.291434010989011,-0.0754949296703296,0.9474476373626374,-0.2390692747252747,0.2637316593406593,0.2702853736263736,47.60062722,,0.006,-0.0739670329670329,1289.97,1295.89,-122.8251012,100.98021063,0.0,0.0,81.4,25.6,29.2,0.887,100,True
,78,7800.0,2025-10-02 20:51:34.471000+00:00,2025-10-02 13:51:34.471,00:00:12.3,75094471,0.0,0.0,0.0,0.0,0.0,0.0,0.0,0.0,0.0,0.0,1.0,0.0,0.0,0.0,0.0,-0.001,0.0,0.0,0.0,0.0,0.0761231733333333,0.2997058,-1.541334,-0.2899815333333333,-0.06325108,0.9477206,0.2178376533333333,0.3314182,0.2693509866666667,47.60062722,,0.006,-0.073,1289.97,1295.89,-122.8251012,100.98446939666668,0.0,0.0,81.4,25.6,29.2,0.887,100,True
,79,7900.0,2025-10-02 20:51:34.571000+00:00,2025-10-02 13:51:34.571,00:00:12.4,75094571,0.0,0.0,0.0,0.0,0.0,0.0,0.0,0.0,0.0,0.0,1.0,0.0,0.0,0.0,0.0,-0.001,0.0,0.0,0.0,0.0,0.0758801155555555,0.300077,-1.541534,-0.2919646444444445,-0.0713443577777777,0.9477575555555556,0.0640167511111111,0.1756944666666666,0.1017323688888888,47.60062722,,0.006,-0.0732444444444444,1289.97,1295.89,-122.8251012,101.01215138,0.0,0.0,81.4,25.57555555555556,29.2,0.887,100,True
,80,8000.0,2025-10-02 20:51:34.671000+00:00,2025-10-02 13:51:34.671,00:00:12.5,75094671,0.0,0.0,0.0,0.0,0.0,0.0,0.0,0.0,0.0,0.0,1.0,0.0,0.0,0.0,0.0,-0.001,0.0,0.0,0.0,0.0,0.0757950696629213,0.3000113595505618,-1.5417203370786516,-0.2921948426966292,-0.0736717426966292,0.9474042921348316,0.0113302,-0.1492296741573034,0.1096806516853932,47.60062722,,0.006,-0.074,1289.97,1295.89,-122.8251012,101.01215138,0.0,0.0,81.4,25.535955056179777,29.2,0.887,100,True
,81,8100.0,2025-10-02 20:51:34.771000+00:00,2025-10-02 13:51:34.771,00:00:12.6,75094771,0.0,0.0,0.0,0.0,0.0,0.0,0.0,0.0,0.0,0.0,1.0,0.0,0.0,0.0,0.0,-0.001,0.0,0.0,0.0,0.0,0.0758036177304964,0.3000089787234042,-1.5418435460992908,-0.2935842269503546,-0.073761429787234,0.9472809290780142,0.0131959425531914,0.0986161723404255,0.1284112269503546,47.60062722,,0.006,-0.074,1289.97,1295.89,-122.8251012,101.01215138,0.0,0.0,81.4,25.6,29.2,0.887,100,True
,82,8200.0,2025-10-02 20:51:34.871000+00:00,2025-10-02 13:51:34.871,00:00:12.7,75094871,0.0,0.0,0.0,0.0,0.0,0.0,0.0,0.0,0.0,0.0,1.0,0.0,0.0,0.0,0.0,-0.001,0.0,0.0,0.0,0.0,0.0758286978260869,0.3001309565217391,-1.5419236956521738,-0.2932972391304348,-0.0744955652173913,0.9472955,0.0157991891304347,0.0489262869565217,0.1760057173913043,47.60062722,,0.006,-0.074,1289.97,1295.89,-122.8251012,101.01215138,0.0,0.0,81.4,25.6,29.2,0.887,100,True
,83,8300.0,2025-10-02 20:51:34.971000+00:00,2025-10-02 13:51:34.971,00:00:12.8,75094971,0.0,0.0,0.0,0.0,0.0,0.0,0.0,0.0,0.0,0.0,1.0,0.0,0.0,0.0,0.0,-0.001,0.0,0.0,0.0,0.0,0.0758785382716049,0.3000711604938272,-1.542112222222222,-0.2948065802469136,-0.0735166172839506,0.9471204691358024,-0.0857391086419753,-0.020338312345679,0.0995268185185185,47.60062722,,0.006,-0.074,1289.97,1295.89,-122.8251012,101.01215138,0.0,0.0,81.4,25.6,29.2,0.887,100,True
,84,8400.0,2025-10-02 20:51:35.071000+00:00,2025-10-02 13:51:35.071,00:00:12.9,75095071,0.0,0.0,0.0,0.0,0.0,0.0,0.0,0.0,0.0,0.0,1.0,0.0,0.0,0.0,0.0,-0.001,0.0,0.0,0.0,0.0,0.0763041760869565,0.2999566739130435,-1.5422794565217393,-0.2896549347826087,-0.0741084119565217,0.9469852826086956,-0.169930052173913,0.0226047706521739,-0.0167199348913043,47.60062722,,0.006,-0.074,1289.97,1295.89,-122.8251012,101.01215138,0.0,0.0,81.4,25.6,29.2,0.887,100,True
,85,8500.0,2025-10-02 20:51:35.171000+00:00,2025-10-02 13:51:35.171,00:00:13.0,75095171,0.0,0.0,0.0,0.0,0.0,0.0,0.0,0.0,0.0,0.0,1.0,0.0,0.0,0.0,0.0,-0.001,0.0,0.0,0.0,0.0,0.0766695631205673,0.2999128226950354,-1.5423236170212766,-0.2885256312056737,-0.0739236900709219,0.9469659361702129,0.0139311858156028,0.0815686078014184,-0.0334550127659574,47.60062722,,0.006,-0.0737375886524822,1289.97,1295.89,-122.8251012,101.01215138,0.0,0.0,81.4,25.6,29.2,0.887,100,True
,86,8600.0,2025-10-02 20:51:35.271000+00:00,2025-10-02 13:51:35.271,00:00:13.1,75095271,0.0,0.0,0.0,0.0,0.0,0.0,0.0,0.0,0.0,0.0,1.0,0.0,0.0,0.0,0.0,-0.001,0.0,0.0,0.0,0.0,0.0768645985815602,0.2999312624113475,-1.5423874468085106,-0.2937759858156029,-0.0753531226950354,0.946976574468085,-0.1344353390070921,-0.0175838035460992,-0.0194228851063829,47.60062722,,0.006,-0.0730283687943262,1289.97,1295.89,-122.8251012,101.01215138,0.0,0.0,81.4,25.6,29.2,0.887,100,True
,87,8700.0,2025-10-02 20:51:35.371000+00:00,2025-10-02 13:51:35.371,00:00:13.2,75095371,0.0,0.0,0.0,0.0,0.0,0.0,0.0,0.0,0.0,0.0,1.0,0.0,0.0,0.0,0.0,-0.001,0.0,0.0,0.0,0.0,0.0767852846153846,0.3027937692307692,-1.542633846153846,-0.2962126153846154,-0.056656223076923,0.9484003846153848,0.1293389076923077,-0.3434141615384615,0.1013141076923077,47.60062722,,0.006,-0.0741538461538461,1289.97,1295.89,-122.8251012,101.01215138,0.0,0.0,81.4,25.6,29.2,0.887,100,True
,88,8800.0,2025-10-02 20:51:35.471000+00:00,2025-10-02 13:51:35.471,00:00:13.3,75095471,0.0,0.0,0.0,0.0,0.0,0.0,0.0,0.0,0.0,0.0,1.0,0.0,0.0,0.0,0.0,-0.001,0.0,0.0,0.0,0.0,0.0764873574468085,0.2997601914893616,-1.5430840425531915,-0.2913537127659574,-0.0396908904255319,0.9455620638297872,0.0083365352659574,-1.6066858468085106,0.090470959574468,47.60062722,,0.006,-0.0747553191489361,1289.97,1295.89,-122.8251012,101.01317432702128,0.0,0.0,81.4,25.6,29.2,0.887,100,True
,89,8900.0,2025-10-02 20:51:35.571000+00:00,2025-10-02 13:51:35.571,00:00:13.4,75095571,0.0,0.0,0.0,0.0,0.0,0.0,0.0,0.0,0.0,0.0,1.0,0.0,0.0,0.0,0.0,-0.001,0.0,0.0,0.0,0.0,0.0762946,0.298668,-1.54322,-0.291998,-0.0580422,0.945198,-0.000905395,-0.0216752,-0.0310966,47.60062722,,0.006,-0.074,1289.97,1295.89,-122.8251012,101.01633212,0.0,0.0,81.4,25.56881720430108,29.2,0.887,100,True
,90,9000.0,2025-10-02 20:51:35.671000+00:00,2025-10-02 13:51:35.671,00:00:13.5,75095671,0.0,0.0,0.0,0.0,0.0,0.0,0.0,0.0,0.0,0.0,1.0,0.0,0.0,0.0,0.0,-0.001,0.0,0.0,0.0,0.0,0.0762276769230769,0.3001093846153846,-1.5432707692307692,-0.2935298461538461,-0.0461381538461538,0.9465923076923076,-0.2724961357692307,1.527596430769231,-0.1852917076923077,47.60062722,,0.0064615384615384,-0.0744615384615384,1289.97,1295.89,-122.8251012,101.01633212,0.0,0.0,81.4,25.54615384615385,29.2,0.887,100,True
,91,9100.0,2025-10-02 20:51:35.771000+00:00,2025-10-02 13:51:35.771,00:00:13.6,75095771,0.0,0.0,0.0,0.0,0.0,0.0,0.0,0.0,0.0,0.0,1.0,0.0,0.0,0.0,0.0,-0.001,0.0,0.0,0.0,0.0,0.0765008152173913,0.3016970652173913,-1.543336304347826,-0.3003875869565217,-0.0416189913043478,0.9475589347826088,-1.3081661739130437,-0.1963382608695654,-0.443184652173913,47.60062722,,0.0063695652173913,-0.075,1289.97,1295.89,-122.8251012,101.01633212,0.0,0.0,81.4,25.6,29.2,0.887,100,True
,92,9200.0,2025-10-02 20:51:35.871000+00:00,2025-10-02 13:51:35.871,00:00:13.7,75095871,0.0,0.0,0.0,0.0,0.0,0.0,0.0,0.0,0.0,0.0,1.0,0.0,0.0,0.0,0.0,-0.001,0.0,0.0,0.0,0.0,0.0768921,0.2988686666666666,-1.5434333333333332,-0.2915386666666666,-0.1186557,0.94545,-0.8601240000000001,-0.3501906666666667,-0.2100144666666666,47.60062722,,0.006,-0.075,1289.97,1295.89,-122.8251012,101.01633212,0.0,0.0,81.4,25.6,29.2,0.887,100,True
,93,9300.0,2025-10-02 20:51:35.971000+00:00,2025-10-02 13:51:35.971,00:00:13.8,75095971,0.0,0.0,0.0,0.0,0.0,0.0,0.0,0.0,0.0,0.0,1.0,0.0,0.0,0.0,0.0,-0.001,0.0,0.0,0.0,0.0,0.0767025625,0.2977106375,-1.54373125,-0.2857779124999999,-0.10689510125,0.9456501125,-0.0493936587499999,0.3175182125,0.19368004875,47.60062722,,0.0068375,-0.075,1289.97,1295.89,-122.8251012,101.01633212,0.0,0.0,81.4,25.6,29.2,0.887,100,True
,94,9400.0,2025-10-02 20:51:36.071000+00:00,2025-10-02 13:51:36.071,00:00:13.9,75096071,0.0,0.0,0.0,0.0,0.0,0.0,0.0,0.0,0.0,0.0,1.0,0.0,0.0,0.0,0.0,-0.001,0.0,0.0,0.0,0.0,0.0759408054945054,0.2978678131868132,-1.5442293406593406,-0.2903070989010989,-0.079595134065934,0.9467833626373626,0.4235680945054945,0.3277247802197802,0.209174923076923,47.60062722,,0.006043956043956,-0.073087912087912,1289.97,1295.89,-122.8251012,101.01633212,0.0,0.0,81.4956043956044,25.6,29.2,0.887,100,True
,95,9500.0,2025-10-02 20:51:36.171000+00:00,2025-10-02 13:51:36.171,00:00:14.0,75096171,0.0,0.0,0.0,0.0,0.0,0.0,0.0,0.0,0.0,0.0,1.0,0.0,0.0,0.0,0.0,-0.001,0.0,0.0,0.0,0.0,0.0748751848484848,0.2977498484848485,-1.5446766666666665,-0.2923670909090909,-0.0717715151515151,0.947091696969697,0.509577909090909,-0.415903,0.2092395757575757,47.60062722,,0.006,-0.0739696969696969,1289.97,1295.89,-122.8251012,101.01633212,0.0,0.0,81.4030303030303,25.6,29.2,0.887,100,True
,96,9600.0,2025-10-02 20:51:36.271000+00:00,2025-10-02 13:51:36.271,00:00:14.1,75096271,0.0,0.0,0.0,0.0,0.0,0.0,0.0,0.0,0.0,0.0,1.0,0.0,0.0,0.0,0.0,-0.001,0.0,0.0,0.0,0.0,0.074516525,0.2969056704545454,-1.5449518181818185,-0.2865348181818182,-0.0736985761363636,0.947103625,-0.0290980525568181,0.0613917272727272,0.001670284090909,47.60062722,,0.006,-0.0738522727272727,1289.97,1295.89,-122.8251012,101.01633212,0.0,0.0,81.4,25.514772727272728,29.2,0.887,100,True
,97,9700.0,2025-10-02 20:51:36.371000+00:00,2025-10-02 13:51:36.371,00:00:14.2,75096371,0.0,0.0,0.0,0.0,0.0,0.0,0.0,0.0,0.0,0.0,1.0,0.0,0.0,0.0,0.0,-0.001,0.0,0.0,0.0,0.0,0.0748354170454545,0.2976264090909091,-1.5450597727272728,-0.2921055568181818,-0.0785659909090909,0.9481331704545456,-0.1538655568181818,0.5006151931818181,0.1678321590909091,47.60062722,,0.006,-0.0732840909090909,1289.97,1295.89,-122.8251012,101.01633212,0.0,0.0,81.4,25.6,29.2,0.887,100,True
,98,9800.0,2025-10-02 20:51:36.471000+00:00,2025-10-02 13:51:36.471,00:00:14.3,75096471,0.0,0.0,0.0,0.0,0.0,0.0,0.0,0.0,0.0,0.0,1.0,0.0,0.0,0.0,0.0,-0.001,0.0,0.0,0.0,0.0,0.0750204811111111,0.2983898888888889,-1.5451805555555556,-0.2918776999999999,-0.0722184866666666,0.9487052777777778,-0.2067702377777777,0.6295449111111111,0.0630661733333333,47.60062722,,0.006,-0.074,1289.97,1295.89,-122.8251012,100.999640791,0.0,0.0,81.4,25.6,29.2,0.887,100,True
,99,9900.0,2025-10-02 20:51:36.571000+00:00,2025-10-02 13:51:36.571,00:00:14.4,75096571,0.0,0.0,0.0,0.0,0.0,0.0,0.0,0.0,0.0,0.0,1.0,0.0,0.0,0.0,0.0,-0.001,0.0,0.0,0.0,0.0,0.0755075736263736,0.3004351648351648,-1.545111868131868,-0.2925723846153846,-0.0755226703296703,0.9498636593406592,-0.1937259417582417,1.8633581978021976,0.0754117604395604,47.60062722,,0.0065164835164835,-0.0734835164835164,1289.97,1295.89,-122.8251012,100.97573159,0.0,0.0,81.4,25.6,29.2,0.887,100,True
,100,10000.0,2025-10-02 20:51:36.671000+00:00,2025-10-02 13:51:36.671,00:00:14.5,75096671,0.0,0.0,0.0,0.0,0.0,0.0,0.0,0.0,0.0,0.0,1.0,0.0,0.0,0.0,0.0,-0.001,0.0,0.0,0.0,0.0,0.0759180421052631,0.3033503157894737,-1.544961052631579,-0.2976957368421052,-0.0767211684210526,0.9510594210526316,0.201340994736842,2.475288421052632,0.2251856315789474,47.60062722,,0.006578947368421,-0.0734210526315789,1289.97,1295.89,-122.8251012,100.97573159,0.0,0.0,81.4421052631579,25.6,29.2,0.887,100,True
,101,10100.0,2025-10-02 20:51:36.771000+00:00,2025-10-02 13:51:36.771,00:00:14.6,75096771,0.0,0.0,0.0,0.0,0.0,0.0,0.0,0.0,0.0,0.0,1.0,0.0,0.0,0.0,0.0,-0.001,0.0,0.0,0.0,0.0,0.0759379451612903,0.305939623655914,-1.54493688172043,-0.3001852795698925,-0.075034111827957,0.951019,0.2741732473118279,1.5455095913978494,0.2634679838709677,47.60062722,,0.006,-0.074,1289.97,1295.89,-122.8251012,100.97573159,0.0,0.0,81.47526881720431,25.6,29.2,0.887,100,True
,102,10200.0,2025-10-02 20:51:36.871000+00:00,2025-10-02 13:51:36.871,00:00:14.7,75096871,0.0,0.0,0.0,0.0,0.0,0.0,0.0,0.0,0.0,0.0,1.0,0.0,0.0,0.0,0.0,-0.001,0.0,0.0,0.0,0.0,0.0757235696629213,0.3059929775280899,-1.5452077528089887,-0.2961605955056179,-0.0645558224719101,0.9474304606741571,-0.2951589213483146,-0.9610748764044944,0.0982951966292134,47.60062722,,0.006,-0.0743370786516853,1289.97,1295.89,-122.8251012,100.97573159,0.0,0.0,81.4,25.6,29.2,0.887,100,True
,103,10300.0,2025-10-02 20:51:36.971000+00:00,2025-10-02 13:51:36.971,00:00:14.8,75096971,0.0,0.0,0.0,0.0,0.0,0.0,0.0,0.0,0.0,0.0,1.0,0.0,0.0,0.0,0.0,-0.001,0.0,0.0,0.0,0.0,0.0759741966292134,0.3037994831460674,-1.5454506741573033,-0.294908606741573,-0.0651403595505618,0.9445209662921348,0.0216683033707865,-1.292113584269663,0.1852162808988764,47.60062722,,0.006,-0.0745393258426966,1289.97,1295.89,-122.8251012,100.97573159,0.0,0.0,81.44606741573034,25.6,29.2,0.887,100,True
,104,10400.0,2025-10-02 20:51:37.071000+00:00,2025-10-02 13:51:37.071,00:00:14.9,75097071,0.0,0.0,0.0,0.0,0.0,0.0,0.0,0.0,0.0,0.0,1.0,0.0,0.0,0.0,0.0,-0.001,0.0,0.0,0.0,0.0,0.0758089736842105,0.3028856210526315,-1.5456796842105265,-0.2959565263157894,-0.0594477978947368,0.9437395578947368,0.1613798631578947,-0.8884758631578947,0.0907666816842105,47.60062722,,0.006,-0.074,1289.97,1295.89,-122.8251012,100.97573159,0.0,0.0,81.5,25.6,29.2,0.887,100,True
,105,10500.0,2025-10-02 20:51:37.171000+00:00,2025-10-02 13:51:37.171,00:00:15.0,75097171,0.0,0.0,0.0,0.0,0.0,0.0,0.0,0.0,0.0,0.0,1.0,0.0,0.0,0.0,0.0,-0.001,0.0,0.0,0.0,0.0,0.0758098178571428,0.3006200714285714,-1.545942142857143,-0.29519425,-0.0692937964285714,0.9426376428571428,-0.2208952678571428,-1.7298678571428572,-0.0896819492857142,47.60062722,,0.0066785714285714,-0.0753571428571428,1289.97,1295.89,-122.8251012,100.97573159,0.0,0.0,81.43214285714286,25.6,29.2,0.887,100,True
,106,10600.0,2025-10-02 20:51:37.271000+00:00,2025-10-02 13:51:37.271,00:00:15.1,75097271,0.0,0.0,0.0,0.0,0.0,0.0,0.0,0.0,0.0,0.0,1.0,0.0,0.0,0.0,0.0,-0.001,0.0,0.0,0.0,0.0,0.0765960234042553,0.2955092127659574,-1.5460698936170212,-0.2903812234042553,-0.0618302436170212,0.940420170212766,-1.323847340425532,-4.783914468085106,-0.6617090531914893,47.60062722,,0.0062234042553191,-0.0783297872340425,1289.97,1295.89,-122.8251012,100.97573159,0.0,0.0,81.47765957446809,25.6,29.2,0.887,100,True
,107,10700.0,2025-10-02 20:51:37.371000+00:00,2025-10-02 13:51:37.371,00:00:15.2,75097371,0.0,0.0,0.0,0.0,0.0,0.0,0.0,0.0,0.0,0.0,1.0,0.0,0.0,0.0,0.0,-0.001,0.0,0.0,0.0,0.0,0.0796414421052631,0.2849836736842105,-1.545017263157895,-0.2817304842105263,-0.0725496989473684,0.9363036315789474,-1.7366403157894736,-9.646193684210528,-0.7641170210526316,47.60062722,,0.006,-0.0848210526315789,1289.97,1295.89,-122.8251012,100.97573159,0.0,0.0,81.5,25.51684210526316,29.2,0.887,100,True
,108,10800.0,2025-10-02 20:51:37.471000+00:00,2025-10-02 13:51:37.471,00:00:15.3,75097471,0.0,0.0,0.0,0.0,0.0,0.0,0.0,0.0,0.0,0.0,1.0,0.0,0.0,0.0,0.0,0.0009587628865979,0.0,0.0,0.0,0.0,0.0844160927835051,0.2610947422680412,-1.543866701030928,-0.3296101855670103,-0.1427779484536082,0.9277704639175258,-1.729474536082474,-20.30615051546392,-0.386144243298969,47.60062722,,0.0020721649484536,-0.036041237113402,1289.97,1295.89,-122.8251012,100.9742012357732,0.0,0.0,81.5,25.6,29.2,0.887,100,True
,109,10900.0,2025-10-02 20:51:37.571000+00:00,2025-10-02 13:51:37.571,00:00:15.4,75097571,0.0,0.0,0.0,0.0,0.0,0.0,0.0,0.0,0.0,0.0,1.0,0.0,0.0,0.0,0.0,-0.0013488372093023,0.0,-0.0005813953488372,0.0,0.0011627906976744,0.0899066046511627,0.2016082906976744,-1.5482076744186046,-0.179773476744186,-0.1082886976744186,0.9118045930232558,-6.777228953488372,-60.51251511627907,0.1750447406976743,47.60062722,,-0.0373488372093023,0.0333953488372093,1289.97,1295.89,-122.8251012,100.90150941,0.0,0.0,81.5,25.6,29.2,0.887,100,True
,110,11000.0,2025-10-02 20:51:37.671000+00:00,2025-10-02 13:51:37.671,00:00:15.5,75097671,0.95,0.0,0.0,,,,,,,0.0,0.0,,,-0.0217752808988764,14.730337078651685,0.0184044943820224,0.5230337078651686,8.561348314606741,0.0362921348314606,8.704494382022471,0.0819387775280899,0.0633081831460674,-1.5608335955056178,0.0467650674157303,-0.1084295393258426,0.8962179325842696,15.755116853932584,-77.24041460674157,-1.0313887640449444,47.60062722,,0.011314606741573,0.2414943820224719,1289.9678651685394,1295.892134831461,-122.8251012,100.90150941,0.0,0.0,81.2438202247191,25.57865168539326,29.2,0.887,100,True
,111,11100.0,2025-10-02 20:51:37.771000+00:00,2025-10-02 13:51:37.771,00:00:15.6,75097771,0.95,0.0,0.0,,,,,,,0.0,0.0,,,-0.0319999999999999,213.34782608695653,0.1163478260869565,3.208695652173913,43.76173913043478,0.1330434782608695,44.184782608695656,0.0483722130434782,-0.0470612347826086,-1.5617882608695652,-0.3660320869565218,0.0969983695652174,0.8977144347826087,14.059165217391303,-56.944708695652174,-12.610104347826088,47.60062722,,-0.2200434782608695,3.043086956521739,1289.9665217391305,1295.9043478260871,-122.8251012,100.90150941,0.0,0.0,80.27826086956522,25.5,29.2,0.8865652173913043,100,True
,112,11200.0,2025-10-02 20:51:37.871000+00:00,2025-10-02 13:51:37.871,00:00:15.7,75097871,0.95,0.0,0.0,,,,,,,0.0,0.0,0.95,0.0,0.2013333333333333,694.5072463768116,0.1308405797101449,5.7376811594202906,55.83420289855072,0.0098550724637681,55.80072463768116,0.0428102565217391,-0.0876243507246376,-1.5487157971014494,-0.2655023768115942,-0.0761037318840579,0.909015884057971,-13.005617391304352,-36.17007101449276,-4.999452173913044,47.60062722,,-0.6635217391304348,5.13004347826087,1289.9882608695652,1295.91884057971,-122.8251012,100.90150941,0.0,0.0,80.20579710144928,25.5,29.2,0.8851159420289855,100,True
,113,11300.0,2025-10-02 20:51:37.971000+00:00,2025-10-02 13:51:37.971,00:00:15.8,75097971,0.95,0.0,0.0,,,,,,,0.0,0.0,0.95,0.0,0.796,980.9230769230768,0.1527692307692307,5.593846153846154,47.9,0.1123076923076923,47.89769230769231,0.079695923076923,-0.109914923076923,-1.5481053846153847,-0.0012558169230769,-0.1688276153846153,0.9570215384615384,1.7142538461538464,-9.906433076923078,-0.8966553846153844,47.60062722,,-0.7516153846153846,6.012846153846154,1290.106923076923,1296.046153846154,-122.8251012,100.90150941,0.0,0.0,79.99230769230769,25.5,29.2,0.8807692307692307,100,True
,114,11400.0,2025-10-02 20:51:38.071000+00:00,2025-10-02 13:51:38.071,00:00:15.9,75098071,0.95,0.0,0.0,,,,,,,0.0,0.0,0.95,0.0,1.0122105263157894,1192.2947368421053,0.1652,6.282105263157895,48.449052631578944,0.0301052631578947,48.40894736842105,0.0771921326315789,-0.1185904631578947,-1.5604255789473684,-0.0510278536842105,-0.10108236,0.981194105263158,5.539537473684211,-9.319281368421052,12.099072842105263,47.60062722,,-0.9092736842105263,6.726536842105263,1290.2085263157894,1296.1402105263155,-122.8251012,100.90150941,0.0,0.0,79.9,25.5,29.2,0.8774947368421052,100,True
,115,11500.0,2025-10-02 20:51:38.171000+00:00,2025-10-02 13:51:38.171,00:00:16.0,75098171,0.95,0.0,0.0,,,,,,,0.0,0.0,0.95,0.0,1.2260538461538462,1438.3,0.1847153846153846,6.6370000000000005,46.714,0.0783846153846153,46.64338461538461,0.0741964969230769,-0.1283676846153846,-1.5702849230769231,0.1114192776923077,-0.0177105915384615,0.997140053846154,0.0755525384615385,-7.030089692307692,2.076695153846154,47.60062722,,-1.1478846153846154,7.405392307692307,1290.3226153846151,1296.2626153846154,-122.8251012,100.90150941,0.0,0.0,79.85153846153847,25.516153846153845,29.2,0.8745153846153846,100,True
,116,11600.0,2025-10-02 20:51:38.271000+00:00,2025-10-02 13:51:38.271,00:00:16.1,75098271,0.95,0.0,0.0,,,,,,,0.0,0.0,0.95,0.0,1.392976923076923,1568.3,0.2024076923076923,7.337000000000001,48.114,0.0706923076923077,48.13569230769231,0.0721969584615384,-0.1294899923076923,-1.5745464615384617,0.0459301238461538,0.0294256392307692,1.008506976923077,6.655421769230769,-7.833135846153846,2.534672076923077,47.60062722,,-1.2901923076923076,7.921546153846154,1290.4303076923077,1296.3703076923075,-122.8251012,100.90150941,0.0,0.0,79.62076923076923,25.593076923076925,29.2,0.8722076923076924,100,True
ride_50,117,11700.0,2025-10-02 20:51:38.371000+00:00,2025-10-02 13:51:38.371,00:00:16.2,75098371,0.95,0.0,0.0,,,,,,,0.0,0.0,0.95,0.0,1.678,1882.0,0.236,9.8,55.55,0.12,55.57,0.0821358,-0.137712,-1.59451,-0.16586,-0.0409042,1.02088,-2.81585,-6.99721,2.39545,47.60062722,0.0,-2.139,9.184,1290.67,1296.6,-122.8251012,100.90150941,0.0,0.0,78.8,25.6,29.2,0.866,100,True
,118,11800.0,2025-10-02 20:51:38.471000+00:00,2025-10-02 13:51:38.471,00:00:16.3,75098471,0.95,0.0,0.0,,,,,,,0.0,0.0,0.95,0.0,1.883674698795181,2110.3132530120483,0.245289156626506,11.331204819277108,58.35903614457831,0.1248192771084337,58.31686746987952,0.0701676361445783,-0.1437642289156626,-1.59470156626506,-0.0621919807228915,-0.2261232168674699,1.02575421686747,17.256243373493977,-3.808413132530121,-0.6699443373493976,47.60062722722891,,-3.077710843373494,10.149445783132531,1290.8537349397589,1296.7851807228917,-122.82510264433736,100.89121673313254,0.099061669879518,0.0,78.72168674698796,25.6,29.2,0.8606385542168674,100,True
,119,11900.0,2025-10-02 20:51:38.571000+00:00,2025-10-02 13:51:38.571,00:00:16.4,75098571,0.95,0.0,0.0,,,,,,,0.0,0.0,0.95,0.0,2.113884210526316,2324.5052631578947,0.2533578947368421,10.600947368421052,52.68336842105263,-0.0433684210526315,52.64,0.0416753578947368,-0.1396447157894736,-1.6036146315789477,0.0379984421052631,-0.1445380736842105,1.0312224210526315,9.348825263157895,0.7920656842105269,9.99699347368421,47.60062732,,-3.050768421052632,10.536052631578947,1291.0784210526317,1297.0405263157895,-122.82512118,100.75912738,1.3703531,0.0,78.92736842105263,25.6,29.2,0.8550315789473684,100,True
,120,12000.0,2025-10-02 20:51:38.671000+00:00,2025-10-02 13:51:38.671,00:00:16.5,75098671,0.95,0.0,0.0,,,,,,,0.0,0.0,0.95,0.0,2.276733333333333,2497.4666666666667,0.2934444444444444,11.789111111111112,53.89022222222222,0.208,53.970666666666666,0.0341991333333333,-0.132098,-1.62757,0.0764278222222222,-0.0118318,1.0314655555555556,3.970773333333333,0.0936800000000008,10.78009911111111,47.60062732,,-3.389711111111111,11.12668888888889,1291.2984444444444,1297.2953333333337,-122.82512118,100.75912738,1.3703531,0.0,77.95333333333333,25.63111111111111,29.2,0.8504444444444444,100,True
,121,12100.0,2025-10-02 20:51:38.771000+00:00,2025-10-02 13:51:38.771,00:00:16.6,75098771,0.95,0.0,0.0,,,,,,,0.0,0.0,0.95,0.0,2.492736263736264,2801.3736263736264,0.3382197802197802,15.918351648351647,64.7976923076923,0.1791208791208791,64.79230769230769,0.0195253406593406,-0.1435407582417582,-1.6359025274725276,0.1144952087912088,-0.0010924065934065,1.0238310989010988,11.232376043956044,-14.957543076923075,3.980357802197802,47.60062732,,-4.529329670329671,12.660571428571428,1291.5502197802198,1297.5443956043955,-122.82512118,100.75912738,1.3703531,0.0,77.13516483516483,25.7,29.2,0.8432417582417582,100,True
,122,12200.0,2025-10-02 20:51:38.871000+00:00,2025-10-02 13:51:38.871,00:00:16.7,75098871,0.95,0.0,0.0,,,,,,,0.0,0.0,0.95,0.0,2.76058273381295,3043.820143884892,0.316294964028777,13.66546762589928,54.62856115107914,-0.2481294964028776,54.46985611510792,0.0291433769784172,-0.1493653525179856,-1.6421908633093525,0.3450440877697842,-0.2140072661870503,1.0218876258992806,-11.8985145323741,4.577785035971223,9.747730647482015,47.60062732,,-4.2183021582733815,13.003719424460431,1291.7812949640288,1297.777913669065,-122.82512118,100.75912738,1.3703531,0.0,78.19856115107913,25.7,29.2,0.8363093525179855,100,True
,123,12300.0,2025-10-02 20:51:38.971000+00:00,2025-10-02 13:51:38.971,00:00:16.8,75098971,0.95,0.0,0.0,,,,,,,0.0,0.0,0.95,0.0,2.9164252873563217,3180.7241379310344,0.3133908045977011,14.420919540229884,56.06770114942529,0.0127586206896551,56.08310344827586,0.063491616091954,-0.1437653793103448,-1.6674672413793103,-0.0688978,0.258379232183908,1.022731264367816,-33.02942758620689,-4.287415172413793,14.479498850574714,47.60062732,,-4.45816091954023,13.43196551724138,1292.0114942528735,1298.0024137931034,-122.82512118,100.75912738,1.3703531,0.0,77.99080459770116,25.70919540229885,29.2,0.8318045977011493,100,True
,124,12400.0,2025-10-02 20:51:39.071000+00:00,2025-10-02 13:51:39.071,00:00:16.9,75099071,0.95,0.0,0.0,,,,,,,0.0,0.0,0.95,0.0,3.207,3458.012048192771,0.3400361445783132,14.392048192771083,53.396987951807226,0.0349397590361445,53.36698795180723,0.0670245963855421,-0.1334419036144578,-1.6455556626506025,0.0751696277108433,-0.0826161301204819,1.0198755421686747,25.84649156626506,5.762059879518073,-20.015135542168675,47.60062732,,-4.617734939759036,14.105036144578314,1292.52,1298.52,-122.82512118,100.75912738,1.3703531,0.0,77.9,25.8,29.2,0.82,100,True
,125,12500.0,2025-10-02 20:51:39.171000+00:00,2025-10-02 13:51:39.171,00:00:17.0,75099171,0.95,0.0,0.0,,,,,,,0.0,0.0,0.95,0.0,3.2767319587628863,3664.525773195877,0.3529175257731958,14.264329896907215,50.642164948453605,0.0278350515463917,50.61608247422681,0.0362915,-0.1288855876288659,-1.6299296907216494,-0.0197203845360824,-0.0276381340206185,1.015669175257732,4.06221855670103,-1.9938048453608248,1.4734561855670103,47.60062732,,-4.729670103092784,14.76777319587629,1292.6453608247425,1298.661030927835,-122.82512118,100.75912738,1.3703531,0.0,77.86082474226805,25.83917525773196,29.2,0.8176494845360824,100,True
