ride_id,sample_idx,_elapsed_ms,ts_utc,ts_pst,video_ts_anchor,ms_today,cf_accel,cf_brake,cf_cruise,cf_turn_left,cf_turn_right,cf_carve_left,cf_carve_right,cf_ascent,cf_descent,cf_traction_loss,cf_idle,cf_forward,cf_reverse,speed_meters_per_sec,erpm,duty_cycle,current_in,current_motor,d_axis_current,q_axis_current,roll,pitch,yaw,accX,accY,accZ,gyroX,gyroY,gyroZ,gnss_lat,fault_code,d_axis_voltage,q_axis_voltage,tacho_meters,tacho_abs_meters,gnss_lon,gnss_alt,gnss_gVel,gnss_vVel,input_voltage,temp_mos_max,temp_motor,battery_level,dt_ms,_on_grid
ride_52,0,0.0,2025-10-02 20:57:14.046000+00:00,2025-10-02 13:57:14.046,00:00:04.5,75434046,0.0,0.0,0.0,0.0,0.0,0.0,0.0,0.0,0.0,0.0,1.0,0.0,0.0,0.0,0.0,-0.001,2.46,5.29,-0.04,4.69,0.00839602,0.35358,0.504032,-0.345474,-0.0629575,0.933222,-5.29324,0.869297,-1.89487,47.59773366,0.0,-1.365,11.369,2453.29,2465.62,-122.82562121,100.24368152,0.0,0.0,80.9,27.0,32.0,0.852,100,True
,1,100.0,2025-10-02 20:57:14.146000+00:00,2025-10-02 13:57:14.146,00:00:04.6,75434146,0.0,0.0,0.0,0.0,0.0,0.0,0.0,0.0,0.0,0.0,1.0,0.0,0.0,0.0,0.0,-0.001,0.0,0.0,0.0,0.0,0.0539836023529411,0.3211642117647059,-3.0904281176470585,-0.3143336,-0.0559800082352941,0.9421382705882352,-0.082567934117647,-0.0637040376470588,0.0467710211764705,47.59773366,,0.006,-0.074,2453.29,2465.62,-122.82562121,100.24368152,0.0,0.0,80.9,27.0,32.0,0.852,100,True
,2,200.0,2025-10-02 20:57:14.246000+00:00,2025-10-02 13:57:14.246,00:00:04.7,75434246,0.0,0.0,0.0,0.0,0.0,0.0,0.0,0.0,0.0,0.0,1.0,0.0,0.0,0.0,0.0,-0.001,0.0,0.0,0.0,0.0,0.054359640860215,0.3211861505376344,-3.0905667741935483,-0.3113017634408602,-0.0600788161290322,0.9422298172043012,-0.2429739354838709,0.0996851440860215,0.0591724215053763,47.59773366,,0.0057204301075268,-0.074,2453.29,2465.62,-122.82562121,100.24368152,0.0,0.0,80.9,27.0,32.0,0.8522795698924731,100,True
,3,300.0,2025-10-02 20:57:14.346000+00:00,2025-10-02 13:57:14.346,00:00:04.8,75434346,0.0,0.0,0.0,0.0,0.0,0.0,0.0,0.0,0.0,0.0,1.0,0.0,0.0,0.0,0.0,-0.001,0.0,0.0,0.0,0.0,0.054852744680851,0.3211493936170213,-3.090638085106383,-0.3111662978723404,-0.0528805904255319,0.942220659574468,-0.2412308510638297,0.0497610319148936,0.1088707765957446,47.59773366,,0.0053510638297872,-0.0743510638297872,2453.29,2465.62,-122.82562121,100.24368152,0.0,0.0,80.9,27.0,32.0,0.853,100,True
,4,400.0,2025-10-02 20:57:14.446000+00:00,2025-10-02 13:57:14.446,00:00:04.9,75434446,0.0,0.0,0.0,0.0,0.0,0.0,0.0,0.0,0.0,0.0,1.0,0.0,0.0,0.0,0.0,-0.001,0.0,0.0,0.0,0.0,0.0552325763779527,0.3211560393700787,-3.0907483464566927,-0.3149668976377952,-0.0520531291338582,0.9422315118110236,-0.1221615590551181,0.0284300023622047,0.1251077462204724,47.59773366,,0.006,-0.0746929133858267,2453.29,2465.62,-122.82562121,100.2270066431496,0.0,0.0,80.9,27.0,32.0,0.853,100,True
,5,500.0,2025-10-02 20:57:14.546000+00:00,2025-10-02 13:57:14.546,00:00:05.0,75434546,0.0,0.0,0.0,0.0,0.0,0.0,0.0,0.0,0.0,0.0,1.0,0.0,0.0,0.0,0.0,-0.001,0.0,0.0,0.0,0.0,0.055340714893617,0.3210942765957447,-3.090896595744681,-0.3154397021276595,-0.0565015319148936,0.942157659574468,-0.2329811106382979,-0.0211913510638297,0.016173119787234,47.59773366,,0.0058723404255319,-0.074127659574468,2453.29,2465.62,-122.82562121,100.18938128,0.0,0.0,80.9,27.0,32.0,0.853,100,True
,6,600.0,2025-10-02 20:57:14.646000+00:00,2025-10-02 13:57:14.646,00:00:05.1,75434646,0.0,0.0,0.0,0.0,0.0,0.0,0.0,0.0,0.0,0.0,1.0,0.0,0.0,0.0,0.0,-0.001,0.0,0.0,0.0,0.0,0.05544735,0.3209737391304347,-3.0911097826086955,-0.3139229782608695,-0.0553113152173913,0.9420387608695652,0.0747340043478261,-0.0057499869565217,0.1866703478260869,47.59773366,,0.005195652173913,-0.0748043478260869,2453.29,2465.62,-122.82562121,100.18938128,0.0,0.0,80.9,27.0,32.0,0.853,100,True
,7,700.0,2025-10-02 20:57:14.746000+00:00,2025-10-02 13:57:14.746,00:00:05.2,75434746,0.0,0.0,0.0,0.0,0.0,0.0,0.0,0.0,0.0,0.0,1.0,0.0,0.0,0.0,0.0,-0.001,0.0,0.0,0.0,0.0,0.0550844782608695,0.3209598695652174,-3.091582173913044,-0.3147445217391304,-0.0507845239130434,0.9420347173913044,0.0183790497826086,0.0703522695652174,0.1877808978260869,47.59773366,,0.0057173913043478,-0.074,2453.29,2465.62,-122.82562121,100.18938128,0.0,0.0,80.9,27.0,32.0,0.853,100,True
,8,800.0,2025-10-02 20:57:14.846000+00:00,2025-10-02 13:57:14.846,00:00:05.3,75434846,0.0,0.0,0.0,0.0,0.0,0.0,0.0,0.0,0.0,0.0,1.0,0.0,0.0,0.0,0.0,-0.001,0.0,0.0,0.0,0.0,0.0550266078651685,0.3209040449438202,-3.091854606741573,-0.3141089887640449,-0.0544312820224719,0.9420381123595506,0.0075495556179775,0.0658233303370786,0.0643841629213483,47.59773366,,0.005,-0.074,2453.29,2465.62,-122.82562121,100.18938128,0.0,0.0,80.9,27.0,32.0,0.853,100,True
,9,900.0,2025-10-02 20:57:14.946000+00:00,2025-10-02 13:57:14.946,00:00:05.4,75434946,0.0,0.0,0.0,0.0,0.0,0.0,0.0,0.0,0.0,0.0,1.0,0.0,0.0,0.0,0.0,-0.001,0.0,0.0,0.0,0.0,0.0546822392857142,0.3206525,-3.0922489285714283,-0.3138241071428571,-0.0516234178571428,0.9418549642857144,0.2859356285714286,-0.2064434892857143,0.2367567857142857,47.59773366,,0.0055357142857142,-0.0745357142857142,2453.29,2465.62,-122.82562121,100.18938128,0.0,0.0,80.9,27.0,32.0,0.853,100,True
,10,1000.0,2025-10-02 20:57:15.046000+00:00,2025-10-02 13:57:15.046,00:00:05.5,75435046,0.0,0.0,0.0,0.0,0.0,0.0,0.0,0.0,0.0,0.0,1.0,0.0,0.0,0.0,0.0,-0.001,0.0,0.0,0.0,0.0,0.0539066544444444,0.3203089666666666,-3.092735,-0.3107380888888889,-0.0497218644444444,0.9416427,0.3738446333333333,-0.2737693,0.2649811444444444,47.59773366,,0.006,-0.0743222222222222,2453.29,2465.62,-122.82562121,100.18938128,0.0,0.0,80.9,27.0,32.0,0.853,100,True
,11,1100.0,2025-10-02 20:57:15.146000+00:00,2025-10-02 13:57:15.146,00:00:05.6,75435146,0.0,0.0,0.0,0.0,0.0,0.0,0.0,0.0,0.0,0.0,1.0,0.0,0.0,0.0,0.0,-0.001,0.0,0.0,0.0,0.0,0.0534474187499999,0.3201365312499999,-3.0931166666666665,-0.3095989062499999,-0.049194271875,0.9416632708333332,0.08715410625,-0.0228578802083333,0.1383348854166666,47.59773366,,0.0052604166666666,-0.074,2453.29,2465.62,-122.82562121,100.18938128,0.0,0.0,80.9,27.0,32.0,0.853,100,True
,12,1200.0,2025-10-02 20:57:15.246000+00:00,2025-10-02 13:57:15.246,00:00:05.7,75435246,0.0,0.0,0.0,0.0,0.0,0.0,0.0,0.0,0.0,0.0,1.0,0.0,0.0,0.0,0.0,-0.001,0.0,0.0,0.0,0.0,0.0531071285714285,0.3201571785714285,-3.093467857142857,-0.3159066071428572,-0.0483045285714285,0.9418386428571428,0.0735910928571428,0.0496925178571428,0.1021823928571428,47.59773366,,0.0058928571428571,-0.074,2453.29,2465.62,-122.82562121,100.18938128,0.0,0.0,80.9,27.0,32.0,0.853,100,True
,13,1300.0,2025-10-02 20:57:15.346000+00:00,2025-10-02 13:57:15.346,00:00:05.8,75435346,0.0,0.0,0.0,0.0,0.0,0.0,0.0,0.0,0.0,0.0,1.0,0.0,0.0,0.0,0.0,-0.001,0.0,0.0,0.0,0.0,0.0532349817204301,0.3201942903225807,-3.093646774193548,-0.3099875376344085,-0.0538367193548387,0.9420311505376344,0.1612672559139785,0.1195123505376344,0.2312978924731182,47.59773366,,0.005021505376344,-0.074,2453.29,2465.62,-122.82562121,100.18938128,0.0,0.0,80.9,27.0,32.0,0.853,100,True
,14,1400.0,2025-10-02 20:57:15.446000+00:00,2025-10-02 13:57:15.446,00:00:05.9,75435446,0.0,0.0,0.0,0.0,0.0,0.0,0.0,0.0,0.0,0.0,1.0,0.0,0.0,0.0,0.0,-0.001,0.0,0.0,0.0,0.0,0.0527826011235955,0.3201837303370786,-3.094043820224719,-0.3160025842696629,-0.0517484393258426,0.9421492247191012,0.1796358876404494,-0.0827890539325842,0.2995240786516854,47.59773366,,0.0050786516853932,-0.074,2453.29,2465.62,-122.82562121,100.18938128,0.0,0.0,80.9,27.0,32.0,0.853,100,True
,15,1500.0,2025-10-02 20:57:15.546000+00:00,2025-10-02 13:57:15.546,00:00:06.0,75435546,0.0,0.0,0.0,0.0,0.0,0.0,0.0,0.0,0.0,0.0,1.0,0.0,0.0,0.0,0.0,-0.001,0.0,0.0,0.0,0.0,0.0521335131868131,0.3201150769230769,-3.0944953846153846,-0.3078517582417582,-0.0502312758241758,0.9421919450549452,0.2874909010989011,-0.0191997692307692,0.2107646043956043,47.59773366,,0.0058021978021978,-0.074,2453.29,2465.62,-122.82562121,100.19784509362638,0.0,0.0,80.9,27.0,32.0,0.853,100,True
,16,1600.0,2025-10-02 20:57:15.646000+00:00,2025-10-02 13:57:15.646,00:00:06.1,75435646,0.0,0.0,0.0,0.0,0.0,0.0,0.0,0.0,0.0,0.0,1.0,0.0,0.0,0.0,0.0,-0.001,0.0,0.0,0.0,0.0,0.0516901310344827,0.3200739655172414,-3.0948534482758623,-0.3104856551724138,-0.0545696310344827,0.9422200689655172,0.273724,-0.0193179,0.1992186896551724,47.59773366,,0.005,-0.0743103448275862,2453.29,2465.62,-122.82562121,100.23217056,0.0,0.0,80.9,27.0,32.0,0.853,100,True
,17,1700.0,2025-10-02 20:57:15.746000+00:00,2025-10-02 13:57:15.746,00:00:06.2,75435746,0.0,0.0,0.0,0.0,0.0,0.0,0.0,0.0,0.0,0.0,1.0,0.0,0.0,0.0,0.0,-0.001,0.0,0.0,0.0,0.0,0.0506024222222222,0.3202312222222222,-3.0954566666666667,-0.3110666666666666,-0.0497887222222222,0.9423828888888888,0.4430475555555556,0.0440605,0.311874,47.59773366,,0.0054444444444444,-0.0745555555555555,2453.29,2465.62,-122.82562121,100.23217056,0.0,0.0,80.9,27.0,32.0,0.853,100,True
,18,1800.0,2025-10-02 20:57:15.846000+00:00,2025-10-02 13:57:15.846,00:00:06.3,75435846,0.0,0.0,0.0,0.0,0.0,0.0,0.0,0.0,0.0,0.0,1.0,0.0,0.0,0.0,0.0,-0.001,0.0,0.0,0.0,0.0,0.0495338956521739,0.3205672608695652,-3.0960465217391304,-0.3140653260869565,-0.0506846195652173,0.9425857391304348,0.362360152173913,0.1972164347826087,0.2418516086956522,47.59773366,,0.0054565217391304,-0.0745434782608695,2453.29,2465.62,-122.82562121,100.23217056,0.0,0.0,80.9,27.0,32.0,0.853,100,True
,19,1900.0,2025-10-02 20:57:15.946000+00:00,2025-10-02 13:57:15.946,00:00:06.4,75435946,0.0,0.0,0.0,0.0,0.0,0.0,0.0,0.0,0.0,0.0,1.0,0.0,0.0,0.0,0.0,-0.001,0.0,0.0,0.0,0.0,0.04920056,0.3207687111111111,-3.096394,-0.3140731111111111,-0.0507583711111111,0.9425962666666666,-0.0508718222222221,0.1693679777777778,0.0915762755555555,47.59773366,,0.005,-0.0743555555555555,2453.29,2465.62,-122.82562121,100.23217056,0.0,0.0,80.9,27.0,32.0,0.853,100,True
,20,2000.0,2025-10-02 20:57:16.046000+00:00,2025-10-02 13:57:16.046,00:00:06.5,75436046,0.0,0.0,0.0,0.0,0.0,0.0,0.0,0.0,0.0,0.0,1.0,0.0,0.0,0.0,0.0,-0.001,0.0,0.0,0.0,0.0,0.0491739489361702,0.3211170212765957,-3.0966491489361703,-0.3157453191489361,-0.050241959574468,0.9427171489361702,-0.0526504123404255,0.2709899361702128,0.0407205829787234,47.59773366,,0.0057234042553191,-0.0747234042553191,2453.29,2465.62,-122.82562121,100.23217056,0.0,0.0,80.9,27.0,32.0,0.853,100,True
,21,2100.0,2025-10-02 20:57:16.146000+00:00,2025-10-02 13:57:16.146,00:00:06.6,75436146,0.0,0.0,0.0,0.0,0.0,0.0,0.0,0.0,0.0,0.0,1.0,0.0,0.0,0.0,0.0,-0.001,0.0,0.0,0.0,0.0,0.0493239060240963,0.3216370120481928,-3.0968615662650603,-0.3163059759036145,-0.0508931819277108,0.9428898192771084,-0.1813000497590361,0.5164067228915663,0.0494962156626506,47.59773366,,0.006,-0.0732168674698795,2453.29,2465.62,-122.82562121,100.23217056,0.0,0.0,80.9,27.0,32.0,0.853,100,True
ride_52,22,2200.0,2025-10-02 20:57:16.246000+00:00,2025-10-02 13:57:16.246,00:00:06.7,75436246,0.0,0.0,0.0,0.0,0.0,0.0,0.0,0.0,0.0,0.0,1.0,0.0,0.0,0.0,0.0,-0.001,0.0,0.0,0.0,0.0,0.0493831,0.321926,-3.0971,-0.314301,-0.0529903,0.942679,-0.279834,0.0485716,-0.00734297,47.59773366,0.0,0.006,-0.074,2453.29,2465.62,-122.82562121,100.23217056,0.0,0.0,80.9,27.0,32.0,0.853,100,True
,23,2300.0,2025-10-02 20:57:16.346000+00:00,2025-10-02 13:57:16.346,00:00:06.8,75436346,0.0,0.0,0.0,0.0,0.0,0.0,0.0,0.0,0.0,0.0,1.0,0.0,0.0,0.0,0.0,-0.001,0.0,0.0,0.0,0.0,0.0495289865248226,0.3223593333333333,-3.0971921985815603,-0.3144222765957447,-0.0502357609929078,0.9428045319148936,-0.0195401702127659,0.4470101815602836,0.1152577179432624,47.59773366,,0.006,-0.074,2453.29,2465.62,-122.82562121,100.23217056,0.0,0.0,80.9,27.0,32.0,0.853,100,True
,24,2400.0,2025-10-02 20:57:16.446000+00:00,2025-10-02 13:57:16.446,00:00:06.9,75436446,0.0,0.0,0.0,0.0,0.0,0.0,0.0,0.0,0.0,0.0,1.0,0.0,0.0,0.0,0.0,-0.001,0.0,0.0,0.0,0.0,0.0496818811764705,0.3237003411764705,-3.097417411764706,-0.3141346588235294,-0.0413163870588235,0.9431044941176472,-0.1590775788235294,0.1728208635294117,0.1428305176470588,47.59773366,,0.006,-0.074,2453.29,2465.62,-122.82562121,100.23217056,0.0,0.0,80.9,27.0,32.0,0.853,100,True
,25,2500.0,2025-10-02 20:57:16.546000+00:00,2025-10-02 13:57:16.546,00:00:07.0,75436546,0.0,0.0,0.0,0.0,0.0,0.0,0.0,0.0,0.0,0.0,1.0,0.0,0.0,0.0,0.0,-0.001,0.0,0.0,0.0,0.0,0.0502548956521739,0.3242982608695652,-3.0975321739130437,-0.3155842391304347,-0.0433810565217391,0.9426364782608696,-0.3797763695652174,0.1490076608695652,0.140942652173913,47.59773366,,0.006,-0.074,2453.29,2465.62,-122.82562121,100.2181463454348,0.0,0.0,80.9,27.0,32.0,0.8538043478260869,100,True
,26,2600.0,2025-10-02 20:57:16.646000+00:00,2025-10-02 13:57:16.646,00:00:07.1,75436646,0.0,0.0,0.0,0.0,0.0,0.0,0.0,0.0,0.0,0.0,1.0,0.0,0.0,0.0,0.0,-0.001,0.0,0.0,0.0,0.0,0.0511042092783505,0.3245252680412371,-3.0975061855670103,-0.3155258041237113,-0.053377330927835,0.942145175257732,-0.2943366701030928,0.1302358659793814,0.0742330536082474,47.59773366,,0.006,-0.074,2453.29,2465.62,-122.82562121,100.21473505,0.0,0.0,80.9,27.0,32.0,0.854,100,True
,27,2700.0,2025-10-02 20:57:16.746000+00:00,2025-10-02 13:57:16.746,00:00:07.2,75436746,0.0,0.0,0.0,0.0,0.0,0.0,0.0,0.0,0.0,0.0,1.0,0.0,0.0,0.0,0.0,-0.001,0.0,0.0,0.0,0.0,0.0521309697674418,0.3248832325581395,-3.0974308139534883,-0.3135809186046511,-0.0534664860465116,0.9418289651162792,-0.6932908255813954,0.3264951976744186,0.0269053848837209,47.59773366,,0.006,-0.074,2453.29,2465.62,-122.82562121,100.21473505,0.0,0.0,80.9,27.0,32.0,0.854,100,True
,28,2800.0,2025-10-02 20:57:16.846000+00:00,2025-10-02 13:57:16.846,00:00:07.3,75436846,0.0,0.0,0.0,0.0,0.0,0.0,0.0,0.0,0.0,0.0,1.0,0.0,0.0,0.0,0.0,-0.001,0.0,0.0,0.0,0.0,0.0529118225806451,0.3251752688172042,-3.09745311827957,-0.314662440860215,-0.0623248161290322,0.9414632150537634,-0.0393135806451612,0.1076528397849462,0.1757222903225806,47.59773366,,0.0058172043010752,-0.074,2453.29,2465.62,-122.82562121,100.21473505,0.0,0.0,80.9,27.0,32.0,0.854,100,True
,29,2900.0,2025-10-02 20:57:16.946000+00:00,2025-10-02 13:57:16.946,00:00:07.4,75436946,0.0,0.0,0.0,0.0,0.0,0.0,0.0,0.0,0.0,0.0,1.0,0.0,0.0,0.0,0.0,-0.001,0.0,0.0,0.0,0.0,0.0524023266666666,0.3253074666666666,-3.0978760000000003,-0.3183758,-0.0574515533333333,0.9410835333333334,0.5546746,0.0524728466666666,0.3738284666666667,47.59773366,,0.005,-0.074,2453.29,2465.62,-122.82562121,100.21473505,0.0,0.0,80.92666666666668,27.0,32.0,0.854,100,True
,30,3000.0,2025-10-02 20:57:17.046000+00:00,2025-10-02 13:57:17.046,00:00:07.5,75437046,0.0,0.0,0.0,0.0,0.0,0.0,0.0,0.0,0.0,0.0,1.0,0.0,0.0,0.0,0.0,-0.001,0.0,0.0,0.0,0.0,0.0519368088888888,0.3253488888888889,-3.098279777777778,-0.3178800666666667,-0.0608442755555555,0.9407789777777776,0.2892555333333333,0.1307139733333333,0.2667009777777778,47.59773366,,0.0053777777777777,-0.074,2453.29,2465.62,-122.82562121,100.21473505,0.0,0.0,80.96222222222222,27.0,32.0,0.854,100,True
,31,3100.0,2025-10-02 20:57:17.146000+00:00,2025-10-02 13:57:17.146,00:00:07.6,75437146,0.0,0.0,0.0,0.0,0.0,0.0,0.0,0.0,0.0,0.0,1.0,0.0,0.0,0.0,0.0,-0.001,0.0,0.0,0.0,0.0,0.0513015354838709,0.3253789247311828,-3.098732365591398,-0.3167281182795698,-0.0568573548387096,0.940573311827957,0.3004549569892473,0.0284198709677419,0.1565456817204301,47.59773366,,0.0055268817204301,-0.074,2453.29,2465.62,-122.82562121,100.21473505,0.0,0.0,80.947311827957,27.0,32.0,0.854,100,True
,32,3200.0,2025-10-02 20:57:17.246000+00:00,2025-10-02 13:57:17.246,00:00:07.7,75437246,0.0,0.0,0.0,0.0,0.0,0.0,0.0,0.0,0.0,0.0,1.0,0.0,0.0,0.0,0.0,-0.001,0.0,0.0,0.0,0.0,0.0506521599999999,0.3253424,-3.099196,-0.316638,-0.05053732,0.940417,0.0113303999999999,-0.0202479999999999,0.10836064,47.59773366,,0.0056,-0.0733999999999999,2453.29,2465.62,-122.82562121,100.21473505,0.0,0.0,81.0,27.0,32.0,0.854,100,True
,33,3300.0,2025-10-02 20:57:17.346000+00:00,2025-10-02 13:57:17.346,00:00:07.8,75437346,0.0,0.0,0.0,0.0,0.0,0.0,0.0,0.0,0.0,0.0,1.0,0.0,0.0,0.0,0.0,-0.001,0.0,0.0,0.0,0.0,0.0505851518248175,0.3253865839416058,-3.099412262773723,-0.31766300729927,-0.0509223649635036,0.9403918613138686,-0.0609468671532846,0.0860888394160584,0.113613700729927,47.59773366,,0.006,-0.0734817518248175,2453.29,2465.62,-122.82562121,100.21473505,0.0,0.0,80.95182481751826,27.0,32.0,0.854,100,True
,34,3400.0,2025-10-02 20:57:17.446000+00:00,2025-10-02 13:57:17.446,00:00:07.9,75437446,0.0,0.0,0.0,0.0,0.0,0.0,0.0,0.0,0.0,0.0,1.0,0.0,0.0,0.0,0.0,-0.001,0.0,0.0,0.0,0.0,0.0507153084269662,0.3253848258426966,-3.0995633146067414,-0.318832797752809,-0.0528764235955056,0.9403499157303372,0.0236878005617977,0.0384506702247191,0.1181242415730337,47.59773366,,0.0058370786516853,-0.0741629213483146,2453.29,2465.62,-122.82562121,100.20812412202248,0.0,0.0,80.9,27.0,32.0,0.854,100,True
,35,3500.0,2025-10-02 20:57:17.546000+00:00,2025-10-02 13:57:17.546,00:00:08.0,75437546,0.0,0.0,0.0,0.0,0.0,0.0,0.0,0.0,0.0,0.0,1.0,0.0,0.0,0.0,0.0,-0.001,0.0,0.0,0.0,0.0,0.0508215443820224,0.3254359494382022,-3.099816123595505,-0.3159631348314606,-0.0510078842696629,0.9403875561797752,0.0663002162921348,-0.000507363483146,0.1542630056179775,47.59773366,,0.0052752808988764,-0.0747247191011235,2453.29,2465.62,-122.82562121,100.18532781865169,0.0,0.0,80.9,27.0,32.0,0.854,100,True
,36,3600.0,2025-10-02 20:57:17.646000+00:00,2025-10-02 13:57:17.646,00:00:08.1,75437646,0.0,0.0,0.0,0.0,0.0,0.0,0.0,0.0,0.0,0.0,1.0,0.0,0.0,0.0,0.0,-0.001,0.0,0.0,0.0,0.0,0.0507730413043478,0.3252653152173913,-3.100200543478261,-0.3174174347826086,-0.050379729347826,0.940355554347826,-0.0674429967391304,-0.0194579913043478,0.1855358913043478,47.59773366,,0.0055543478260869,-0.074445652173913,2453.29,2465.62,-122.82562121,100.17415763,0.0,0.0,80.9,27.0,32.0,0.854,100,True
,37,3700.0,2025-10-02 20:57:17.746000+00:00,2025-10-02 13:57:17.746,00:00:08.2,75437746,0.0,0.0,0.0,0.0,0.0,0.0,0.0,0.0,0.0,0.0,1.0,0.0,0.0,0.0,0.0,-0.001,0.0,0.0,0.0,0.0,0.0507325613636363,0.3249423977272727,-3.1005642045454547,-0.3161890681818182,-0.051602134090909,0.94027075,-0.1999516818181818,-0.2549498931818182,0.1053432568181818,47.59773366,,0.0053295454545454,-0.074,2453.29,2465.62,-122.82562121,100.17415763,0.0,0.0,80.9,27.0,32.0,0.854,100,True
,38,3800.0,2025-10-02 20:57:17.846000+00:00,2025-10-02 13:57:17.846,00:00:08.3,75437846,0.0,0.0,0.0,0.0,0.0,0.0,0.0,0.0,0.0,0.0,1.0,0.0,0.0,0.0,0.0,-0.001,0.0,0.0,0.0,0.0,0.0510228311111111,0.3244910111111111,-3.1007425555555552,-0.3155578666666667,-0.0528979322222222,0.9401527555555556,-0.0843095555555555,-0.3697278666666666,0.1609301066666666,47.59773366,,0.0065777777777777,-0.074,2453.29,2465.62,-122.82562121,100.17415763,0.0,0.0,80.9,27.0,32.0,0.854,100,True
,39,3900.0,2025-10-02 20:57:17.946000+00:00,2025-10-02 13:57:17.946,00:00:08.4,75437946,0.0,0.0,0.0,0.0,0.0,0.0,0.0,0.0,0.0,0.0,1.0,0.0,0.0,0.0,0.0,-0.001,0.0,0.0,0.0,0.0,0.05126243125,0.323949875,-3.100955625,-0.31817078125,-0.051860065625,0.94009240625,-0.0037713871875,-0.3116510625,0.064355390625,47.59773366,,0.00615625,-0.07484375,2453.29,2465.62,-122.82562121,100.17415763,0.0,0.0,80.9,27.0,32.0,0.854,100,True
,40,4000.0,2025-10-02 20:57:18.046000+00:00,2025-10-02 13:57:18.046,00:00:08.5,75438046,0.0,0.0,0.0,0.0,0.0,0.0,0.0,0.0,0.0,0.0,1.0,0.0,0.0,0.0,0.0,-0.001,0.0,0.0,0.0,0.0,0.0514472052631578,0.3234573157894737,-3.101142105263158,-0.3163407894736842,-0.0537007263157894,0.9402157368421052,0.1354705189473684,-0.175164,0.0916570736842105,47.59773366,,0.006,-0.075,2453.29,2465.62,-122.82562121,100.17415763,0.0,0.0,80.9,27.0,32.0,0.854,100,True
,41,4100.0,2025-10-02 20:57:18.146000+00:00,2025-10-02 13:57:18.146,00:00:08.6,75438146,0.0,0.0,0.0,0.0,0.0,0.0,0.0,0.0,0.0,0.0,1.0,0.0,0.0,0.0,0.0,-0.001,0.0,0.0,0.0,0.0,0.0514068815217391,0.3233829456521739,-3.101448586956522,-0.3153289239130434,-0.0501618304347826,0.9408099891304348,-0.0788666456521739,-0.0970106826086956,0.1170594456521739,47.59773366,,0.006,-0.074,2453.29,2465.62,-122.82562121,100.17415763,0.0,0.0,80.90978260869565,27.0,32.0,0.854,100,True
,42,4200.0,2025-10-02 20:57:18.246000+00:00,2025-10-02 13:57:18.246,00:00:08.7,75438246,0.0,0.0,0.0,0.0,0.0,0.0,0.0,0.0,0.0,0.0,1.0,0.0,0.0,0.0,0.0,-0.001,0.0,0.0,0.0,0.0,0.0515897872093023,0.3229355581395349,-3.101665465116279,-0.3144922674418605,-0.0501684511627906,0.9410330930232558,-0.283800976744186,-0.1464233081395348,0.1077636221860465,47.59773366,,0.006,-0.0741976744186046,2453.29,2465.62,-122.82562121,100.17415763,0.0,0.0,80.98023255813953,27.0,32.0,0.854,100,True
,43,4300.0,2025-10-02 20:57:18.346000+00:00,2025-10-02 13:57:18.346,00:00:08.8,75438346,0.0,0.0,0.0,0.0,0.0,0.0,0.0,0.0,0.0,0.0,1.0,0.0,0.0,0.0,0.0,-0.001,0.0,0.0,0.0,0.0,0.052060812087912,0.3228837252747252,-3.1018193406593406,-0.3135647472527472,-0.0532707934065934,0.9415628461538462,-0.349566,-0.0198236153846153,-0.000524819010989,47.59773366,,0.006,-0.0746593406593406,2453.29,2465.62,-122.82562121,100.17415763,0.0,0.0,80.93406593406594,27.0,32.0,0.854,100,True
,44,4400.0,2025-10-02 20:57:18.446000+00:00,2025-10-02 13:57:18.446,00:00:08.9,75438446,0.0,0.0,0.0,0.0,0.0,0.0,0.0,0.0,0.0,0.0,1.0,0.0,0.0,0.0,0.0,-0.001,0.0,0.0,0.0,0.0,0.0528411105263157,0.3227071052631579,-3.10184,-0.3148656842105263,-0.0591097368421052,0.9418022631578948,-0.3469899999999999,-0.0873736315789473,0.0295289805263157,47.59773366,,0.005578947368421,-0.074,2453.29,2465.62,-122.82562121,100.17415763,0.0,0.0,80.9578947368421,27.0,32.0,0.854,100,True
,45,4500.0,2025-10-02 20:57:18.546000+00:00,2025-10-02 13:57:18.546,00:00:09.0,75438546,0.0,0.0,0.0,0.0,0.0,0.0,0.0,0.0,0.0,0.0,1.0,0.0,0.0,0.0,0.0,-0.001,0.0,0.0,0.0,0.0,0.0530102576923076,0.3222953461538461,-3.1020365384615385,-0.3147955769230769,-0.0552650192307692,0.9417155,-0.1439906923076922,-0.2731443192307692,0.1272789538461538,47.59773366,,0.0053461538461538,-0.074,2453.29,2465.62,-122.82562121,100.15811299076924,0.0,0.0,80.9,27.0,32.0,0.854,100,True
,46,4600.0,2025-10-02 20:57:18.646000+00:00,2025-10-02 13:57:18.646,00:00:09.1,75438646,0.0,0.0,0.0,0.0,0.0,0.0,0.0,0.0,0.0,0.0,1.0,0.0,0.0,0.0,0.0,-0.001,0.0,0.0,0.0,0.0,0.0531216666666666,0.3219785,-3.102238333333333,-0.3127716666666666,-0.0528207333333333,0.9417275,0.1114436666666666,-0.0778290166666666,0.1821504,47.59773366,,0.006,-0.074,2453.29,2465.62,-122.82562121,100.12780645,0.0,0.0,80.91666666666667,27.0,32.0,0.854,100,True
,47,4700.0,2025-10-02 20:57:18.746000+00:00,2025-10-02 13:57:18.746,00:00:09.2,75438746,0.0,0.0,0.0,0.0,0.0,0.0,0.0,0.0,0.0,0.0,1.0,0.0,0.0,0.0,0.0,-0.001,0.0,0.0,0.0,0.0,0.0535605439560439,0.3219182527472528,-3.102462967032967,-0.3103811538461538,-0.0464329054945054,0.9420453296703296,-0.4534721758241758,-0.0215928802197802,-0.023051501098901,47.59773366,,0.006,-0.074,2453.29,2465.62,-122.82562121,100.12780645,0.0,0.0,81.0,26.97252747252747,32.0,0.854,100,True
,48,4800.0,2025-10-02 20:57:18.846000+00:00,2025-10-02 13:57:18.846,00:00:09.3,75438846,0.0,0.0,0.0,0.0,0.0,0.0,0.0,0.0,0.0,0.0,1.0,0.0,0.0,0.0,0.0,-0.001,0.0,0.0,0.0,0.0,0.0539643304347826,0.3218969565217391,-3.1026202173913044,-0.3129241086956522,-0.0461085586956521,0.9421683260869566,-0.1562713478260869,0.0317172282608695,0.1301720130434782,47.59773366,,0.006,-0.074,2453.29,2465.62,-122.82562121,100.12780645,0.0,0.0,81.0,26.93695652173913,32.0,0.854,100,True
,49,4900.0,2025-10-02 20:57:18.946000+00:00,2025-10-02 13:57:18.946,00:00:09.4,75438946,0.0,0.0,0.0,0.0,0.0,0.0,0.0,0.0,0.0,0.0,1.0,0.0,0.0,0.0,0.0,-0.001,0.0,0.0,0.0,0.0,0.0539297307692307,0.3219477692307692,-3.102892307692308,-0.314434923076923,-0.0464905153846153,0.9422289230769232,0.0608307076923076,0.1850868461538461,0.177594,47.59773366,,0.006,-0.0744615384615384,2453.29,2465.62,-122.82562121,100.12780645,0.0,0.0,81.0,27.0,32.0,0.854,100,True
,50,5000.0,2025-10-02 20:57:19.046000+00:00,2025-10-02 13:57:19.046,00:00:09.5,75439046,0.0,0.0,0.0,0.0,0.0,0.0,0.0,0.0,0.0,0.0,1.0,0.0,0.0,0.0,0.0,-0.001,0.0,0.0,0.0,0.0,0.0536415244897959,0.3221208673469388,-3.103205306122449,-0.3129692448979592,-0.0492767346938775,0.9423377551020408,0.1262279836734693,0.1871551836734693,0.1327270408163265,47.59773366,,0.006,-0.0744795918367347,2453.29,2465.62,-122.82562121,100.12780645,0.0,0.0,81.0,26.94795918367347,32.0,0.854,100,True
,51,5100.0,2025-10-02 20:57:19.146000+00:00,2025-10-02 13:57:19.146,00:00:09.6,75439146,0.0,0.0,0.0,0.0,0.0,0.0,0.0,0.0,0.0,0.0,1.0,0.0,0.0,0.0,0.0,-0.001,0.0,0.0,0.0,0.0,0.0532311416666666,0.3223104166666666,-3.103567395833333,-0.31447740625,-0.0513005802083333,0.9423878333333332,0.3416296145833333,0.19824884375,0.22500965625,47.59773366,,0.006,-0.074,2453.29,2465.62,-122.82562121,100.12780645,0.0,0.0,81.0,26.9,32.0,0.854,100,True
,52,5200.0,2025-10-02 20:57:19.246000+00:00,2025-10-02 13:57:19.246,00:00:09.7,75439246,0.0,0.0,0.0,0.0,0.0,0.0,0.0,0.0,0.0,0.0,1.0,0.0,0.0,0.0,0.0,-0.001,0.0,0.0,0.0,0.0,0.0528739333333333,0.3225725833333333,-3.103957916666667,-0.3112826666666666,-0.0521511041666666,0.9423585833333332,-0.0177743333333333,0.1499550416666666,0.20872475,47.59773366,,0.006,-0.074,2453.29,2465.62,-122.82562121,100.12780645,0.0,0.0,81.0,26.9,32.0,0.854,100,True
,53,5300.0,2025-10-02 20:57:19.346000+00:00,2025-10-02 13:57:19.346,00:00:09.8,75439346,0.0,0.0,0.0,0.0,0.0,0.0,0.0,0.0,0.0,0.0,1.0,0.0,0.0,0.0,0.0,-0.001,0.0,0.0,0.0,0.0,0.052960202189781,0.3228475620437956,-3.1041030656934305,-0.3149550875912408,-0.0487887518248175,0.9423477591240876,-0.0392829562043795,0.1634916277372262,0.1375931897810219,47.59773366,,0.006,-0.074,2453.29,2465.62,-122.82562121,100.12780645,0.0,0.0,80.93795620437956,26.9,32.0,0.854,100,True
,54,5400.0,2025-10-02 20:57:19.446000+00:00,2025-10-02 13:57:19.446,00:00:09.9,75439446,0.0,0.0,0.0,0.0,0.0,0.0,0.0,0.0,0.0,0.0,1.0,0.0,0.0,0.0,0.0,-0.001,0.0,0.0,0.0,0.0,0.0533792757575757,0.3230767272727272,-3.104232727272727,-0.3159623939393939,-0.0464401151515151,0.9421729393939394,-0.2650786242424242,0.1892920303030303,0.0623240666666666,47.59773366,,0.006,-0.0744848484848484,2453.29,2465.62,-122.82562121,100.12780645,0.0,0.0,80.94848484848485,26.94848484848485,32.0,0.854,100,True
,55,5500.0,2025-10-02 20:57:19.546000+00:00,2025-10-02 13:57:19.546,00:00:10.0,75439546,0.0,0.0,0.0,0.0,0.0,0.0,0.0,0.0,0.0,0.0,1.0,0.0,0.0,0.0,0.0,-0.001,0.0,0.0,0.0,0.0,0.0543518923076923,0.3231829358974358,-3.1042660256410257,-0.3122127307692308,-0.0531131269230769,0.9418215256410256,-0.4273443717948718,0.1007527025641025,0.0050651765384615,47.59773366,,0.006,-0.0743717948717948,2453.29,2465.62,-122.82562121,100.09825434897436,0.0,0.0,81.0,26.937179487179485,32.0,0.854,100,True
,56,5600.0,2025-10-02 20:57:19.646000+00:00,2025-10-02 13:57:19.646,00:00:10.1,75439646,0.0,0.0,0.0,0.0,0.0,0.0,0.0,0.0,0.0,0.0,1.0,0.0,0.0,0.0,0.0,-0.001,0.0,0.0,0.0,0.0,0.054796567032967,0.3231182197802197,-3.104403846153846,-0.3131154285714285,-0.0587919725274725,0.9414998571428572,-0.1815737582417582,-0.0055680582417582,0.0394180274725274,47.59773366,,0.006,-0.0747802197802197,2453.29,2465.62,-122.82562121,100.08076433,0.0,0.0,81.0,26.978021978021975,32.0,0.854,100,True
,57,5700.0,2025-10-02 20:57:19.746000+00:00,2025-10-02 13:57:19.746,00:00:10.2,75439746,0.0,0.0,0.0,0.0,0.0,0.0,0.0,0.0,0.0,0.0,1.0,0.0,0.0,0.0,0.0,-0.001,0.0,0.0,0.0,0.0,0.0548667063829787,0.3230401276595744,-3.104654255319149,-0.3154805957446808,-0.0551812234042553,0.9413042340425531,-0.1394588085106383,-0.0214436191489361,-0.0084765042553191,47.59773366,,0.0051489361702127,-0.0741489361702127,2453.29,2465.62,-122.82562121,100.08076433,0.0,0.0,81.0,26.914893617021274,32.0,0.854,100,True
,58,5800.0,2025-10-02 20:57:19.846000+00:00,2025-10-02 13:57:19.846,00:00:10.3,75439846,0.0,0.0,0.0,0.0,0.0,0.0,0.0,0.0,0.0,0.0,1.0,0.0,0.0,0.0,0.0,-0.001,0.0,0.0,0.0,0.0,0.054845915625,0.3229617395833333,-3.104942604166667,-0.3141113645833333,-0.0495499447916666,0.9412066979166668,0.0106675520833333,-0.0887778572916666,0.1098521354166666,47.59773366,,0.0050104166666666,-0.074,2453.29,2465.62,-122.82562121,100.08076433,0.0,0.0,81.0,26.99895833333333,32.0,0.854,100,True
,59,5900.0,2025-10-02 20:57:19.946000+00:00,2025-10-02 13:57:19.946,00:00:10.4,75439946,0.0,0.0,0.0,0.0,0.0,0.0,0.0,0.0,0.0,0.0,1.0,0.0,0.0,0.0,0.0,-0.001,0.0,0.0,0.0,0.0,0.0548377430232558,0.3229363604651162,-3.1052051162790697,-0.3161614069767441,-0.04978145,0.9412782325581396,-0.0357115581395348,0.0505516360465116,0.1861212790697674,47.59773366,,0.006,-0.074,2453.29,2465.62,-122.82562121,100.08076433,0.0,0.0,81.0,26.90581395348837,32.0,0.854,100,True
,60,6000.0,2025-10-02 20:57:20.046000+00:00,2025-10-02 13:57:20.046,00:00:10.5,75440046,0.0,0.0,0.0,0.0,0.0,0.0,0.0,0.0,0.0,0.0,1.0,0.0,0.0,0.0,0.0,-0.001,0.0,0.0,0.0,0.0,0.0546238343137254,0.3229056960784314,-3.105509607843137,-0.3135171960784314,-0.0523769568627451,0.9413641176470589,0.2197727058823529,0.0379611156862745,0.230021,47.59773366,,0.006,-0.074,2453.29,2465.62,-122.82562121,100.08076433,0.0,0.0,81.0,27.0,32.0,0.854,100,True
,61,6100.0,2025-10-02 20:57:20.146000+00:00,2025-10-02 13:57:20.146,00:00:10.6,75440146,0.0,0.0,0.0,0.0,0.0,0.0,0.0,0.0,0.0,0.0,1.0,0.0,0.0,0.0,0.0,-0.001,0.0,0.0,0.0,0.0,0.0543513102564102,0.3228054487179487,-3.105855,-0.3135759102564103,-0.0503860782051282,0.9414038717948718,0.114769223076923,-0.0192159474358974,0.2091875384615384,47.59773366,,0.006,-0.074,2453.29,2465.62,-122.82562121,100.08076433,0.0,0.0,81.0,26.97820512820513,32.0,0.854,100,True
,62,6200.0,2025-10-02 20:57:20.246000+00:00,2025-10-02 13:57:20.246,00:00:10.7,75440246,0.0,0.0,0.0,0.0,0.0,0.0,0.0,0.0,0.0,0.0,1.0,0.0,0.0,0.0,0.0,-0.001,0.0,0.0,0.0,0.0,0.0542742,0.322764,-3.10616,-0.312169,-0.0530273,0.941529,-0.0584018,-0.0201853,0.114478,47.59773366,,0.0057328767123287,-0.074,2453.29,2465.62,-122.82562121,100.08076433,0.0,0.0,81.0,26.9,32.0,0.854,100,True
,63,6300.0,2025-10-02 20:57:20.346000+00:00,2025-10-02 13:57:20.346,00:00:10.8,75440346,0.0,0.0,0.0,0.0,0.0,0.0,0.0,0.0,0.0,0.0,1.0,0.0,0.0,0.0,0.0,-0.001,0.0,0.0,0.0,0.0,0.0542742,0.322764,-3.10616,-0.312169,-0.0530273,0.941529,-0.0584018,-0.0201853,0.114478,47.59773366,,0.0050479452054794,-0.074,2453.29,2465.62,-122.82562121,100.08076433,0.0,0.0,81.0,26.9,32.0,0.854,100,True
,64,6400.0,2025-10-02 20:57:20.446000+00:00,2025-10-02 13:57:20.446,00:00:10.9,75440446,0.0,0.0,0.0,0.0,0.0,0.0,0.0,0.0,0.0,0.0,1.0,0.0,0.0,0.0,0.0,-0.001,0.0,0.0,0.0,0.0,0.0544113572519084,0.3226170458015267,-3.106358778625954,-0.3152025038167939,-0.0554815770992366,0.9415907633587788,0.0987978748091603,0.12977066870229,0.1989269694656488,47.59773366,,0.0057099236641221,-0.0747099236641221,2453.29,2465.62,-122.82562121,100.08076433,0.0,0.0,81.0,26.9,32.0,0.854,100,True
,65,6500.0,2025-10-02 20:57:20.546000+00:00,2025-10-02 13:57:20.546,00:00:11.0,75440546,0.0,0.0,0.0,0.0,0.0,0.0,0.0,0.0,0.0,0.0,1.0,0.0,0.0,0.0,0.0,-0.001,0.0,0.0,0.0,0.0,0.0544731068181818,0.3225252954545454,-3.1066090909090907,-0.3149215909090909,-0.0540615386363636,0.941637840909091,-0.0955480454545454,-0.0568224318181817,0.1101264136363636,47.59773366,,0.006,-0.0742954545454545,2453.29,2465.62,-122.82562121,100.04087283954546,0.0,0.0,81.0,26.970454545454544,32.0,0.854,100,True
,66,6600.0,2025-10-02 20:57:20.646000+00:00,2025-10-02 13:57:20.646,00:00:11.1,75440646,0.0,0.0,0.0,0.0,0.0,0.0,0.0,0.0,0.0,0.0,1.0,0.0,0.0,0.0,0.0,-0.001,0.0,0.0,0.0,0.0,0.0545735048780487,0.3224271707317073,-3.1069597560975613,-0.3110514634146341,-0.0516051170731707,0.9416966341463416,0.0642949682926828,-0.1590603902439024,0.2251119463414634,47.59773366,,0.006,-0.074,2453.29,2465.62,-122.82562121,100.02414415,0.0,0.0,81.0,26.909756097560976,32.0,0.854,100,True
,67,6700.0,2025-10-02 20:57:20.746000+00:00,2025-10-02 13:57:20.746,00:00:11.2,75440746,0.0,0.0,0.0,0.0,0.0,0.0,0.0,0.0,0.0,0.0,1.0,0.0,0.0,0.0,0.0,-0.001,0.0,0.0,0.0,0.0,0.0543517240875912,0.322275503649635,-3.1073025547445257,-0.3142276277372263,-0.0533468583941605,0.9416889635036496,0.0922354569343065,-0.0188874948905109,0.2412803357664233,47.59773366,,0.006,-0.074,2453.29,2465.62,-122.82562121,100.02414415,0.0,0.0,81.0,26.9,32.0,0.854,100,True
,68,6800.0,2025-10-02 20:57:20.846000+00:00,2025-10-02 13:57:20.846,00:00:11.3,75440846,0.0,0.0,0.0,0.0,0.0,0.0,0.0,0.0,0.0,0.0,1.0,0.0,0.0,0.0,0.0,-0.001,0.0,0.0,0.0,0.0,0.0540641328467153,0.3221258686131387,-3.1075580291970804,-0.309490401459854,-0.0462126978102189,0.9416853138686132,-0.0140288496350364,-0.0193169839416058,0.1993139124087591,47.59773366,,0.006,-0.074,2453.29,2465.62,-122.82562121,100.02414415,0.0,0.0,81.0,26.9,32.0,0.854,100,True
,69,6900.0,2025-10-02 20:57:20.946000+00:00,2025-10-02 13:57:20.946,00:00:11.4,75440946,0.0,0.0,0.0,0.0,0.0,0.0,0.0,0.0,0.0,0.0,1.0,0.0,0.0,0.0,0.0,-0.001,0.0,0.0,0.0,0.0,0.0540622967032967,0.3220635604395604,-3.1077554945054944,-0.3144853076923076,-0.0547650681318681,0.9417803516483516,0.0948428571428571,-0.0688319164835164,0.1718026593406593,47.59773366,,0.006,-0.0747032967032967,2453.29,2465.62,-122.82562121,100.02414415,0.0,0.0,81.0,26.9,32.0,0.854,100,True
,70,7000.0,2025-10-02 20:57:21.046000+00:00,2025-10-02 13:57:21.046,00:00:11.5,75441046,0.0,0.0,0.0,0.0,0.0,0.0,0.0,0.0,0.0,0.0,1.0,0.0,0.0,0.0,0.0,-0.001,0.0,0.0,0.0,0.0,0.0537541363636363,0.3219123409090909,-3.108198181818182,-0.3119489886363636,-0.0519712795454545,0.9418317840909092,0.1619871590909091,0.0270665545454545,0.2232246363636363,47.59773366,,0.0051704545454545,-0.0741704545454545,2453.29,2465.62,-122.82562121,100.02414415,0.0,0.0,81.0,26.9,32.0,0.854,100,True
,71,7100.0,2025-10-02 20:57:21.146000+00:00,2025-10-02 13:57:21.146,00:00:11.6,75441146,0.0,0.0,0.0,0.0,0.0,0.0,0.0,0.0,0.0,0.0,1.0,0.0,0.0,0.0,0.0,-0.001,0.0,0.0,0.0,0.0,0.0533179945054945,0.3219931538461538,-3.108606923076923,-0.3128701868131868,-0.0523857714285714,0.9419871868131868,0.3584337912087911,0.1816371274725274,0.2163855054945055,47.59773366,,0.0059340659340659,-0.074,2453.29,2465.62,-122.82562121,100.02414415,0.0,0.0,81.0,26.9,32.0,0.854,100,True
,72,7200.0,2025-10-02 20:57:21.246000+00:00,2025-10-02 13:57:21.246,00:00:11.7,75441246,0.0,0.0,0.0,0.0,0.0,0.0,0.0,0.0,0.0,0.0,1.0,0.0,0.0,0.0,0.0,-0.001,0.0,0.0,0.0,0.0,0.0530301770833333,0.3220783541666666,-3.1089433333333334,-0.3181487291666666,-0.0559077958333333,0.9420616458333332,0.0931187729166666,0.0533256562499999,0.1721680416666666,47.59773366,,0.006,-0.0749791666666666,2453.29,2465.62,-122.82562121,100.02414415,0.0,0.0,81.0,26.9,32.0,0.854,100,True
,73,7300.0,2025-10-02 20:57:21.346000+00:00,2025-10-02 13:57:21.346,00:00:11.8,75441346,0.0,0.0,0.0,0.0,0.0,0.0,0.0,0.0,0.0,0.0,1.0,0.0,0.0,0.0,0.0,-0.001,0.0,0.0,0.0,0.0,0.0530678310344827,0.3220978275862069,-3.1091562068965515,-0.3124713793103448,-0.0566737034482758,0.9420228620689656,-0.0540575586206896,0.0298778689655172,0.0530045862068965,47.59773366,,0.0058620689655172,-0.0748620689655172,2453.29,2465.62,-122.82562121,100.02414415,0.0,0.0,81.0,26.9,32.0,0.854,100,True
,74,7400.0,2025-10-02 20:57:21.446000+00:00,2025-10-02 13:57:21.446,00:00:11.9,75441446,0.0,0.0,0.0,0.0,0.0,0.0,0.0,0.0,0.0,0.0,1.0,0.0,0.0,0.0,0.0,-0.001,0.0,0.0,0.0,0.0,0.0531429585106383,0.3222389042553191,-3.109386489361702,-0.3115276063829787,-0.0486174351063829,0.9420454042553192,0.0331301468085106,0.3569031936170213,0.1399668936170212,47.59773366,,0.0052659574468085,-0.0734680851063829,2453.29,2465.62,-122.82562121,100.02414415,0.0,0.0,81.0,26.9,32.0,0.8542659574468084,100,True
,75,7500.0,2025-10-02 20:57:21.546000+00:00,2025-10-02 13:57:21.546,00:00:12.0,75441546,0.0,0.0,0.0,0.0,0.0,0.0,0.0,0.0,0.0,0.0,1.0,0.0,0.0,0.0,0.0,-0.001,0.0,0.0,0.0,0.0,0.0530020865248226,0.3233599787234043,-3.1096557446808517,-0.3114801631205674,-0.0488231808510638,0.9426173262411348,0.0446143687943262,1.098301489361702,0.2036373262411347,47.59773366,,0.006,-0.0724397163120567,2453.29,2465.62,-122.82562121,100.01829524588652,0.0,0.0,81.0,26.9,32.0,0.855,100,True
,76,7600.0,2025-10-02 20:57:21.646000+00:00,2025-10-02 13:57:21.646,00:00:12.1,75441646,0.0,0.0,0.0,0.0,0.0,0.0,0.0,0.0,0.0,0.0,1.0,0.0,0.0,0.0,0.0,-0.001,0.0,0.0,0.0,0.0,0.0526094624113475,0.3257663617021276,-3.109932340425532,-0.3213645602836879,-0.0539889255319148,0.943586120567376,-0.1124296028368794,-0.4911453191489361,0.1340061205673758,47.59773366,,0.006,-0.0738581560283687,2453.29,2465.62,-122.82562121,99.9994278132624,0.0,0.0,81.0,26.9,32.0,0.855,100,True
,77,7700.0,2025-10-02 20:57:21.746000+00:00,2025-10-02 13:57:21.746,00:00:12.2,75441746,0.0,0.0,0.0,0.0,0.0,0.0,0.0,0.0,0.0,0.0,1.0,0.0,0.0,0.0,0.0,-0.001,0.0,0.0,0.0,0.0,0.0521062617021276,0.3220738404255319,-3.1105712765957447,-0.3131242127659574,-0.0224182308510638,0.9399506063829788,0.8764297765957446,-1.561832925531915,0.5438827234042553,47.59773366,,0.0059468085106382,-0.074,2453.29,2465.62,-122.82562121,99.99754107,0.0,0.0,81.0,26.9,32.0,0.855,100,True
,78,7800.0,2025-10-02 20:57:21.846000+00:00,2025-10-02 13:57:21.846,00:00:12.3,75441846,0.0,0.0,0.0,0.0,0.0,0.0,0.0,0.0,0.0,0.0,1.0,0.0,0.0,0.0,0.0,-0.001,0.0,0.0,0.0,0.0,0.051285913253012,0.3224646265060241,-3.1109897590361446,-0.3158949518072289,-0.0329952771084337,0.9407908313253012,0.6349916746987951,0.7041150795180723,0.5897824939759035,47.59773366,,0.005,-0.073867469879518,2453.29,2465.62,-122.82562121,99.99754107,0.0,0.0,81.0,26.9,32.0,0.855,100,True
,79,7900.0,2025-10-02 20:57:21.946000+00:00,2025-10-02 13:57:21.946,00:00:12.4,75441946,0.0,0.0,0.0,0.0,0.0,0.0,0.0,0.0,0.0,0.0,1.0,0.0,0.0,0.0,0.0,-0.001,0.0,0.0,0.0,0.0,0.0505618285714285,0.3240785714285714,-3.1113642857142856,-0.3153352857142857,-0.0423354,0.9419527142857144,0.667413,0.0336808571428571,0.4919587142857143,47.59773366,,0.0052857142857142,-0.073,2453.29,2465.62,-122.82562121,99.99754107,0.0,0.0,81.0,26.9,32.0,0.855,100,True
,80,8000.0,2025-10-02 20:57:22.046000+00:00,2025-10-02 13:57:22.046,00:00:12.5,75442046,0.0,0.0,0.0,0.0,0.0,0.0,0.0,0.0,0.0,0.0,1.0,0.0,0.0,0.0,0.0,-0.001,0.0,0.0,0.0,0.0,0.0498157414634146,0.3248820731707317,-3.1118036585365854,-0.3147703902439024,-0.0434578512195121,0.9421234634146342,0.4380831219512195,0.3077238780487805,0.4566315365853658,47.59773366,,0.006,-0.0737317073170731,2453.29,2465.62,-122.82562121,99.99754107,0.0,0.0,81.0,26.9,32.0,0.855,100,True
,81,8100.0,2025-10-02 20:57:22.146000+00:00,2025-10-02 13:57:22.146,00:00:12.6,75442146,0.0,0.0,0.0,0.0,0.0,0.0,0.0,0.0,0.0,0.0,1.0,0.0,0.0,0.0,0.0,-0.001,0.0,0.0,0.0,0.0,0.0497296639175257,0.3248081340206186,-3.112065051546392,-0.3171684329896907,-0.0600826051546391,0.941476350515464,-0.3045297319587629,-0.9533323195876288,0.0434744432989691,47.59773366,,0.006,-0.075,2453.29,2465.62,-122.82562121,99.99754107,0.0,0.0,81.0,26.9,32.0,0.855,100,True
,82,8200.0,2025-10-02 20:57:22.246000+00:00,2025-10-02 13:57:22.246,00:00:12.7,75442246,0.0,0.0,0.0,0.0,0.0,0.0,0.0,0.0,0.0,0.0,1.0,0.0,0.0,0.0,0.0,-0.001,0.0,0.0,0.0,0.0,0.0497714335877862,0.3234980610687023,-3.11225465648855,-0.3174381526717557,-0.0964761984732824,0.9404352595419848,-0.9168555419847328,-0.8883916030534351,-0.496532893129771,47.59773366,,0.0063893129770992,-0.0746106870229007,2453.29,2465.62,-122.82562121,99.99754107,0.0,0.0,81.0,26.9,32.0,0.855,100,True
,83,8300.0,2025-10-02 20:57:22.346000+00:00,2025-10-02 13:57:22.346,00:00:12.8,75442346,0.0,0.0,0.0,0.0,0.0,0.0,0.0,0.0,0.0,0.0,1.0,0.0,0.0,0.0,0.0,-0.001,0.0,0.0,0.0,0.0,0.0494557387755102,0.3222776326530612,-3.112582448979592,-0.3153802448979592,-0.1161576530612245,0.940079612244898,-0.801101306122449,1.0173861224489795,-0.8262673673469387,47.59773366,,0.0067959183673469,-0.074,2453.29,2465.62,-122.82562121,99.99754107,0.0,0.0,81.0,26.9,32.0,0.855,100,True
,84,8400.0,2025-10-02 20:57:22.446000+00:00,2025-10-02 13:57:22.446,00:00:12.9,75442446,0.0,0.0,0.0,0.0,0.0,0.0,0.0,0.0,0.0,0.0,1.0,0.0,0.0,0.0,0.0,-0.001,0.0,0.0,0.0,0.0,0.0500113571428571,0.3219718571428571,-3.112764285714286,-0.3111987142857143,-0.0739215857142857,0.9406744285714286,-0.71658,0.2667945714285714,-0.1820751428571428,47.59773366,,0.006,-0.074,2453.29,2465.62,-122.82562121,99.99754107,0.0,0.0,81.0,26.9,32.0,0.855,100,True
,85,8500.0,2025-10-02 20:57:22.546000+00:00,2025-10-02 13:57:22.546,00:00:13.0,75442546,0.0,0.0,0.0,0.0,0.0,0.0,0.0,0.0,0.0,0.0,1.0,0.0,0.0,0.0,0.0,-0.001,0.0,0.0,0.0,0.0,0.0505903613861386,0.3221107326732673,-3.1129643564356435,-0.3135738415841584,-0.0366534138613861,0.9415318118811882,-0.3089871287128713,-0.3550155346534653,0.1085810247524752,47.59773366,,0.006,-0.074,2453.29,2465.62,-122.82562121,99.9800808160396,0.0,0.0,81.0,26.9,32.0,0.855,100,True
,86,8600.0,2025-10-02 20:57:22.646000+00:00,2025-10-02 13:57:22.646,00:00:13.1,75442646,0.0,0.0,0.0,0.0,0.0,0.0,0.0,0.0,0.0,0.0,1.0,0.0,0.0,0.0,0.0,-0.001,0.0,0.0,0.0,0.0,0.0513753094117647,0.3217398588235294,-3.1129717647058825,-0.3143627058823529,-0.0470944047058823,0.9416810941176472,-0.1983559058823529,-0.3292134705882352,0.0960237258823529,47.59773366,,0.006,-0.0734823529411764,2453.29,2465.62,-122.82562121,99.9583525,0.0,0.0,81.0,26.9,32.0,0.855,100,True
,87,8700.0,2025-10-02 20:57:22.746000+00:00,2025-10-02 13:57:22.746,00:00:13.2,75442746,0.0,0.0,0.0,0.0,0.0,0.0,0.0,0.0,0.0,0.0,1.0,0.0,0.0,0.0,0.0,-0.001,0.0,0.0,0.0,0.0,0.0517298107526881,0.3214730322580645,-3.1132039784946235,-0.3136589569892473,-0.0459257247311827,0.942042559139785,-0.0800141075268817,-0.0264833623655914,0.1610200215053763,47.59773366,,0.006,-0.0736344086021505,2453.29,2465.62,-122.82562121,99.9583525,0.0,0.0,81.0,26.9,32.0,0.855,100,True
,88,8800.0,2025-10-02 20:57:22.846000+00:00,2025-10-02 13:57:22.846,00:00:13.3,75442846,0.0,0.0,0.0,0.0,0.0,0.0,0.0,0.0,0.0,0.0,1.0,0.0,0.0,0.0,0.0,-0.001,0.0,0.0,0.0,0.0,0.0517173073170731,0.3213379268292683,-3.1134951219512192,-0.3154119268292683,-0.0534629341463414,0.9423733902439024,0.0087659195121951,-0.0616282951219512,0.235842487804878,47.59773366,,0.006,-0.074,2453.29,2465.62,-122.82562121,99.9583525,0.0,0.0,81.0,26.9,32.0,0.855,100,True
,89,8900.0,2025-10-02 20:57:22.946000+00:00,2025-10-02 13:57:22.946,00:00:13.4,75442946,0.0,0.0,0.0,0.0,0.0,0.0,0.0,0.0,0.0,0.0,1.0,0.0,0.0,0.0,0.0,-0.001,0.0,0.0,0.0,0.0,0.0516561142857142,0.3215298571428571,-3.113762857142857,-0.3133727142857143,-0.0483709285714285,0.9427172857142856,0.0130781571428571,0.0899504428571428,0.1271574285714286,47.59773366,,0.006,-0.0731428571428571,2453.29,2465.62,-122.82562121,99.9583525,0.0,0.0,81.0,26.9,32.0,0.855,100,True
,90,9000.0,2025-10-02 20:57:23.046000+00:00,2025-10-02 13:57:23.046,00:00:13.5,75443046,0.0,0.0,0.0,0.0,0.0,0.0,0.0,0.0,0.0,0.0,1.0,0.0,0.0,0.0,0.0,-0.001,0.0,0.0,0.0,0.0,0.0527021263157894,0.3217156842105263,-3.1137121052631582,-0.3082271052631579,-0.0568525842105263,0.942872052631579,-0.7673174736842105,0.046927547368421,-0.1679760210526315,47.59773366,,0.006,-0.074,2453.29,2465.62,-122.82562121,99.9583525,0.0,0.0,81.0,26.9,32.00526315789474,0.855,100,True
,91,9100.0,2025-10-02 20:57:23.146000+00:00,2025-10-02 13:57:23.146,00:00:13.6,75443146,0.0,0.0,0.0,0.0,0.0,0.0,0.0,0.0,0.0,0.0,1.0,0.0,0.0,0.0,0.0,-0.001,0.0,0.0,0.0,0.0,0.0533614621212121,0.321641909090909,-3.11375,-0.3134292272727273,-0.0547580348484848,0.9427121818181818,-0.4086408484848485,0.0268660636363636,-0.0554447333333333,47.59773366,,0.006,-0.074,2453.29,2465.62,-122.82562121,99.9583525,0.0,0.0,81.0,26.9,32.092424242424244,0.855,100,True
,92,9200.0,2025-10-02 20:57:23.246000+00:00,2025-10-02 13:57:23.246,00:00:13.7,75443246,0.0,0.0,0.0,0.0,0.0,0.0,0.0,0.0,0.0,0.0,1.0,0.0,0.0,0.0,0.0,-0.001,0.0,0.0,0.0,0.0,0.0539560833333333,0.321501,-3.11375,-0.3150315,-0.0621653833333333,0.942544,-0.2408893333333333,-0.1843053,0.0384719333333333,47.59773366,,0.006,-0.074,2453.29,2465.62,-122.82562121,99.9583525,0.0,0.0,81.0,26.9,32.016666666666666,0.855,100,True
,93,9300.0,2025-10-02 20:57:23.346000+00:00,2025-10-02 13:57:23.346,00:00:13.8,75443346,0.0,0.0,0.0,0.0,0.0,0.0,0.0,0.0,0.0,0.0,1.0,0.0,0.0,0.0,0.0,-0.001,0.0,0.0,0.0,0.0,0.0543677,0.3213416774193549,-3.113968064516129,-0.3109774193548387,-0.0468843483870967,0.9424046774193549,-0.267600129032258,-0.231309,0.0057824722580645,47.59773366,,0.006,-0.074,2453.29,2465.62,-122.82562121,99.9583525,0.0,0.0,81.0,26.9,32.0,0.855,100,True
,94,9400.0,2025-10-02 20:57:23.446000+00:00,2025-10-02 13:57:23.446,00:00:13.9,75443446,0.0,0.0,0.0,0.0,0.0,0.0,0.0,0.0,0.0,0.0,1.0,0.0,0.0,0.0,0.0,-0.001,0.0,0.0,0.0,0.0,0.0547651888059701,0.3213734552238806,-3.1139909701492536,-0.3106336567164179,-0.0486798410447761,0.9424858582089553,-0.047026421641791,0.0361495074626865,0.1060856668656716,47.59773366,,0.006,-0.074,2453.29,2465.62,-122.82562121,99.9583525,0.0,0.0,81.0,26.9,32.0,0.855,100,True
,95,9500.0,2025-10-02 20:57:23.546000+00:00,2025-10-02 13:57:23.546,00:00:14.0,75443546,0.0,0.0,0.0,0.0,0.0,0.0,0.0,0.0,0.0,0.0,1.0,0.0,0.0,0.0,0.0,-0.001,0.0,0.0,0.0,0.0,0.0547742707865168,0.3216827752808989,-3.114197752808989,-0.3134063820224719,-0.0496271314606741,0.9427021573033708,0.0037568494382022,0.149944415730337,0.1372868651685393,47.59773366,,0.0054269662921348,-0.074,2453.29,2465.62,-122.82562121,99.95637135629214,0.0,0.0,81.0,26.9,32.0,0.855,100,True
,96,9600.0,2025-10-02 20:57:23.646000+00:00,2025-10-02 13:57:23.646,00:00:14.1,75443646,0.0,0.0,0.0,0.0,0.0,0.0,0.0,0.0,0.0,0.0,1.0,0.0,0.0,0.0,0.0,-0.001,0.0,0.0,0.0,0.0,0.0549353666666666,0.3217203333333333,-3.11438,-0.3163933333333333,-0.0494082999999999,0.9425973333333334,-0.2565899333333333,-0.0681096666666666,-0.0081881999999999,47.59773366,,0.0056666666666666,-0.074,2453.29,2465.62,-122.82562121,99.95489521,0.0,0.0,81.0,26.9,32.0,0.855,100,True
,97,9700.0,2025-10-02 20:57:23.746000+00:00,2025-10-02 13:57:23.746,00:00:14.2,75443746,0.0,0.0,0.0,0.0,0.0,0.0,0.0,0.0,0.0,0.0,1.0,0.0,0.0,0.0,0.0,-0.001,0.0,0.0,0.0,0.0,0.0559167352941176,0.3215377764705882,-3.114243882352941,-0.3124274823529411,-0.0610562811764705,0.9424129411764706,-0.4639295764705882,0.122715294117647,-0.0051774484705882,47.59773366,,0.006,-0.074,2453.29,2465.62,-122.82562121,99.95489521,0.0,0.0,81.0,26.9,32.08117647058824,0.855,100,True
,98,9800.0,2025-10-02 20:57:23.846000+00:00,2025-10-02 13:57:23.846,00:00:14.3,75443846,0.0,0.0,0.0,0.0,0.0,0.0,0.0,0.0,0.0,0.0,1.0,0.0,0.0,0.0,0.0,-0.001,0.0,0.0,0.0,0.0,0.0561572347826086,0.3217067391304348,-3.114410869565217,-0.3116407826086956,-0.065137152173913,0.9424818260869564,0.4358437826086956,-0.2555066521739131,0.3179491930434782,47.59773366,,0.006,-0.074,2453.29,2465.62,-122.82562121,99.95489521,0.0,0.0,81.0,26.9,32.00869565217391,0.855,100,True
,99,9900.0,2025-10-02 20:57:23.946000+00:00,2025-10-02 13:57:23.946,00:00:14.4,75443946,0.0,0.0,0.0,0.0,0.0,0.0,0.0,0.0,0.0,0.0,1.0,0.0,0.0,0.0,0.0,-0.001,0.0,0.0,0.0,0.0,0.0555734247191011,0.3215505505617977,-3.114902921348315,-0.3123962921348315,-0.0593835056179775,0.9422787752808988,-0.0710626202247191,-0.0272171494382022,0.042229817977528,47.59773366,,0.006,-0.074,2453.29,2465.62,-122.82562121,99.95489521,0.0,0.0,81.0,26.9,32.0,0.855,100,True
,100,10000.0,2025-10-02 20:57:24.046000+00:00,2025-10-02 13:57:24.046,00:00:14.5,75444046,0.0,0.0,0.0,0.0,0.0,0.0,0.0,0.0,0.0,0.0,1.0,0.0,0.0,0.0,0.0,-0.001,0.0,0.0,0.0,0.0,0.0558365539325842,0.3211019325842696,-3.115048988764045,-0.3141718539325843,-0.0533206370786516,0.9419821460674156,-0.3029687911235955,-0.2610015224719101,-0.0518882842696629,47.59773366,,0.006,-0.0741460674157303,2453.29,2465.62,-122.82562121,99.95489521,0.0,0.0,81.0,26.9,32.01460674157303,0.855,100,True
,101,10100.0,2025-10-02 20:57:24.146000+00:00,2025-10-02 13:57:24.146,00:00:14.6,75444146,0.0,0.0,0.0,0.0,0.0,0.0,0.0,0.0,0.0,0.0,1.0,0.0,0.0,0.0,0.0,-0.001,0.0,0.0,0.0,0.0,0.05602986,0.3204688,-3.115184,-0.3128283333333334,-0.0480260866666666,0.9417915333333332,-0.0724314179999999,-0.1892664333333333,0.0096880866666666,47.59773366,,0.006,-0.0747333333333333,2453.29,2465.62,-122.82562121,99.95489521,0.0,0.0,81.0,26.9,32.07333333333334,0.855,100,True
,102,10200.0,2025-10-02 20:57:24.246000+00:00,2025-10-02 13:57:24.246,00:00:14.7,75444246,0.0,0.0,0.0,0.0,0.0,0.0,0.0,0.0,0.0,0.0,1.0,0.0,0.0,0.0,0.0,-0.001,0.0,0.0,0.0,0.0,0.0562077934782608,0.3198495434782609,-3.115253695652174,-0.3125800652173913,-0.0510871195652173,0.9417469347826088,0.2073111304347826,-0.3645426086956522,0.2214856826086956,47.59773366,,0.0056304347826086,-0.0736304347826087,2453.29,2465.62,-122.82562121,99.95489521,0.0,0.0,81.0,26.9,32.0,0.855,100,True
,103,10300.0,2025-10-02 20:57:24.346000+00:00,2025-10-02 13:57:24.346,00:00:14.8,75444346,0.0,0.0,0.0,0.0,0.0,0.0,0.0,0.0,0.0,0.0,1.0,0.0,0.0,0.0,0.0,-0.001,0.0,0.0,0.0,0.0,0.0555934831460674,0.3196466516853932,-3.1156516853932583,-0.3102946966292135,-0.060615,0.9421226292134832,0.806859820224719,-0.0072633595505618,0.6085062921348314,47.59773366,,0.0054719101123595,-0.0734719101123595,2453.29,2465.62,-122.82562121,99.95489521,0.0,0.0,81.0,26.9,32.04719101123595,0.855,100,True
,104,10400.0,2025-10-02 20:57:24.446000+00:00,2025-10-02 13:57:24.446,00:00:14.9,75444446,0.0,0.0,0.0,0.0,0.0,0.0,0.0,0.0,0.0,0.0,1.0,0.0,0.0,0.0,0.0,-0.001,0.0,0.0,0.0,0.0,0.0541650977528089,0.3197171685393258,-3.116441348314607,-0.3112179887640449,-0.0574926640449438,0.942607988764045,0.3103164943820224,0.0917638876404494,0.2933783820224719,47.59773366,,0.006,-0.074,2453.29,2465.62,-122.82562121,99.95489521,0.0,0.0,81.0,26.9,32.040449438202245,0.855,100,True
,105,10500.0,2025-10-02 20:57:24.546000+00:00,2025-10-02 13:57:24.546,00:00:15.0,75444546,0.0,0.0,0.0,0.0,0.0,0.0,0.0,0.0,0.0,0.0,1.0,0.0,0.0,0.0,0.0,-0.001,0.0,0.0,0.0,0.0,0.0536944393939393,0.320012404040404,-3.1168480808080807,-0.3117035454545455,-0.0559378434343434,0.9431235252525252,-0.0724394343434343,0.3053173535353535,0.1372218585858585,47.59773366,,0.006,-0.074,2453.29,2465.62,-122.82562121,99.96484662818182,0.0,0.0,81.0,26.9,32.0,0.855,100,True
,106,10600.0,2025-10-02 20:57:24.646000+00:00,2025-10-02 13:57:24.646,00:00:15.1,75444646,0.0,0.0,0.0,0.0,0.0,0.0,0.0,0.0,0.0,0.0,1.0,0.0,0.0,0.0,0.0,-0.001,0.0,0.0,0.0,0.0,0.0536535,0.320192,-3.11694,-0.311939,-0.0559855,0.943336,-0.197866,0.329922,0.123131,47.59773366,,0.006,-0.074,2453.29,2465.62,-122.82562121,99.97028881,0.0,0.0,81.0,26.9,32.0,0.855,100,True
,107,10700.0,2025-10-02 20:57:24.746000+00:00,2025-10-02 13:57:24.746,00:00:15.2,75444746,0.0,0.0,0.0,0.0,0.0,0.0,0.0,0.0,0.0,0.0,1.0,0.0,0.0,0.0,0.0,-0.001,0.0,0.0,0.0,0.0,0.0538499333333333,0.3210413666666666,-3.117318111111111,-0.3099885,-0.0505684588888888,0.9439317555555556,0.6246142,0.6579131,0.6308733555555556,47.59773366,,0.006,-0.0730777777777777,2453.29,2465.62,-122.82562121,99.97028881,0.0,0.0,81.0,26.9,32.0,0.855,100,True
,108,10800.0,2025-10-02 20:57:24.846000+00:00,2025-10-02 13:57:24.846,00:00:15.3,75444846,0.0,0.0,0.0,0.0,0.0,0.0,0.0,0.0,0.0,0.0,1.0,0.0,0.0,0.0,0.0,-0.001,0.0,0.0,0.0,0.0,0.0529048810218978,0.3215452554744525,-3.1179591240875912,-0.3145550145985401,-0.0425830576642335,0.9438084525547444,-0.14176300729927,-0.1569276948905109,-0.015815001459854,47.59773366,,0.006,-0.073978102189781,2453.29,2465.62,-122.82562121,99.97028881,0.0,0.0,81.0,26.9,32.0,0.855,100,True
,109,10900.0,2025-10-02 20:57:24.946000+00:00,2025-10-02 13:57:24.946,00:00:15.4,75444946,0.0,0.0,0.0,0.0,0.0,0.0,0.0,0.0,0.0,0.0,1.0,0.0,0.0,0.0,0.0,-0.001,0.0,0.0,0.0,0.0,0.0534375817518248,0.3213204379562043,-3.117929927007299,-0.3102221678832116,-0.0520283131386861,0.943290204379562,-0.1881965839416058,-0.0030841912408759,0.0379782832116788,47.59773366,,0.006,-0.0732481751824817,2453.29,2465.62,-122.82562121,99.97028881,0.0,0.0,81.0,26.9,32.0,0.855,100,True
,110,11000.0,2025-10-02 20:57:25.046000+00:00,2025-10-02 13:57:25.046,00:00:15.5,75445046,0.0,0.0,0.0,0.0,0.0,0.0,0.0,0.0,0.0,0.0,1.0,0.0,0.0,0.0,0.0,-0.001,0.0,0.0,0.0,0.0,0.05386444,0.3217595333333333,-3.1180666666666665,-0.3116067999999999,-0.0503117733333333,0.9430780666666668,-0.2596073333333333,0.35672936,0.0064677733333333,47.59773366,,0.006,-0.0737333333333333,2453.29,2465.62,-122.82562121,99.97028881,0.0,0.0,81.0,26.9,32.0,0.855,100,True
,111,11100.0,2025-10-02 20:57:25.146000+00:00,2025-10-02 13:57:25.146,00:00:15.6,75445146,0.0,0.0,0.0,0.0,0.0,0.0,0.0,0.0,0.0,0.0,1.0,0.0,0.0,0.0,0.0,-0.001,0.0,0.0,0.0,0.0,0.0538287758241758,0.3222084065934066,-3.118261978021978,-0.3107802417582417,-0.0438669296703296,0.9428052637362636,0.3914389230769232,0.3546335164835165,0.2827637252747252,47.59773366,,0.006,-0.074,2453.29,2465.62,-122.82562121,99.97028881,0.0,0.0,81.0,26.9,32.0,0.855,100,True
,112,11200.0,2025-10-02 20:57:25.246000+00:00,2025-10-02 13:57:25.246,00:00:15.7,75445246,0.0,0.0,0.0,0.0,0.0,0.0,0.0,0.0,0.0,0.0,1.0,0.0,0.0,0.0,0.0,-0.001,0.0,0.0,0.0,0.0,0.0530079914893617,0.3237187127659574,-3.118564574468085,-0.317861,-0.0522728414893617,0.9432459468085108,0.8657803510638298,0.5395828829787235,0.307258,47.59773366,,0.006,-0.074,2453.29,2465.62,-122.82562121,99.97028881,0.0,0.0,81.0,26.9,32.0,0.855,100,True
,113,11300.0,2025-10-02 20:57:25.346000+00:00,2025-10-02 13:57:25.346,00:00:15.8,75445346,0.0,0.0,0.0,0.0,0.0,0.0,0.0,0.0,0.0,0.0,1.0,0.0,0.0,0.0,0.0,-0.001,0.0,0.0,0.0,0.0,0.052090532183908,0.3243391379310344,-3.119032643678161,-0.3136159310344827,-0.0575143218390804,0.9427982758620688,0.2383726206896551,0.3084404344827586,0.2256213448275862,47.59773366,,0.006,-0.074,2453.29,2465.62,-122.82562121,99.97028881,0.0,0.0,81.0,26.9,32.0,0.855,100,True
,114,11400.0,2025-10-02 20:57:25.446000+00:00,2025-10-02 13:57:25.446,00:00:15.9,75445446,0.0,0.0,0.0,0.0,0.0,0.0,0.0,0.0,0.0,0.0,1.0,0.0,0.0,0.0,0.0,-0.001,0.0,0.0,0.0,0.0,0.051327652688172,0.3243937096774194,-3.119603870967742,-0.3168883225806451,-0.0463068817204301,0.9419543010752688,0.3324864731182795,0.1863752064516129,0.2186131505376344,47.59773366,,0.006,-0.074,2453.29,2465.62,-122.82562121,99.97028881,0.0,0.0,81.0,26.9,32.02150537634409,0.855,100,True
,115,11500.0,2025-10-02 20:57:25.546000+00:00,2025-10-02 13:57:25.546,00:00:16.0,75445546,0.0,0.0,0.0,0.0,0.0,0.0,0.0,0.0,0.0,0.0,1.0,0.0,0.0,0.0,0.0,-0.001,0.0,0.0,0.0,0.0,0.0504880896551724,0.3248036551724138,-3.1200279310344827,-0.3184663793103448,-0.0437099310344827,0.941672551724138,0.2809787,0.4408426413793103,0.1114841413793103,47.59773366,,0.006,-0.074,2453.29,2465.62,-122.82562121,99.94968757413793,0.0,0.0,81.0,26.9,32.1,0.855,100,True
,116,11600.0,2025-10-02 20:57:25.646000+00:00,2025-10-02 13:57:25.646,00:00:16.1,75445646,0.0,0.0,0.0,0.0,0.0,0.0,0.0,0.0,0.0,0.0,1.0,0.0,0.0,0.0,0.0,-0.001,0.0,0.0,0.0,0.0,0.0499036916666666,0.3250848333333333,-3.120385833333333,-0.3155333333333333,-0.0450689583333333,0.94132475,0.049661075,0.0837534833333333,0.010236025,47.59773366,,0.006,-0.074,2453.29,2465.62,-122.82562121,99.90390705,0.0,0.0,81.0,26.9,32.1,0.855,100,True
,117,11700.0,2025-10-02 20:57:25.746000+00:00,2025-10-02 13:57:25.746,00:00:16.2,75445746,0.0,0.0,0.0,0.0,0.0,0.0,0.0,0.0,0.0,0.0,1.0,0.0,0.0,0.0,0.0,-0.001,0.0,0.0,0.0,0.0,0.0495949782608695,0.3254177391304348,-3.120628405797101,-0.3157898115942029,-0.0432481579710144,0.941278072463768,0.2024602608695652,0.4639584637681159,0.1345018550724637,47.59773366,,0.006,-0.074,2453.29,2465.62,-122.82562121,99.90390705,0.0,0.0,81.0,26.9,32.1,0.8553188405797101,100,True
,118,11800.0,2025-10-02 20:57:25.846000+00:00,2025-10-02 13:57:25.846,00:00:16.3,75445846,0.0,0.0,0.0,0.0,0.0,0.0,0.0,0.0,0.0,0.0,1.0,0.0,0.0,0.0,0.0,-0.001,0.0,0.0,0.0,0.0,0.049258214117647,0.3256581647058824,-3.120865647058824,-0.3167496352941176,-0.0381067811764705,0.9412111529411764,0.1051990235294117,0.685243705882353,0.0780227788235294,47.59773366,,0.006,-0.074,2453.29,2465.62,-122.82562121,99.90390705,0.0,0.0,81.0,26.9,32.09294117647059,0.856,100,True
,119,11900.0,2025-10-02 20:57:25.946000+00:00,2025-10-02 13:57:25.946,00:00:16.4,75445946,0.0,0.0,0.0,0.0,0.0,0.0,0.0,0.0,0.0,0.0,1.0,0.0,0.0,0.0,0.0,-0.001,0.0,0.0,0.0,0.0,0.0496133372093023,0.3262053139534884,-3.120915581395349,-0.3160910930232558,-0.0441634802325581,0.9411709418604652,-0.5662464302325582,0.1967035465116279,-0.0883216046511627,47.59773366,,0.006,-0.074,2453.29,2465.62,-122.82562121,99.90390705,0.0,0.0,81.0,26.9,32.0,0.856,100,True
,120,12000.0,2025-10-02 20:57:26.046000+00:00,2025-10-02 13:57:26.046,00:00:16.5,75446046,0.0,0.0,0.0,0.0,0.0,0.0,0.0,0.0,0.0,0.0,1.0,0.0,0.0,0.0,0.0,-0.001,0.0,0.0,0.0,0.0,0.0505683097826087,0.32618325,-3.120988369565217,-0.318137152173913,-0.0427627619565217,0.9408557826086956,-0.6490152282608695,0.5349826630434783,-0.1372795326086956,47.59773366,,0.006,-0.074,2453.29,2465.62,-122.82562121,99.90390705,0.0,0.0,81.0,26.9,32.0,0.856,100,True
,121,12100.0,2025-10-02 20:57:26.146000+00:00,2025-10-02 13:57:26.146,00:00:16.6,75446146,0.0,0.0,0.0,0.0,0.0,0.0,0.0,0.0,0.0,0.0,1.0,0.0,0.0,0.0,0.0,-0.001,0.0,0.0,0.0,0.0,0.0505965838383838,0.3257235959595959,-3.121260404040404,-0.3140086363636363,-0.0424469606060606,0.9403100505050506,-0.3621834141414142,-0.4480991848484849,-0.0347845745454545,47.59773366,,0.006,-0.074,2453.29,2465.62,-122.82562121,99.90390705,0.0,0.0,81.0,26.9,32.0,0.856,100,True
,122,12200.0,2025-10-02 20:57:26.246000+00:00,2025-10-02 13:57:26.246,00:00:16.7,75446246,0.0,0.0,0.0,0.0,0.0,0.0,0.0,0.0,0.0,0.0,1.0,0.0,0.0,0.0,0.0,-0.001,0.0,0.0,0.0,0.0,0.0513138,0.3251185,-3.121305,-0.317243,-0.0465613,0.9401235,-0.8560470000000001,-0.0930612,-0.16615558,47.59773366,,0.006,-0.074,2453.29,2465.62,-122.82562121,99.90390705,0.0,0.0,81.0,26.9,32.0,0.856,100,True
,123,12300.0,2025-10-02 20:57:26.346000+00:00,2025-10-02 13:57:26.346,00:00:16.8,75446346,0.0,0.0,0.0,0.0,0.0,0.0,0.0,0.0,0.0,0.0,1.0,0.0,0.0,0.0,0.0,-0.001,0.0,0.0,0.0,0.0,0.0524742732824427,0.3249296106870229,-3.1211860305343517,-0.3187611832061068,-0.0477299564885496,0.9403238931297708,-0.899349465648855,-0.2417161335877862,-0.071250893129771,47.59773366,,0.006,-0.0744274809160305,2453.29,2465.62,-122.82562121,99.90390705,0.0,0.0,81.0,26.9,32.0,0.856,100,True
,124,12400.0,2025-10-02 20:57:26.446000+00:00,2025-10-02 13:57:26.446,00:00:16.9,75446446,0.0,0.0,0.0,0.0,0.0,0.0,0.0,0.0,0.0,0.0,1.0,0.0,0.0,0.0,0.0,-0.001,0.0,0.0,0.0,0.0,0.0535914122448979,0.3247153775510204,-3.1210455102040817,-0.3151213775510204,-0.0551309632653061,0.9404695408163264,-0.2065402040816326,-0.4389589591836734,0.2364529489795918,47.59773366,,0.006,-0.075,2453.29,2465.62,-122.82562121,99.90390705,0.0,0.0,81.0,26.9,32.0,0.856,100,True
,125,12500.0,2025-10-02 20:57:26.546000+00:00,2025-10-02 13:57:26.546,00:00:17.0,75446546,0.0,0.0,0.0,0.0,0.0,0.0,0.0,0.0,0.0,0.0,1.0,0.0,0.0,0.0,0.0,-0.001,0.0,0.0,0.0,0.0,0.0541411392857142,0.3240191785714286,-3.121197142857143,-0.3124896785714285,-0.0575650714285714,0.9403984285714286,-0.2491171428571428,-0.4179552142857143,0.0901068735714285,47.59773366,,0.0056785714285714,-0.0746785714285714,2453.29,2465.62,-122.82562121,99.89381971821427,0.0,0.0,81.0,26.9,32.03214285714286,0.856,100,True
,126,12600.0,2025-10-02 20:57:26.646000+00:00,2025-10-02 13:57:26.646,00:00:17.1,75446646,0.0,0.0,0.0,0.0,0.0,0.0,0.0,0.0,0.0,0.0,1.0,0.0,0.0,0.0,0.0,-0.001,0.0,0.0,0.0,0.0,0.0542271902173913,0.3235658586956522,-3.121532934782609,-0.3145016195652174,-0.0608433891304347,0.9406953152173912,0.3016564239130435,-0.1729453847826086,0.2066638484782608,47.59773366,,0.005,-0.074,2453.29,2465.62,-122.82562121,99.87252424,0.0,0.0,81.0,26.9,32.05326086956522,0.856,100,True
,127,12700.0,2025-10-02 20:57:26.746000+00:00,2025-10-02 13:57:26.746,00:00:17.2,75446746,0.0,0.0,0.0,0.0,0.0,0.0,0.0,0.0,0.0,0.0,1.0,0.0,0.0,0.0,0.0,-0.001,0.0,0.0,0.0,0.0,0.0533575275862069,0.3234665862068965,-3.122028965517241,-0.3151054827586207,-0.0555543758620689,0.9410865862068966,0.5326990689655172,-0.0314203689655172,0.1960065896551724,47.59773366,,0.0055862068965517,-0.074,2453.29,2465.62,-122.82562121,99.87252424,0.0,0.0,81.0,26.9,32.05862068965517,0.856,100,True
,128,12800.0,2025-10-02 20:57:26.846000+00:00,2025-10-02 13:57:26.846,00:00:17.3,75446846,0.0,0.0,0.0,0.0,0.0,0.0,0.0,0.0,0.0,0.0,1.0,0.0,0.0,0.0,0.0,-0.001,0.0,0.0,0.0,0.0,0.0524203344086021,0.3232430860215053,-3.122625376344086,-0.314142311827957,-0.0471382505376344,0.9414833010752688,0.3969571720430107,-0.1374993623655914,0.1988925451612903,47.59773366,,0.006,-0.074,2453.29,2465.62,-122.82562121,99.87252424,0.0,0.0,81.0,26.9,32.031182795698925,0.856,100,True
