ride_id,sample_idx,_elapsed_ms,ts_utc,ts_pst,video_ts_anchor,ms_today,cf_accel,cf_brake,cf_cruise,cf_turn_left,cf_turn_right,cf_carve_left,cf_carve_right,cf_ascent,cf_descent,cf_traction_loss,cf_idle,cf_forward,cf_reverse,speed_meters_per_sec,erpm,duty_cycle,current_in,current_motor,d_axis_current,q_axis_current,roll,pitch,yaw,accX,accY,accZ,gyroX,gyroY,gyroZ,gnss_lat,fault_code,d_axis_voltage,q_axis_voltage,tacho_meters,tacho_abs_meters,gnss_lon,gnss_alt,gnss_gVel,gnss_vVel,input_voltage,temp_mos_max,temp_motor,battery_level,dt_ms,_on_grid
ride_48,0,0.0,2025-10-02 20:46:05.679000+00:00,2025-10-02 13:46:05.679,00:00:05.3,74765679,0.0,0.0,0.0,0.0,0.0,0.0,0.0,0.0,0.0,0.0,1.0,0.0,0.0,0.0,0.0,0.001,0.0,0.02,0.07,0.0,0.0444458,0.31514,-1.83108,-0.307495,-0.0534844,0.942868,-1.24141,0.0429626,-0.555372,47.60051397,0.0,0.006,0.07,650.158,651.157,-122.82535459,102.20840582,0.0,0.0,82.0,22.5,22.6,0.921,100,True
,1,100.0,2025-10-02 20:46:05.779000+00:00,2025-10-02 13:46:05.779,00:00:05.4,74765779,0.0,0.0,0.0,0.0,0.0,0.0,0.0,0.0,0.0,0.0,1.0,0.0,0.0,0.0,0.0,0.001,0.0,0.0,0.0,0.0,0.062558544680851,0.3188255531914893,-2.143086595744681,-0.3084255319148936,-0.0593714914893617,0.9407043617021276,0.0173939051063829,0.2156855744680851,0.0216846319148936,47.60051397,,0.0601914893617021,0.0411914893617021,650.158,651.157,-122.82535459,102.20840582,0.0,0.0,82.0,22.5,22.6,0.921,100,True
,2,200.0,2025-10-02 20:46:05.879000+00:00,2025-10-02 13:46:05.879,00:00:05.5,74765879,0.0,0.0,0.0,0.0,0.0,0.0,0.0,0.0,0.0,0.0,1.0,0.0,0.0,0.0,0.0,0.001,0.0,0.0,0.0,0.0,0.0625509758241758,0.3192022747252747,-2.1430774725274726,-0.3120612747252747,-0.065182412087912,0.9406686923076923,0.1672352923076923,0.3289141538461538,0.0246964978021977,47.60051397,,0.0607362637362637,0.0417362637362637,650.158,651.157,-122.82535459,102.20840582,0.0,0.0,82.0,22.5,22.6,0.921,100,True
,3,300.0,2025-10-02 20:46:05.979000+00:00,2025-10-02 13:46:05.979,00:00:05.6,74765979,0.0,0.0,0.0,0.0,0.0,0.0,0.0,0.0,0.0,0.0,1.0,0.0,0.0,0.0,0.0,0.001,0.0,0.0,0.0,0.0,0.062011931707317,0.3197367195121951,-2.1432582926829267,-0.3109384268292683,-0.0585352951219512,0.940551231707317,0.2612710334146341,0.2449926463414634,0.0828592195121951,47.60051397,,0.0604024390243902,0.0414024390243902,650.158,651.157,-122.82535459,102.20840582,0.0,0.0,82.0,22.5,22.6,0.921,100,True
,4,400.0,2025-10-02 20:46:06.079000+00:00,2025-10-02 13:46:06.079,00:00:05.7,74766079,0.0,0.0,0.0,0.0,0.0,0.0,0.0,0.0,0.0,0.0,1.0,0.0,0.0,0.0,0.0,0.001,0.0,0.0,0.0,0.0,0.061762453125,0.32007103125,-2.1433512500000003,-0.3110126875,-0.056758103125,0.94028940625,-0.037568171875,0.22995221875,-0.02606325625,47.60051397,,0.06046875,0.042,650.158,651.157,-122.82535459,102.20840582,0.0,0.0,82.0,22.5,22.6,0.921,100,True
,5,500.0,2025-10-02 20:46:06.179000+00:00,2025-10-02 13:46:06.179,00:00:05.8,74766179,0.0,0.0,0.0,0.0,0.0,0.0,0.0,0.0,0.0,0.0,1.0,0.0,0.0,0.0,0.0,0.001,0.0,0.0,0.0,0.0,0.0619292710843373,0.3202989397590361,-2.143316987951807,-0.3121469156626506,-0.0567528277108433,0.94006378313253,-0.2153060096385541,0.1422560843373493,-0.0833893108433735,47.60051397,,0.06,0.042,650.158,651.157,-122.82535459,102.20840582,0.0,0.0,82.0,22.5,22.6,0.921,100,True
,6,600.0,2025-10-02 20:46:06.279000+00:00,2025-10-02 13:46:06.279,00:00:05.9,74766279,0.0,0.0,0.0,0.0,0.0,0.0,0.0,0.0,0.0,0.0,1.0,0.0,0.0,0.0,0.0,0.001,0.0,0.0,0.0,0.0,0.0623411360655737,0.3204702295081967,-2.1431916393442623,-0.3124600983606557,-0.0611926639344262,0.9399811475409836,-0.1775134340983606,0.0751466131147541,-0.101841075409836,47.60051397,,0.06,0.042,650.158,651.157,-122.82535459,102.20840582,0.0,0.0,82.0,22.5,22.6,0.921,100,True
,7,700.0,2025-10-02 20:46:06.379000+00:00,2025-10-02 13:46:06.379,00:00:06.0,74766379,0.0,0.0,0.0,0.0,0.0,0.0,0.0,0.0,0.0,0.0,1.0,0.0,0.0,0.0,0.0,0.001,0.0,0.0,0.0,0.0,0.0627814639344262,0.3205844371584699,-2.1430550273224043,-0.3119519016393443,-0.0657290027322404,0.9399188524590164,-0.0184070925683059,0.1140388535519125,-0.0393981245901639,47.60051397,,0.06,0.042,650.158,651.157,-122.82535459,102.20840582,0.0,0.0,82.0,22.5,22.6,0.921,100,True
,8,800.0,2025-10-02 20:46:06.479000+00:00,2025-10-02 13:46:06.479,00:00:06.1,74766479,0.0,0.0,0.0,0.0,0.0,0.0,0.0,0.0,0.0,0.0,1.0,0.0,0.0,0.0,0.0,0.001,0.0,0.0,0.0,0.0,0.063208428125,0.3206785833333333,-2.142919479166667,-0.3175020729166666,-0.0635317635416666,0.9394011770833334,-0.20619094546875,0.11716834375,-0.14480345625,47.60051397,,0.06,0.042,650.158,651.157,-122.82535459,102.20840582,0.0,0.0,82.0,22.5,22.6,0.921,100,True
,9,900.0,2025-10-02 20:46:06.579000+00:00,2025-10-02 13:46:06.579,00:00:06.2,74766579,0.0,0.0,0.0,0.0,0.0,0.0,0.0,0.0,0.0,0.0,1.0,0.0,0.0,0.0,0.0,0.001,0.0,0.0,0.0,0.0,0.0633123152173913,0.3207589673913043,-2.142883152173913,-0.3132107391304348,-0.057590575,0.9391350434782608,-0.1694519347826087,0.0977156184782608,-0.0381541760869565,47.60051397,,0.06,0.0410978260869565,650.158,651.157,-122.82535459,102.13932978,0.0,0.0,82.0,22.5,22.6,0.921,100,True
,10,1000.0,2025-10-02 20:46:06.679000+00:00,2025-10-02 13:46:06.679,00:00:06.3,74766679,0.0,0.0,0.0,0.0,0.0,0.0,0.0,0.0,0.0,0.0,1.0,0.0,0.0,0.0,0.0,0.001,0.0,0.0,0.0,0.0,0.0635783244186046,0.3207017441860465,-2.14280023255814,-0.3147699534883721,-0.0552560825581395,0.9390092906976744,-0.336324765116279,-0.0791227418604651,-0.1563333046511628,47.60051397,,0.0601976744186046,0.042,650.158,651.157,-122.82535459,102.13932978,0.0,0.0,82.0,22.5,22.6,0.921,100,True
,11,1100.0,2025-10-02 20:46:06.779000+00:00,2025-10-02 13:46:06.779,00:00:06.4,74766779,0.0,0.0,0.0,0.0,0.0,0.0,0.0,0.0,0.0,0.0,1.0,0.0,0.0,0.0,0.0,0.001,0.0,0.0,0.0,0.0,0.0639777923076923,0.3205458681318681,-2.142706373626374,-0.3109482417582417,-0.054274956043956,0.938882087912088,-0.0025722967032967,-0.0693792967032967,-0.0320066153846153,47.60051397,,0.0606593406593406,0.042,650.158,651.157,-122.82535459,102.13932978,0.0,0.0,82.0,22.5,22.6,0.921,100,True
,12,1200.0,2025-10-02 20:46:06.879000+00:00,2025-10-02 13:46:06.879,00:00:06.5,74766879,0.0,0.0,0.0,0.0,0.0,0.0,0.0,0.0,0.0,0.0,1.0,0.0,0.0,0.0,0.0,0.001,0.0,0.0,0.0,0.0,0.0640618303370786,0.3204164719101123,-2.1426755056179774,-0.3130798876404494,-0.0559633146067415,0.9388565168539326,0.1118651123595506,-0.0357551685393258,-0.0234761123595505,47.60051397,,0.06,0.0415505617977528,650.158,651.157,-122.82535459,102.13932978,0.0,0.0,82.0,22.5,22.6,0.921,100,True
,13,1300.0,2025-10-02 20:46:06.979000+00:00,2025-10-02 13:46:06.979,00:00:06.6,74766979,0.0,0.0,0.0,0.0,0.0,0.0,0.0,0.0,0.0,0.0,1.0,0.0,0.0,0.0,0.0,0.001,0.0,0.0,0.0,0.0,0.0637237277372262,0.3203143576642336,-2.1427854014598537,-0.3125315912408759,-0.0611049773722627,0.9389578686131388,0.3579651167883211,0.0419817489051094,0.1475831313868613,47.60051397,,0.06,0.041,650.158,651.157,-122.82535459,102.13932978,0.0,0.0,82.0,22.5,22.6,0.921,100,True
,14,1400.0,2025-10-02 20:46:07.079000+00:00,2025-10-02 13:46:07.079,00:00:06.7,74767079,0.0,0.0,0.0,0.0,0.0,0.0,0.0,0.0,0.0,0.0,1.0,0.0,0.0,0.0,0.0,0.001,0.0,0.0,0.0,0.0,0.0630793860215053,0.3202649139784946,-2.1429890322580647,-0.3123072473118279,-0.0641177322580645,0.939126688172043,0.1933110647311828,-0.0477567268817204,0.1417908043010752,47.60051397,,0.06,0.041,650.158,651.157,-122.82535459,102.13932978,0.0,0.0,82.0,22.5,22.6,0.9211505376344088,100,True
,15,1500.0,2025-10-02 20:46:07.179000+00:00,2025-10-02 13:46:07.179,00:00:06.8,74767179,0.0,0.0,0.0,0.0,0.0,0.0,0.0,0.0,0.0,0.0,1.0,0.0,0.0,0.0,0.0,0.001,0.0,0.0,0.0,0.0,0.0628245034090909,0.3202774545454545,-2.143049545454545,-0.3089239659090909,-0.0545050897727272,0.9394447613636364,-0.0295288317045454,0.1554793568181818,0.0231045784090909,47.60051397,,0.06,0.041,650.158,651.157,-122.82535459,102.13932978,0.0,0.0,82.0,22.5,22.6,0.922,100,True
,16,1600.0,2025-10-02 20:46:07.279000+00:00,2025-10-02 13:46:07.279,00:00:06.9,74767279,0.0,0.0,0.0,0.0,0.0,0.0,0.0,0.0,0.0,0.0,1.0,0.0,0.0,0.0,0.0,0.001,0.0,0.0,0.0,0.0,0.0628243258064516,0.3203076774193548,-2.1430587096774194,-0.3079746451612903,-0.0531481387096774,0.9395986451612904,-0.1425405483870967,0.0730305483870967,-0.0445745774193548,47.60051397,,0.06,0.041,650.158,651.157,-122.82535459,102.13932978,0.0,0.0,82.0,22.5,22.6,0.922,100,True
,17,1700.0,2025-10-02 20:46:07.379000+00:00,2025-10-02 13:46:07.379,00:00:07.0,74767379,0.0,0.0,0.0,0.0,0.0,0.0,0.0,0.0,0.0,0.0,1.0,0.0,0.0,0.0,0.0,0.001,0.0,0.0,0.0,0.0,0.0630585814814814,0.3204488148148148,-2.142996296296296,-0.3094649629629629,-0.0552841444444444,0.9397834814814816,-0.0602161851851851,0.0765984222222222,-0.0555281444444444,47.60051397,,0.06,0.0412962962962962,650.158,651.157,-122.82535459,102.13932978,0.0,0.0,82.0,22.5,22.6,0.922,100,True
,18,1800.0,2025-10-02 20:46:07.479000+00:00,2025-10-02 13:46:07.479,00:00:07.1,74767479,0.0,0.0,0.0,0.0,0.0,0.0,0.0,0.0,0.0,0.0,1.0,0.0,0.0,0.0,0.0,0.001,0.0,0.0,0.0,0.0,0.0633540885057471,0.3205132068965517,-2.1429382758620688,-0.3110479540229885,-0.0596075839080459,0.9398359540229884,0.1319510057471264,-0.0292034988505747,0.0195192218390804,47.60051397,,0.06,0.0419425287356321,650.158,651.157,-122.82535459,102.14118814034482,0.0,0.0,82.0,22.5,22.6,0.922,100,True
,19,1900.0,2025-10-02 20:46:07.579000+00:00,2025-10-02 13:46:07.579,00:00:07.2,74767579,0.0,0.0,0.0,0.0,0.0,0.0,0.0,0.0,0.0,0.0,1.0,0.0,0.0,0.0,0.0,0.001,0.0,0.0,0.0,0.0,0.063475764516129,0.3203324193548387,-2.14291,-0.3141725161290322,-0.0614632258064516,0.9396933548387096,-0.0057202741935483,-0.1348698322580645,-0.0589846806451612,47.60051397,,0.06,0.0411935483870967,650.158,651.157,-122.82535459,102.17166525,0.0,0.0,82.0,22.5,22.6,0.922,100,True
,20,2000.0,2025-10-02 20:46:07.679000+00:00,2025-10-02 13:46:07.679,00:00:07.3,74767679,0.0,0.0,0.0,0.0,0.0,0.0,0.0,0.0,0.0,0.0,1.0,0.0,0.0,0.0,0.0,0.001,0.0,0.0,0.0,0.0,0.0633521642857142,0.320146369047619,-2.1429486904761905,-0.3114847857142857,-0.058012619047619,0.9396424523809525,0.3958476904761904,-0.0412113059523809,0.0957527809523809,47.60051397,,0.060297619047619,0.0417023809523809,650.158,651.157,-122.82535459,102.17166525,0.0,0.0,82.0,22.5,22.6,0.922,100,True
,21,2100.0,2025-10-02 20:46:07.779000+00:00,2025-10-02 13:46:07.779,00:00:07.4,74767779,0.0,0.0,0.0,0.0,0.0,0.0,0.0,0.0,0.0,0.0,1.0,0.0,0.0,0.0,0.0,0.001,0.0,0.0,0.0,0.0,0.0625077528089887,0.3200762134831461,-2.143187415730337,-0.3108640561797752,-0.0537995314606741,0.939662011235955,0.5458474044943821,-0.0903362685393258,0.1000803123595505,47.60051397,,0.061,0.0414606741573033,650.158,651.157,-122.82535459,102.17166525,0.0,0.0,82.0,22.5,22.6,0.922,100,True
,22,2200.0,2025-10-02 20:46:07.879000+00:00,2025-10-02 13:46:07.879,00:00:07.5,74767879,0.0,0.0,0.0,0.0,0.0,0.0,0.0,0.0,0.0,0.0,1.0,0.0,0.0,0.0,0.0,0.001,0.0,0.0,0.0,0.0,0.0617751621052631,0.3201154631578947,-2.143414736842105,-0.309905,-0.0519893778947368,0.9397736105263158,0.3567336105263158,0.1397219821052631,0.1148832778947368,47.60051397,,0.0604526315789473,0.042,650.158,651.157,-122.82535459,102.17166525,0.0,0.0,82.0,22.5,22.6,0.922,100,True
,23,2300.0,2025-10-02 20:46:07.979000+00:00,2025-10-02 13:46:07.979,00:00:07.6,74767979,0.0,0.0,0.0,0.0,0.0,0.0,0.0,0.0,0.0,0.0,1.0,0.0,0.0,0.0,0.0,0.001,0.0,0.0,0.0,0.0,0.0613780319148936,0.3203087872340425,-2.1435448936170216,-0.3090222978723404,-0.0516327404255319,0.9399575212765956,0.2429631489361702,0.0742692436170212,0.0295064978723404,47.60051397,,0.06,0.0413936170212766,650.158,651.157,-122.82535459,102.17166525,0.0,0.0,82.0,22.5,22.6,0.922,100,True
,24,2400.0,2025-10-02 20:46:08.079000+00:00,2025-10-02 13:46:08.079,00:00:07.7,74768079,0.0,0.0,0.0,0.0,0.0,0.0,0.0,0.0,0.0,0.0,1.0,0.0,0.0,0.0,0.0,0.001,0.0,0.0,0.0,0.0,0.0612080542168674,0.3203461325301205,-2.1436075903614458,-0.3099754337349397,-0.0514203096385542,0.9399896626506024,-0.003425813253012,0.0145902819277108,-0.0312466084337349,47.60051397,,0.06,0.041,650.158,651.157,-122.82535459,102.17166525,0.0,0.0,82.0,22.5,22.6,0.922,100,True
,25,2500.0,2025-10-02 20:46:08.179000+00:00,2025-10-02 13:46:08.179,00:00:07.8,74768179,0.0,0.0,0.0,0.0,0.0,0.0,0.0,0.0,0.0,0.0,1.0,0.0,0.0,0.0,0.0,0.001,0.0,0.0,0.0,0.0,0.0612999822695035,0.3202719361702127,-2.143564609929078,-0.3086237375886525,-0.0533880985815602,0.9399456312056738,-0.1171438829787234,-0.0715332496453901,-0.1001298262411347,47.60051397,,0.06,0.0415673758865248,650.158,651.157,-122.82535459,102.17166525,0.0,0.0,82.0,22.5,22.6,0.922,100,True
,26,2600.0,2025-10-02 20:46:08.279000+00:00,2025-10-02 13:46:08.279,00:00:07.9,74768279,0.0,0.0,0.0,0.0,0.0,0.0,0.0,0.0,0.0,0.0,1.0,0.0,0.0,0.0,0.0,0.001,0.0,0.0,0.0,0.0,0.0614533225806451,0.3202174838709677,-2.1435006451612906,-0.3099069677419355,-0.0577522709677419,0.9399604838709678,-0.0546154451612903,-0.0737917612903225,-0.0485192580645161,47.60051397,,0.06,0.042,650.158,651.157,-122.82535459,102.17166525,0.0,0.0,82.0,22.5,22.6,0.922,100,True
,27,2700.0,2025-10-02 20:46:08.379000+00:00,2025-10-02 13:46:08.379,00:00:08.0,74768379,0.0,0.0,0.0,0.0,0.0,0.0,0.0,0.0,0.0,0.0,1.0,0.0,0.0,0.0,0.0,0.001,0.0,0.0,0.0,0.0,0.0613257139240506,0.3202466582278481,-2.143541518987342,-0.3111528860759494,-0.0594576177215189,0.940048848101266,0.2064354582278481,0.1722642708860759,0.1301902405063291,47.60051397,,0.0605822784810126,0.042,650.158,651.157,-122.82535459,102.17166525,0.0,0.0,82.0,22.5,22.6,0.922,100,True
,28,2800.0,2025-10-02 20:46:08.479000+00:00,2025-10-02 13:46:08.479,00:00:08.1,74768479,0.0,0.0,0.0,0.0,0.0,0.0,0.0,0.0,0.0,0.0,1.0,0.0,0.0,0.0,0.0,0.001,0.0,0.0,0.0,0.0,0.060846764893617,0.3204690319148936,-2.143699787234042,-0.3090443617021276,-0.0552942287234042,0.9401465638297872,0.0888448064893617,0.159579829787234,0.0698156457446808,47.60051397,,0.0602872340425531,0.042,650.158,651.157,-122.82535459,102.17166525,0.0,0.0,82.0,22.5,22.6,0.922,100,True
,29,2900.0,2025-10-02 20:46:08.579000+00:00,2025-10-02 13:46:08.579,00:00:08.2,74768579,0.0,0.0,0.0,0.0,0.0,0.0,0.0,0.0,0.0,0.0,1.0,0.0,0.0,0.0,0.0,0.001,0.0,0.0,0.0,0.0,0.0607669582417582,0.3207654065934066,-2.1437640659340658,-0.3137052527472527,-0.0552920494505494,0.9402006703296704,-0.1675123325274725,0.2309111208791208,-0.0051640032967033,47.60051397,,0.06,0.0411978021978022,650.158,651.157,-122.82535459,102.11745837,0.0,0.0,82.0,22.5,22.6,0.922,100,True
,30,3000.0,2025-10-02 20:46:08.679000+00:00,2025-10-02 13:46:08.679,00:00:08.3,74768679,0.0,0.0,0.0,0.0,0.0,0.0,0.0,0.0,0.0,0.0,1.0,0.0,0.0,0.0,0.0,0.001,0.0,0.0,0.0,0.0,0.0608541954545454,0.3208398787878788,-2.1437451515151515,-0.3120211666666667,-0.0582119878787878,0.9401088484848484,-0.0368280484848485,0.0844121242424242,-0.0290306151515151,47.60051397,,0.0606212121212121,0.041,650.158,651.157,-122.82535459,102.10409229,0.0,0.0,82.0,22.5,22.6,0.922,100,True
,31,3100.0,2025-10-02 20:46:08.779000+00:00,2025-10-02 13:46:08.779,00:00:08.4,74768779,0.0,0.0,0.0,0.0,0.0,0.0,0.0,0.0,0.0,0.0,1.0,0.0,0.0,0.0,0.0,0.001,0.0,0.0,0.0,0.0,0.0608884352112676,0.3208446056338028,-2.1437335211267605,-0.309342,-0.0570891154929577,0.9399835070422536,-0.0560953126760563,0.002767728169014,-0.0512483957746478,47.60051397,,0.0606478873239436,0.041,650.158,651.157,-122.82535459,102.10409229,0.0,0.0,82.0,22.5,22.6,0.922,100,True
,32,3200.0,2025-10-02 20:46:08.879000+00:00,2025-10-02 13:46:08.879,00:00:08.5,74768879,0.0,0.0,0.0,0.0,0.0,0.0,0.0,0.0,0.0,0.0,1.0,0.0,0.0,0.0,0.0,0.001,0.0,0.0,0.0,0.0,0.0608620493975903,0.320833891566265,-2.143743855421687,-0.3076712289156627,-0.0520363927710843,0.939838903614458,-0.2578879585542168,0.0344780638554216,-0.0658503144578313,47.60051397,,0.06,0.041,650.158,651.157,-122.82535459,102.10409229,0.0,0.0,82.0,22.5,22.6,0.922,100,True
,33,3300.0,2025-10-02 20:46:08.979000+00:00,2025-10-02 13:46:08.979,00:00:08.6,74768979,0.0,0.0,0.0,0.0,0.0,0.0,0.0,0.0,0.0,0.0,1.0,0.0,0.0,0.0,0.0,0.001,0.0,0.0,0.0,0.0,0.0608390309859154,0.320879485915493,-2.14377647887324,-0.308614176056338,-0.0534076014084507,0.9396144084507042,-0.0070643358450704,-0.0170070373239436,0.039668564084507,47.60051397,,0.06,0.0411760563380281,650.158,651.157,-122.82535459,102.10409229,0.0,0.0,82.0,22.5,22.6,0.922,100,True
,34,3400.0,2025-10-02 20:46:09.079000+00:00,2025-10-02 13:46:09.079,00:00:08.7,74769079,0.0,0.0,0.0,0.0,0.0,0.0,0.0,0.0,0.0,0.0,1.0,0.0,0.0,0.0,0.0,0.001,0.0,0.0,0.0,0.0,0.0608763549295774,0.3209534295774647,-2.143762394366197,-0.3112148802816901,-0.0567852070422535,0.9396200422535212,-0.0561713992253521,0.2787964133802817,0.0409496204225352,47.60051397,,0.06,0.0418802816901408,650.158,651.157,-122.82535459,102.10409229,0.0,0.0,82.0,22.5,22.6,0.922,100,True
,35,3500.0,2025-10-02 20:46:09.179000+00:00,2025-10-02 13:46:09.179,00:00:08.8,74769179,0.0,0.0,0.0,0.0,0.0,0.0,0.0,0.0,0.0,0.0,1.0,0.0,0.0,0.0,0.0,0.001,0.0,0.0,0.0,0.0,0.061187969117647,0.3211661764705882,-2.143705073529412,-0.3133224926470588,-0.0573792955882352,0.9397400073529412,-0.0645196,0.2436460955882353,0.0420418294117647,47.60051397,,0.06,0.0413897058823529,650.158,651.157,-122.82535459,102.10409229,0.0,0.0,82.0,22.5,22.6,0.922,100,True
,36,3600.0,2025-10-02 20:46:09.279000+00:00,2025-10-02 13:46:09.279,00:00:08.9,74769279,0.0,0.0,0.0,0.0,0.0,0.0,0.0,0.0,0.0,0.0,1.0,0.0,0.0,0.0,0.0,0.001,0.0,0.0,0.0,0.0,0.0613383775193798,0.3213446434108527,-2.143666356589148,-0.3131556201550387,-0.0568816674418604,0.9397507829457364,-0.0137070620155038,0.1125368007751938,0.0389255286821705,47.60051397,,0.06,0.041,650.158,651.157,-122.82535459,102.10409229,0.0,0.0,82.0,22.5,22.6,0.922,100,True
,37,3700.0,2025-10-02 20:46:09.379000+00:00,2025-10-02 13:46:09.379,00:00:09.0,74769379,0.0,0.0,0.0,0.0,0.0,0.0,0.0,0.0,0.0,0.0,1.0,0.0,0.0,0.0,0.0,0.001,0.0,0.0,0.0,0.0,0.0612617516853932,0.3214366404494382,-2.14366,-0.3123043932584269,-0.0559921696629213,0.9395999887640448,0.0749446,-0.0068675449438202,0.0323695101123595,47.60051397,,0.06,0.0412022471910112,650.158,651.157,-122.82535459,102.10409229,0.0,0.0,82.0,22.5,22.6,0.922,100,True
,38,3800.0,2025-10-02 20:46:09.479000+00:00,2025-10-02 13:46:09.479,00:00:09.1,74769479,0.0,0.0,0.0,0.0,0.0,0.0,0.0,0.0,0.0,0.0,1.0,0.0,0.0,0.0,0.0,0.001,0.0,0.0,0.0,0.0,0.061241,0.3214236666666666,-2.14366,-0.3147133333333333,-0.0551529666666666,0.939405,0.0476219933333333,0.0251851999999999,-0.0124096666666666,47.60051397,,0.06,0.042,650.158,651.157,-122.82535459,102.08744444333333,0.0,0.0,82.0,22.5,22.6,0.922,100,True
,39,3900.0,2025-10-02 20:46:09.579000+00:00,2025-10-02 13:46:09.579,00:00:09.2,74769579,0.0,0.0,0.0,0.0,0.0,0.0,0.0,0.0,0.0,0.0,1.0,0.0,0.0,0.0,0.0,0.001,0.0,0.0,0.0,0.0,0.06125784,0.3213792666666666,-2.143636666666666,-0.3107129333333333,-0.0552929266666666,0.9393182,-0.036709884,0.0433033066666666,-0.0660988866666666,47.60051397,,0.06,0.0415333333333333,650.158,651.157,-122.82535459,102.05414875,0.0,0.0,82.0,22.5,22.6,0.922,100,True
,40,4000.0,2025-10-02 20:46:09.679000+00:00,2025-10-02 13:46:09.679,00:00:09.3,74769679,0.0,0.0,0.0,0.0,0.0,0.0,0.0,0.0,0.0,0.0,1.0,0.0,0.0,0.0,0.0,0.001,0.0,0.0,0.0,0.0,0.0613983782608695,0.3215159130434782,-2.143598695652174,-0.3127718260869565,-0.0541225695652173,0.9394208695652174,-0.1529232608695652,0.118047652173913,-0.0589082260869565,47.60051397,,0.06,0.041,650.158,651.157,-122.82535459,102.05414875,0.0,0.0,82.0,22.5,22.6,0.922,100,True
,41,4100.0,2025-10-02 20:46:09.779000+00:00,2025-10-02 13:46:09.779,00:00:09.4,74769779,0.0,0.0,0.0,0.0,0.0,0.0,0.0,0.0,0.0,0.0,1.0,0.0,0.0,0.0,0.0,0.001,0.0,0.0,0.0,0.0,0.0616882913043478,0.3216022173913043,-2.143498695652174,-0.3136470434782609,-0.0608332434782608,0.9394860869565216,-0.1627626086956521,-0.0182675869565217,0.0044567956521739,47.60051397,,0.06,0.041,650.158,651.157,-122.82535459,102.05414875,0.0,0.0,82.0,22.5,22.6,0.922,100,True
,42,4200.0,2025-10-02 20:46:09.879000+00:00,2025-10-02 13:46:09.879,00:00:09.5,74769879,0.0,0.0,0.0,0.0,0.0,0.0,0.0,0.0,0.0,0.0,1.0,0.0,0.0,0.0,0.0,0.001,0.0,0.0,0.0,0.0,0.0617618707865168,0.3215244157303371,-2.1434576404494385,-0.3132482921348314,-0.058672608988764,0.939437393258427,-0.0370434939325842,-0.0920188797752809,-0.0643164348314606,47.60051397,,0.06,0.041,650.158,651.157,-122.82535459,102.05414875,0.0,0.0,82.0,22.5,22.6,0.922,100,True
,43,4300.0,2025-10-02 20:46:09.979000+00:00,2025-10-02 13:46:09.979,00:00:09.6,74769979,0.0,0.0,0.0,0.0,0.0,0.0,0.0,0.0,0.0,0.0,1.0,0.0,0.0,0.0,0.0,0.001,0.0,0.0,0.0,0.0,0.0616728074468085,0.3212515531914893,-2.1434852127659574,-0.3125011276595744,-0.0584752744680851,0.9393255106382978,0.0032599326595744,-0.0911856606382978,0.0170944755319148,47.60051397,,0.0608404255319148,0.0418404255319148,650.158,651.157,-122.82535459,102.05414875,0.0,0.0,82.0,22.5,22.6,0.922,100,True
,44,4400.0,2025-10-02 20:46:10.079000+00:00,2025-10-02 13:46:10.079,00:00:09.7,74770079,0.0,0.0,0.0,0.0,0.0,0.0,0.0,0.0,0.0,0.0,1.0,0.0,0.0,0.0,0.0,0.001,0.0,0.0,0.0,0.0,0.0615249167938931,0.3210521679389312,-2.143535419847328,-0.3124930839694656,-0.0559769748091603,0.9392745572519084,0.140950662442748,-0.1364972015267175,0.0279050290076335,47.60051397,,0.0603511450381679,0.0413511450381679,650.158,651.157,-122.82535459,102.05414875,0.0,0.0,82.0,22.5,22.6,0.922,100,True
,45,4500.0,2025-10-02 20:46:10.179000+00:00,2025-10-02 13:46:10.179,00:00:09.8,74770179,0.0,0.0,0.0,0.0,0.0,0.0,0.0,0.0,0.0,0.0,1.0,0.0,0.0,0.0,0.0,0.001,0.0,0.0,0.0,0.0,0.0614891689655172,0.3209004827586206,-2.143547586206896,-0.3113001379310344,-0.0529385551724137,0.9393798965517242,0.0412809034482758,-0.0306485793103448,0.0355664896551724,47.60051397,,0.06,0.041,650.158,651.157,-122.82535459,102.05414875,0.0,0.0,82.0,22.5,22.6,0.922,100,True
,46,4600.0,2025-10-02 20:46:10.279000+00:00,2025-10-02 13:46:10.279,00:00:09.9,74770279,0.0,0.0,0.0,0.0,0.0,0.0,0.0,0.0,0.0,0.0,1.0,0.0,0.0,0.0,0.0,0.001,0.0,0.0,0.0,0.0,0.0616369123188405,0.3208152753623188,-2.1435060144927536,-0.3112978768115942,-0.0539055471014492,0.9395341376811596,-0.1690563014492753,0.0148584094202898,0.0194374116666666,47.60051397,,0.06,0.041,650.158,651.157,-122.82535459,102.05414875,0.0,0.0,82.0,22.5,22.6,0.922,100,True
,47,4700.0,2025-10-02 20:46:10.379000+00:00,2025-10-02 13:46:10.379,00:00:10.0,74770379,0.0,0.0,0.0,0.0,0.0,0.0,0.0,0.0,0.0,0.0,1.0,0.0,0.0,0.0,0.0,0.001,0.0,0.0,0.0,0.0,0.0619182,0.3207123333333333,-2.14344,-0.3110603333333333,-0.0591742666666666,0.9396446666666668,-0.233346,-0.0447985666666666,-0.0104661133333333,47.60051397,,0.06,0.041,650.158,651.157,-122.82535459,102.05414875,0.0,0.0,82.0,22.5,22.6,0.922,100,True
,48,4800.0,2025-10-02 20:46:10.479000+00:00,2025-10-02 13:46:10.479,00:00:10.1,74770479,0.0,0.0,0.0,0.0,0.0,0.0,0.0,0.0,0.0,0.0,1.0,0.0,0.0,0.0,0.0,0.001,0.0,0.0,0.0,0.0,0.0622346779999999,0.32047016,-2.1433968,-0.31020414,-0.0597979619999999,0.93969128,-0.0499378679999999,-0.120723994,0.0037336079999999,47.60051397,,0.06,0.041,650.158,651.157,-122.82535459,102.0356652346,0.0,0.0,82.0,22.5,22.6,0.922,100,True
,49,4900.0,2025-10-02 20:46:10.579000+00:00,2025-10-02 13:46:10.579,00:00:10.2,74770579,0.0,0.0,0.0,0.0,0.0,0.0,0.0,0.0,0.0,0.0,1.0,0.0,0.0,0.0,0.0,0.001,0.0,0.0,0.0,0.0,0.0622434623529411,0.320126505882353,-2.14342,-0.3124271764705882,-0.0537359870588235,0.9396360470588236,-0.0314461435294117,-0.1266903011764706,0.0082074258823529,47.60051397,,0.06,0.041,650.158,651.157,-122.82535459,102.01014038,0.0,0.0,82.0,22.5,22.6,0.922,100,True
,50,5000.0,2025-10-02 20:46:10.679000+00:00,2025-10-02 13:46:10.679,00:00:10.3,74770679,0.0,0.0,0.0,0.0,0.0,0.0,0.0,0.0,0.0,0.0,1.0,0.0,0.0,0.0,0.0,0.001,0.0,0.0,0.0,0.0,0.0622222884892086,0.3198801870503597,-2.1434241007194244,-0.3129882230215827,-0.0567368697841726,0.9396365683453236,-0.1714739568345323,-0.0918132978417266,-0.0442302863309352,47.60051397,,0.06,0.041410071942446,650.158,651.157,-122.82535459,102.01014038,0.0,0.0,82.0,22.5,22.6,0.922,100,True
,51,5100.0,2025-10-02 20:46:10.779000+00:00,2025-10-02 13:46:10.779,00:00:10.4,74770779,0.0,0.0,0.0,0.0,0.0,0.0,0.0,0.0,0.0,0.0,1.0,0.0,0.0,0.0,0.0,0.001,0.0,0.0,0.0,0.0,0.06226094,0.3197075058823529,-2.1434215294117647,-0.3124713058823529,-0.0580952717647058,0.9397325294117648,-0.2014530117647058,-0.0922106564705882,-0.0830516494117647,47.60051397,,0.06,0.042,650.158,651.157,-122.82535459,102.01014038,0.0,0.0,82.0,22.5,22.6,0.922,100,True
,52,5200.0,2025-10-02 20:46:10.879000+00:00,2025-10-02 13:46:10.879,00:00:10.5,74770879,0.0,0.0,0.0,0.0,0.0,0.0,0.0,0.0,0.0,0.0,1.0,0.0,0.0,0.0,0.0,0.001,0.0,0.0,0.0,0.0,0.0624984375,0.319409375,-2.1433675,-0.311113875,-0.0590500625,0.939870625,-0.194197875,-0.03918055,-0.0315264375,47.60051397,,0.06,0.042,650.158,651.157,-122.82535459,102.01014038,0.0,0.0,82.0,22.5,22.6,0.922,100,True
,53,5300.0,2025-10-02 20:46:10.979000+00:00,2025-10-02 13:46:10.979,00:00:10.6,74770979,0.0,0.0,0.0,0.0,0.0,0.0,0.0,0.0,0.0,0.0,1.0,0.0,0.0,0.0,0.0,0.001,0.0,0.0,0.0,0.0,0.0628214896907216,0.319310618556701,-2.1432696907216497,-0.311183030927835,-0.0618787422680412,0.9400181443298968,-0.2470425979381443,0.048594055670103,-0.00514906185567,47.60051397,,0.06,0.042,650.158,651.157,-122.82535459,102.01014038,0.0,0.0,82.0,22.5,22.6,0.922,100,True
,54,5400.0,2025-10-02 20:46:11.079000+00:00,2025-10-02 13:46:11.079,00:00:10.7,74771079,0.0,0.0,0.0,0.0,0.0,0.0,0.0,0.0,0.0,0.0,1.0,0.0,0.0,0.0,0.0,0.001,0.0,0.0,0.0,0.0,0.0630801409448818,0.3192376850393701,-2.1432,-0.3109513543307086,-0.0629085511811023,0.9401309606299212,-0.1635089322834645,0.0742031858267716,-0.0880840173228346,47.60051397,,0.06,0.042,650.158,651.157,-122.82535459,102.01014038,0.0,0.0,82.0,22.5,22.6,0.922,100,True
,55,5500.0,2025-10-02 20:46:11.179000+00:00,2025-10-02 13:46:11.179,00:00:10.8,74771179,0.0,0.0,0.0,0.0,0.0,0.0,0.0,0.0,0.0,0.0,1.0,0.0,0.0,0.0,0.0,0.001,0.0,0.0,0.0,0.0,0.0632341673913043,0.3191233152173913,-2.1431657608695653,-0.3109385326086956,-0.0601620239130434,0.940184152173913,-0.0912760467391304,0.0219788152173913,-0.0778465695652173,47.60051397,,0.06,0.0417717391304347,650.158,651.157,-122.82535459,102.01014038,0.0,0.0,82.0,22.5,22.6,0.9222282608695652,100,True
,56,5600.0,2025-10-02 20:46:11.279000+00:00,2025-10-02 13:46:11.279,00:00:10.9,74771279,0.0,0.0,0.0,0.0,0.0,0.0,0.0,0.0,0.0,0.0,1.0,0.0,0.0,0.0,0.0,0.001,0.0,0.0,0.0,0.0,0.0635414,0.3190688,-2.143054,-0.3069274,-0.0607835,0.9403318,-0.1264235,-0.23155124,-0.0179359,47.60051397,,0.06,0.0412,650.158,651.157,-122.82535459,102.01014038,0.0,0.0,82.0,22.5,22.6,0.923,100,True
,57,5700.0,2025-10-02 20:46:11.379000+00:00,2025-10-02 13:46:11.379,00:00:11.0,74771379,0.0,0.0,0.0,0.0,0.0,0.0,0.0,0.0,0.0,0.0,1.0,0.0,0.0,0.0,0.0,0.001,0.0,0.0,0.0,0.0,0.0634889862068965,0.3191336275862069,-2.143067793103448,-0.3116149862068965,-0.0592141896551724,0.9404311103448276,-0.0783321206896551,0.0097720703448275,-0.0246252103448275,47.60051397,,0.06,0.0418896551724137,650.158,651.157,-122.82535459,102.01014038,0.0,0.0,82.0,22.5,22.6,0.923,100,True
,58,5800.0,2025-10-02 20:46:11.479000+00:00,2025-10-02 13:46:11.479,00:00:11.1,74771479,0.0,0.0,0.0,0.0,0.0,0.0,0.0,0.0,0.0,0.0,1.0,0.0,0.0,0.0,0.0,0.001,0.0,0.0,0.0,0.0,0.0634806,0.319144,-2.14307,-0.312365,-0.0589631,0.940447,-0.0706375,0.0483838,-0.0256955,47.60051397,,0.06,0.042,650.158,651.157,-122.82535459,102.03501138896,0.0,0.0,82.0,22.5,22.6,0.923,100,True
,59,5900.0,2025-10-02 20:46:11.579000+00:00,2025-10-02 13:46:11.579,00:00:11.2,74771579,0.0,0.0,0.0,0.0,0.0,0.0,0.0,0.0,0.0,0.0,1.0,0.0,0.0,0.0,0.0,0.001,0.0,0.0,0.0,0.0,0.0633399632653061,0.319081387755102,-2.143124183673469,-0.3112560408163265,-0.0574679918367346,0.940347663265306,-0.0249727462244898,0.0487757285714285,0.0126009183673469,47.60051397,,0.06,0.042,650.158,651.157,-122.82535459,102.04715081,0.0,0.0,82.0,22.5,22.6,0.923,100,True
,60,6000.0,2025-10-02 20:46:11.679000+00:00,2025-10-02 13:46:11.679,00:00:11.3,74771679,0.0,0.0,0.0,0.0,0.0,0.0,0.0,0.0,0.0,0.0,1.0,0.0,0.0,0.0,0.0,0.001,0.0,0.0,0.0,0.0,0.0632306365079365,0.3189383333333333,-2.143193888888889,-0.3114108888888889,-0.0569173992063492,0.940178880952381,-0.0315085678571428,-0.0529416111111111,0.0081601841269841,47.60051397,,0.0604841269841269,0.042,650.158,651.157,-122.82535459,102.04715081,0.0,0.0,82.0,22.5,22.6,0.923,100,True
,61,6100.0,2025-10-02 20:46:11.779000+00:00,2025-10-02 13:46:11.779,00:00:11.4,74771779,0.0,0.0,0.0,0.0,0.0,0.0,0.0,0.0,0.0,0.0,1.0,0.0,0.0,0.0,0.0,0.001,0.0,0.0,0.0,0.0,0.0634366944444444,0.3187016666666666,-2.1431716666666665,-0.3118393888888889,-0.0598570944444444,0.940048,-0.0753957888888889,-0.0804977888888888,-0.0786151833333333,47.60051397,,0.0606111111111111,0.042,650.158,651.157,-122.82535459,102.04715081,0.0,0.0,82.0,22.5,22.6,0.923,100,True
,62,6200.0,2025-10-02 20:46:11.879000+00:00,2025-10-02 13:46:11.879,00:00:11.5,74771879,0.0,0.0,0.0,0.0,0.0,0.0,0.0,0.0,0.0,0.0,1.0,0.0,0.0,0.0,0.0,0.001,0.0,0.0,0.0,0.0,0.0636986159090909,0.318674375,-2.1431260227272726,-0.3126091818181818,-0.060318075,0.9401878409090908,0.1079330874999999,0.1914302295454545,-0.0396324772727272,47.60051397,,0.06,0.042,650.158,651.157,-122.82535459,102.04715081,0.0,0.0,82.0,22.5,22.6,0.923,100,True
,63,6300.0,2025-10-02 20:46:11.979000+00:00,2025-10-02 13:46:11.979,00:00:11.6,74771979,0.0,0.0,0.0,0.0,0.0,0.0,0.0,0.0,0.0,0.0,1.0,0.0,0.0,0.0,0.0,0.001,0.0,0.0,0.0,0.0,0.06347669,0.3189366333333333,-2.1432396666666667,-0.3107514,-0.0556686566666666,0.9403834,0.0616912166666666,0.1957844333333333,0.0127188766666666,47.60051397,,0.06,0.042,650.158,651.157,-122.82535459,102.04715081,0.0,0.0,82.0,22.5,22.6,0.923,100,True
,64,6400.0,2025-10-02 20:46:12.079000+00:00,2025-10-02 13:46:12.079,00:00:11.7,74772079,0.0,0.0,0.0,0.0,0.0,0.0,0.0,0.0,0.0,0.0,1.0,0.0,0.0,0.0,0.0,0.001,0.0,0.0,0.0,0.0,0.0633714404411764,0.319056044117647,-2.143289852941177,-0.3070392794117647,-0.0524597044117647,0.9404064191176472,-0.0392981120588235,0.0490306647058823,-0.0630712948529411,47.60051397,,0.06,0.0415073529411764,650.158,651.157,-122.82535459,102.04715081,0.0,0.0,82.0,22.5,22.6,0.923,100,True
,65,6500.0,2025-10-02 20:46:12.179000+00:00,2025-10-02 13:46:12.179,00:00:11.8,74772179,0.0,0.0,0.0,0.0,0.0,0.0,0.0,0.0,0.0,0.0,1.0,0.0,0.0,0.0,0.0,0.001,0.0,0.0,0.0,0.0,0.0634139536764705,0.3191197205882353,-2.1432886029411766,-0.3074151470588235,-0.0532219433823529,0.9404040220588236,-0.0996030742647058,-0.0060227830882352,-0.0608337463235294,47.60051397,,0.06,0.0412279411764705,650.158,651.157,-122.82535459,102.04715081,0.0,0.0,82.0,22.5,22.6,0.923,100,True
,66,6600.0,2025-10-02 20:46:12.279000+00:00,2025-10-02 13:46:12.279,00:00:11.9,74772279,0.0,0.0,0.0,0.0,0.0,0.0,0.0,0.0,0.0,0.0,1.0,0.0,0.0,0.0,0.0,0.001,0.0,0.0,0.0,0.0,0.0636379977941176,0.3191123676470588,-2.1432518382352943,-0.3144769117647059,-0.0636946639705882,0.940378286764706,-0.3982477654411764,0.0467708198529411,0.0681702977941176,47.60051397,,0.06,0.0419632352941176,650.158,651.157,-122.82535459,102.04715081,0.0,0.0,82.0,22.5,22.6,0.923,100,True
,67,6700.0,2025-10-02 20:46:12.379000+00:00,2025-10-02 13:46:12.379,00:00:12.0,74772379,0.0,0.0,0.0,0.0,0.0,0.0,0.0,0.0,0.0,0.0,1.0,0.0,0.0,0.0,0.0,0.001,0.0,0.0,0.0,0.0,0.0640027838709677,0.3194513440860215,-2.1431716129032257,-0.3148337956989247,-0.060214429032258,0.94038223655914,-0.0549816801075268,0.1047123225806451,0.1091213279569892,47.60051397,,0.06,0.042,650.158,651.157,-122.82535459,102.04715081,0.0,0.0,82.0,22.5,22.6,0.923,100,True
,68,6800.0,2025-10-02 20:46:12.479000+00:00,2025-10-02 13:46:12.479,00:00:12.1,74772479,0.0,0.0,0.0,0.0,0.0,0.0,0.0,0.0,0.0,0.0,1.0,0.0,0.0,0.0,0.0,0.001,0.0,0.0,0.0,0.0,0.0639571375,0.319558,-2.1431987500000003,-0.31043125,-0.058345625,0.940298,0.02341025125,-0.11713275,0.0468036375,47.60051397,,0.06,0.041875,650.158,651.157,-122.82535459,102.04848772875,0.0,0.0,82.0,22.5,22.6,0.923,100,True
,69,6900.0,2025-10-02 20:46:12.579000+00:00,2025-10-02 13:46:12.579,00:00:12.2,74772579,0.0,0.0,0.0,0.0,0.0,0.0,0.0,0.0,0.0,0.0,1.0,0.0,0.0,0.0,0.0,0.001,0.0,0.0,0.0,0.0,0.0638580744186046,0.3195315581395349,-2.1432197674418605,-0.3103517906976744,-0.0603705186046511,0.9401413023255816,0.1248480604651162,0.1375489860465116,0.0967856511627907,47.60051397,,0.06,0.0411860465116279,650.158,651.157,-122.82535459,102.05784616,0.0,0.0,82.0,22.5,22.6,0.923,100,True
,70,7000.0,2025-10-02 20:46:12.679000+00:00,2025-10-02 13:46:12.679,00:00:12.3,74772679,0.0,0.0,0.0,0.0,0.0,0.0,0.0,0.0,0.0,0.0,1.0,0.0,0.0,0.0,0.0,0.001,0.0,0.0,0.0,0.0,0.0634049168539326,0.3195423707865168,-2.143370224719101,-0.3093510786516854,-0.0568048865168539,0.9399854269662922,0.1094753011235954,-0.0898474921348314,0.1478366629213483,47.60051397,,0.06,0.042,650.158,651.157,-122.82535459,102.05784616,0.0,0.0,82.0,22.5,22.6,0.923,100,True
,71,7100.0,2025-10-02 20:46:12.779000+00:00,2025-10-02 13:46:12.779,00:00:12.4,74772779,0.0,0.0,0.0,0.0,0.0,0.0,0.0,0.0,0.0,0.0,1.0,0.0,0.0,0.0,0.0,0.001,0.0,0.0,0.0,0.0,0.06302201,0.3194253111111111,-2.1434874444444443,-0.3106850555555556,-0.0592841344444444,0.9398883333333332,0.3632409666666666,-0.18511103,0.1877042888888889,47.60051397,,0.0595444444444444,0.0415444444444444,650.158,651.157,-122.82535459,102.05784616,0.0,0.0,82.0,22.5,22.6,0.923,100,True
,72,7200.0,2025-10-02 20:46:12.879000+00:00,2025-10-02 13:46:12.879,00:00:12.5,74772879,0.0,0.0,0.0,0.0,0.0,0.0,0.0,0.0,0.0,0.0,1.0,0.0,0.0,0.0,0.0,0.001,0.0,0.0,0.0,0.0,0.0623737733333333,0.3191916,-2.1436876666666667,-0.3078798,-0.0591305,0.9398156333333332,0.1093214333333332,-0.14216611,0.0518200933333333,47.60051397,,0.0595666666666666,0.0415666666666666,650.158,651.157,-122.82535459,102.05784616,0.0,0.0,82.0,22.5,22.6,0.923,100,True
,73,7300.0,2025-10-02 20:46:12.979000+00:00,2025-10-02 13:46:12.979,00:00:12.6,74772979,0.0,0.0,0.0,0.0,0.0,0.0,0.0,0.0,0.0,0.0,1.0,0.0,0.0,0.0,0.0,0.001,0.0,0.0,0.0,0.0,0.0621735007518797,0.3191779473684211,-2.1437654135338344,-0.3079893533834587,-0.0594528593984962,0.9399567669172932,-0.0735991110526315,0.107134369924812,0.0061933015037594,47.60051397,,0.06,0.0415413533834586,650.158,651.157,-122.82535459,102.05784616,0.0,0.0,82.0,22.5,22.6,0.923,100,True
,74,7400.0,2025-10-02 20:46:13.079000+00:00,2025-10-02 13:46:13.079,00:00:12.7,74773079,0.0,0.0,0.0,0.0,0.0,0.0,0.0,0.0,0.0,0.0,1.0,0.0,0.0,0.0,0.0,0.001,0.0,0.0,0.0,0.0,0.0623029906976744,0.3193993720930232,-2.143737209302325,-0.3111310697674418,-0.0614045697674418,0.9402110697674418,0.00322058,0.2360021395348837,0.0132972441860465,47.60051397,,0.06,0.0413255813953488,650.158,651.157,-122.82535459,102.05784616,0.0,0.0,82.0,22.5,22.6,0.923,100,True
,75,7500.0,2025-10-02 20:46:13.179000+00:00,2025-10-02 13:46:13.179,00:00:12.8,74773179,0.0,0.0,0.0,0.0,0.0,0.0,0.0,0.0,0.0,0.0,1.0,0.0,0.0,0.0,0.0,0.001,0.0,0.0,0.0,0.0,0.0624174538461538,0.3197711538461538,-2.1436946153846157,-0.3103472307692307,-0.0617319461538461,0.940469923076923,-0.0274421973076923,0.1890016923076923,0.0339425692307692,47.60051397,,0.06,0.042,650.158,651.157,-122.82535459,102.05784616,0.0,0.0,82.0,22.5,22.6,0.923,100,True
,76,7600.0,2025-10-02 20:46:13.279000+00:00,2025-10-02 13:46:13.279,00:00:12.9,74773279,0.0,0.0,0.0,0.0,0.0,0.0,0.0,0.0,0.0,0.0,1.0,0.0,0.0,0.0,0.0,0.001,0.0,0.0,0.0,0.0,0.0623940128712871,0.3200891485148515,-2.1437050495049506,-0.3100735445544554,-0.0610684574257425,0.9405421683168316,-0.0262797630693069,0.1894116534653465,0.0740303732673267,47.60051397,,0.06,0.042,650.158,651.157,-122.82535459,102.05784616,0.0,0.0,82.0,22.5,22.6,0.923,100,True
,77,7700.0,2025-10-02 20:46:13.379000+00:00,2025-10-02 13:46:13.379,00:00:13.0,74773379,0.0,0.0,0.0,0.0,0.0,0.0,0.0,0.0,0.0,0.0,1.0,0.0,0.0,0.0,0.0,0.001,0.0,0.0,0.0,0.0,0.0624079422764227,0.3202369268292683,-2.1437140650406503,-0.3110227154471545,-0.0590619235772357,0.9404626585365854,-0.0539674195934959,0.1318804146341463,0.0136937975609756,47.60051397,,0.06,0.0415934959349593,650.158,651.157,-122.82535459,102.05784616,0.0,0.0,82.0,22.5,22.6,0.923,100,True
,78,7800.0,2025-10-02 20:46:13.479000+00:00,2025-10-02 13:46:13.479,00:00:13.1,74773479,0.0,0.0,0.0,0.0,0.0,0.0,0.0,0.0,0.0,0.0,1.0,0.0,0.0,0.0,0.0,0.001,0.0,0.0,0.0,0.0,0.0624901722891566,0.3202965481927711,-2.1436939759036147,-0.3118856506024096,-0.0590789524096385,0.940379873493976,-0.119676126506024,0.0481938686746988,-0.0442507951807228,47.60051397,,0.06,0.041,650.158,651.157,-122.82535459,102.06085870289157,0.0,0.0,82.0,22.5,22.6,0.923,100,True
,79,7900.0,2025-10-02 20:46:13.579000+00:00,2025-10-02 13:46:13.579,00:00:13.2,74773579,0.0,0.0,0.0,0.0,0.0,0.0,0.0,0.0,0.0,0.0,1.0,0.0,0.0,0.0,0.0,0.001,0.0,0.0,0.0,0.0,0.0626993289156626,0.3203393192771084,-2.1435975903614457,-0.3134880602409638,-0.0578835909638554,0.9403238493975904,-0.0430321506024096,0.0472585674698795,-0.1356315180722891,47.60051397,,0.06,0.041,650.158,651.157,-122.82535459,102.07201626915662,0.0,0.0,82.0,22.5,22.6,0.923,100,True
,80,8000.0,2025-10-02 20:46:13.679000+00:00,2025-10-02 13:46:13.679,00:00:13.3,74773679,0.0,0.0,0.0,0.0,0.0,0.0,0.0,0.0,0.0,0.0,1.0,0.0,0.0,0.0,0.0,0.001,0.0,0.0,0.0,0.0,0.062895914516129,0.3203737096774193,-2.1435206451612903,-0.310723564516129,-0.0535745967741935,0.9401829516129032,-0.0011027434677419,0.0482981774193548,-0.0340623064516129,47.60051397,,0.06,0.0419838709677419,650.158,651.157,-122.82535459,102.07636772,0.0,0.0,82.0,22.5,22.6,0.923,100,True
,81,8100.0,2025-10-02 20:46:13.779000+00:00,2025-10-02 13:46:13.779,00:00:13.4,74773779,0.0,0.0,0.0,0.0,0.0,0.0,0.0,0.0,0.0,0.0,1.0,0.0,0.0,0.0,0.0,0.001,0.0,0.0,0.0,0.0,0.0629424586956521,0.3204503804347826,-2.1435040217391306,-0.3085924673913043,-0.0622412260869565,0.9400807608695652,-0.146487,0.100990754347826,-0.089851575,47.60051397,,0.06,0.0411195652173913,650.158,651.157,-122.82535459,102.07636772,0.0,0.0,82.0,22.5,22.6,0.923,100,True
,82,8200.0,2025-10-02 20:46:13.879000+00:00,2025-10-02 13:46:13.879,00:00:13.5,74773879,0.0,0.0,0.0,0.0,0.0,0.0,0.0,0.0,0.0,0.0,1.0,0.0,0.0,0.0,0.0,0.001,0.0,0.0,0.0,0.0,0.0629562344444444,0.3203892222222222,-2.143474777777778,-0.3123889777777778,-0.06416816,0.9398659777777778,-0.0664233222222222,0.0375316377777777,-0.0220501,47.60051397,,0.0602111111111111,0.042,650.158,651.157,-122.82535459,102.07636772,0.0,0.0,82.0,22.5,22.621111111111112,0.923,100,True
,83,8300.0,2025-10-02 20:46:13.979000+00:00,2025-10-02 13:46:13.979,00:00:13.6,74773979,0.0,0.0,0.0,0.0,0.0,0.0,0.0,0.0,0.0,0.0,1.0,0.0,0.0,0.0,0.0,0.001,0.0,0.0,0.0,0.0,0.062747,0.320647,-2.1435666666666666,-0.311828,-0.0605650666666666,0.9399406666666666,0.1781169333333333,0.1900708333333333,0.1384225,47.60051397,,0.0603333333333333,0.0416666666666666,650.158,651.157,-122.82535459,102.07636772,0.0,0.0,82.0,22.5,22.7,0.923,100,True
,84,8400.0,2025-10-02 20:46:14.079000+00:00,2025-10-02 13:46:14.079,00:00:13.7,74774079,0.0,0.0,0.0,0.0,0.0,0.0,0.0,0.0,0.0,0.0,1.0,0.0,0.0,0.0,0.0,0.001,0.0,0.0,0.0,0.0,0.0624592866666666,0.3207460666666666,-2.143668,-0.3100365333333333,-0.0594294066666666,0.9398128,0.1070786266666666,0.0488954066666666,0.0242946,47.60051397,,0.0594666666666666,0.041,650.158,651.157,-122.82535459,102.07636772,0.0,0.0,82.0,22.5,22.65333333333333,0.923,100,True
,85,8500.0,2025-10-02 20:46:14.179000+00:00,2025-10-02 13:46:14.179,00:00:13.8,74774179,0.0,0.0,0.0,0.0,0.0,0.0,0.0,0.0,0.0,0.0,1.0,0.0,0.0,0.0,0.0,0.001,0.0,0.0,0.0,0.0,0.0622916829787234,0.3208792978723404,-2.143727659574468,-0.3095902978723404,-0.0581376361702127,0.939738170212766,0.150795,0.0883448787234042,0.0950126936170212,47.60051397,,0.0594468085106382,0.041,650.158,651.157,-122.82535459,102.07636772,0.0,0.0,82.0,22.5,22.6,0.923,100,True
,86,8600.0,2025-10-02 20:46:14.279000+00:00,2025-10-02 13:46:14.279,00:00:13.9,74774279,0.0,0.0,0.0,0.0,0.0,0.0,0.0,0.0,0.0,0.0,1.0,0.0,0.0,0.0,0.0,0.001,0.0,0.0,0.0,0.0,0.0621390831683168,0.3210787821782178,-2.143801683168317,-0.313393306930693,-0.0615134,0.9397407821782178,0.0636799216831683,0.1188717425742574,0.0216344217821782,47.60051397,,0.0595742574257425,0.0415742574257425,650.158,651.157,-122.82535459,102.07636772,0.0,0.0,82.0,22.5,22.6,0.923,100,True
,87,8700.0,2025-10-02 20:46:14.379000+00:00,2025-10-02 13:46:14.379,00:00:14.0,74774379,0.0,0.0,0.0,0.0,0.0,0.0,0.0,0.0,0.0,0.0,1.0,0.0,0.0,0.0,0.0,0.001,0.0,0.0,0.0,0.0,0.0620221814814814,0.3211989259259259,-2.14384,-0.3132743703703703,-0.0575625666666666,0.9396883703703705,0.0972362162962963,0.118229037037037,-0.0411392148148148,47.60051397,,0.06,0.0412962962962962,650.158,651.157,-122.82535459,102.07636772,0.0,0.0,82.0,22.5,22.6,0.923,100,True
,88,8800.0,2025-10-02 20:46:14.479000+00:00,2025-10-02 13:46:14.479,00:00:14.1,74774479,0.0,0.0,0.0,0.0,0.0,0.0,0.0,0.0,0.0,0.0,1.0,0.0,0.0,0.0,0.0,0.001,0.0,0.0,0.0,0.0,0.0619788672316384,0.3212661073446328,-2.1438314124293782,-0.3114490847457627,-0.0536955768361581,0.9396658644067796,0.0161663672316384,0.0578833807909604,-0.0635821717514124,47.60051397,,0.06,0.041,650.158,651.157,-122.82535459,102.10463248497176,0.0,0.0,82.0,22.5,22.6,0.923,100,True
,89,8900.0,2025-10-02 20:46:14.579000+00:00,2025-10-02 13:46:14.579,00:00:14.2,74774579,0.0,0.0,0.0,0.0,0.0,0.0,0.0,0.0,0.0,0.0,1.0,0.0,0.0,0.0,0.0,0.001,0.0,0.0,0.0,0.0,0.061945929378531,0.3213412485875706,-2.14382011299435,-0.310008406779661,-0.0520993621468926,0.9396709491525423,-0.1448765706214689,-0.0214700655367231,-0.088342397740113,47.60051397,,0.06,0.041,650.158,651.157,-122.82535459,102.14182296519772,0.0,0.0,82.0,22.5,22.6,0.923,100,True
,90,9000.0,2025-10-02 20:46:14.679000+00:00,2025-10-02 13:46:14.679,00:00:14.3,74774679,0.0,0.0,0.0,0.0,0.0,0.0,0.0,0.0,0.0,0.0,1.0,0.0,0.0,0.0,0.0,0.001,0.0,0.0,0.0,0.0,0.0621967362637362,0.3212517362637362,-2.1437472527472528,-0.3076208021978022,-0.057963989010989,0.939555021978022,0.0221766186813186,0.136228,-0.0864771428571428,47.60051397,,0.06,0.042,650.158,651.157,-122.82535459,102.14219487,0.0,0.0,82.0,22.5,22.6,0.923,100,True
,91,9100.0,2025-10-02 20:46:14.779000+00:00,2025-10-02 13:46:14.779,00:00:14.4,74774779,0.0,0.0,0.0,0.0,0.0,0.0,0.0,0.0,0.0,0.0,1.0,0.0,0.0,0.0,0.0,0.001,0.0,0.0,0.0,0.0,0.0618335806451612,0.3215005806451613,-2.143887096774193,-0.3100331612903226,-0.0532483709677419,0.9396495806451614,0.423607129032258,0.4225425161290322,0.1265941451612903,47.60051397,,0.06,0.042,650.158,651.157,-122.82535459,102.14219487,0.0,0.0,82.0,22.5,22.6,0.923,100,True
,92,9200.0,2025-10-02 20:46:14.879000+00:00,2025-10-02 13:46:14.879,00:00:14.5,74774879,0.0,0.0,0.0,0.0,0.0,0.0,0.0,0.0,0.0,0.0,1.0,0.0,0.0,0.0,0.0,0.001,0.0,0.0,0.0,0.0,0.0609472216867469,0.3220431807228915,-2.1441144578313254,-0.3172099518072289,-0.0537503385542168,0.9398616987951808,0.2659533067469879,0.3723245325301204,0.0633759795180722,47.60051397,,0.06,0.0417349397590361,650.158,651.157,-122.82535459,102.14219487,0.0,0.0,82.0,22.5,22.6,0.923,100,True
,93,9300.0,2025-10-02 20:46:14.979000+00:00,2025-10-02 13:46:14.979,00:00:14.6,74774979,0.0,0.0,0.0,0.0,0.0,0.0,0.0,0.0,0.0,0.0,1.0,0.0,0.0,0.0,0.0,0.001,0.0,0.0,0.0,0.0,0.0608524130434782,0.3223057065217391,-2.144154891304348,-0.312239347826087,-0.0560945815217391,0.939769804347826,-0.0539083609782608,0.0277847641304347,0.0433201108695652,47.60051397,,0.0604239130434782,0.041,650.158,651.157,-122.82535459,102.14219487,0.0,0.0,82.0,22.5,22.6,0.923,100,True
,94,9400.0,2025-10-02 20:46:15.079000+00:00,2025-10-02 13:46:15.079,00:00:14.7,74775079,0.0,0.0,0.0,0.0,0.0,0.0,0.0,0.0,0.0,0.0,1.0,0.0,0.0,0.0,0.0,0.001,0.0,0.0,0.0,0.0,0.0612177958333333,0.3225390520833333,-2.144075104166667,-0.31172834375,-0.058461284375,0.9397416041666666,-0.1031074010416666,0.15450371875,0.0119355,47.60051397,,0.061,0.0414895833333333,650.158,651.157,-122.82535459,102.14219487,0.0,0.0,82.0,22.5,22.6,0.923,100,True
,95,9500.0,2025-10-02 20:46:15.179000+00:00,2025-10-02 13:46:15.179,00:00:14.8,74775179,0.0,0.0,0.0,0.0,0.0,0.0,0.0,0.0,0.0,0.0,1.0,0.0,0.0,0.0,0.0,0.001,0.0,0.0,0.0,0.0,0.06138095546875,0.3228585859375,-2.144034140625,-0.3150698125,-0.055527234375,0.939798828125,-0.15886451171875,0.201553828125,-0.07552095546875,47.60051397,,0.0606015625,0.042,650.158,651.157,-122.82535459,102.14219487,0.0,0.0,82.0,22.5,22.6,0.923,100,True
,96,9600.0,2025-10-02 20:46:15.279000+00:00,2025-10-02 13:46:15.279,00:00:14.9,74775279,0.0,0.0,0.0,0.0,0.0,0.0,0.0,0.0,0.0,0.0,1.0,0.0,0.0,0.0,0.0,0.001,0.0,0.0,0.0,0.0,0.0615850052631578,0.3229385684210526,-2.1439727368421053,-0.3134702631578947,-0.0562165368421052,0.939618747368421,-0.2707439157894736,0.3106866947368421,-0.100328627368421,47.60051397,,0.0602421052631578,0.0417578947368421,650.158,651.157,-122.82535459,102.14219487,0.0,0.0,82.0,22.5,22.62421052631579,0.923,100,True
,97,9700.0,2025-10-02 20:46:15.379000+00:00,2025-10-02 13:46:15.379,00:00:15.0,74775379,0.0,0.0,0.0,0.0,0.0,0.0,0.0,0.0,0.0,0.0,1.0,0.0,0.0,0.0,0.0,0.001,0.0,0.0,0.0,0.0,0.0619131511627907,0.3230287441860465,-2.143858837209302,-0.3126258372093023,-0.052863992248062,0.9394188449612404,-0.4910330542635658,0.2273666666666666,-0.0881528465116278,47.60051397,,0.0607829457364341,0.0412170542635658,650.158,651.157,-122.82535459,102.14219487,0.0,0.0,82.0,22.5,22.7,0.923,100,True
,98,9800.0,2025-10-02 20:46:15.479000+00:00,2025-10-02 13:46:15.479,00:00:15.1,74775479,0.0,0.0,0.0,0.0,0.0,0.0,0.0,0.0,0.0,0.0,1.0,0.0,0.0,0.0,0.0,0.001,0.0,0.0,0.0,0.0,0.062975476744186,0.3225171162790698,-2.1435332558139537,-0.3085002558139534,-0.0485318217054263,0.9388754341085273,-1.5162082480620154,0.1136333333333333,-0.5962658697674418,47.60051397,,0.0600077519379844,0.0419922480620155,650.158,651.157,-122.82535459,102.14219487,0.0,0.0,82.0,22.5,22.7,0.923,100,True
,99,9900.0,2025-10-02 20:46:15.579000+00:00,2025-10-02 13:46:15.579,00:00:15.2,74775579,0.0,0.0,0.0,0.0,0.0,0.0,0.0,0.0,0.0,0.0,1.0,0.0,0.0,0.0,0.0,0.001,0.0,0.0,0.0,0.0,0.063498985,0.32274315,-2.143403,-0.31248865,-0.02330108,0.9391427,0.4381665,0.1347637,0.20635615,47.60051397,,0.06,0.04195,650.158,651.157,-122.82535459,102.22045115,0.0,0.0,82.0,22.5,22.6,0.923,100,True
,100,10000.0,2025-10-02 20:46:15.679000+00:00,2025-10-02 13:46:15.679,00:00:15.3,74775679,0.0,0.0,0.0,0.0,0.0,0.0,0.0,0.0,0.0,0.0,1.0,0.0,0.0,0.0,0.0,0.001,0.0,0.0,0.0,0.0,0.0632288183333333,0.3229337055555555,-2.1434363333333333,-0.3120625388888888,-0.0487808577777777,0.9392615888888888,0.3960276111111111,0.2899492555555555,0.1694244833333333,47.60051397,,0.06,0.0413944444444444,650.158,651.157,-122.82535459,102.22045115,0.0,0.0,82.0,22.5,22.6,0.923,100,True
,101,10100.0,2025-10-02 20:46:15.779000+00:00,2025-10-02 13:46:15.779,00:00:15.4,74775779,0.0,0.0,0.0,0.0,0.0,0.0,0.0,0.0,0.0,0.0,1.0,0.0,0.0,0.0,0.0,0.001,0.0,0.0,0.0,0.0,0.0626705527777777,0.3230818888888889,-2.14356875,-0.3125003055555555,-0.0648020479166666,0.939277326388889,0.4235140972222222,0.2169700208333333,0.1541931944444444,47.60051397,,0.06,0.0412013888888888,650.158,651.157,-122.82535459,102.22045115,0.0,0.0,82.0,22.5,22.62013888888889,0.923,100,True
,102,10200.0,2025-10-02 20:46:15.879000+00:00,2025-10-02 13:46:15.879,00:00:15.5,74775879,0.0,0.0,0.0,0.0,0.0,0.0,0.0,0.0,0.0,0.0,1.0,0.0,0.0,0.0,0.0,0.001,0.0,0.0,0.0,0.0,0.0614069416666666,0.3231263333333333,-2.14394375,-0.3150530833333333,-0.05766600625,0.9390405208333332,0.6214627083333333,-0.4146195625,0.1920904166666666,47.60051397,,0.06,0.0418958333333333,650.158,651.157,-122.82535459,102.22045115,0.0,0.0,82.0,22.5,22.68958333333333,0.923,100,True
,103,10300.0,2025-10-02 20:46:15.979000+00:00,2025-10-02 13:46:15.979,00:00:15.6,74775979,0.0,0.0,0.0,0.0,0.0,0.0,0.0,0.0,0.0,0.0,1.0,0.0,0.0,0.0,0.0,0.001,0.0,0.0,0.0,0.0,0.0583624916666666,0.3220910104166667,-2.1449347916666666,-0.3128657916666666,-0.0528622354166666,0.9384470104166668,0.7879699583333333,-0.2341426458333333,0.227606414375,47.60051397,,0.06,0.041,650.158,651.157,-122.82535459,102.22045115,0.0,0.0,82.0,22.5,22.69270833333333,0.923,100,True
,104,10400.0,2025-10-02 20:46:16.079000+00:00,2025-10-02 13:46:16.079,00:00:15.7,74776079,0.0,0.0,0.0,0.0,0.0,0.0,0.0,0.0,0.0,0.0,1.0,0.0,0.0,0.0,0.0,0.001,0.0,0.0,0.0,0.0,0.0576637111111111,0.3212803333333333,-2.145227777777777,-0.3079296666666666,-0.0487682666666666,0.9382306666666668,-0.2586293333333333,-0.2394501111111111,-0.0296797422222222,47.60051397,,0.06,0.041,650.158,651.157,-122.82535459,102.22045115,0.0,0.0,82.0,22.5,22.61111111111111,0.923,100,True
,105,10500.0,2025-10-02 20:46:16.179000+00:00,2025-10-02 13:46:16.179,00:00:15.8,74776179,0.0,0.0,0.0,0.0,0.0,0.0,0.0,0.0,0.0,0.0,1.0,0.0,0.0,0.0,0.0,0.001,0.0,0.0,0.0,0.0,0.0584577594936708,0.3214801139240506,-2.145010506329114,-0.3124976835443038,-0.0533100405063291,0.9389703797468354,-0.5832946329113924,0.2141464734177215,-0.1932302531645569,47.60051397,,0.0601518987341772,0.0411518987341772,650.158,651.157,-122.82535459,102.22045115,0.0,0.0,82.0,22.5,22.7,0.923,100,True
,106,10600.0,2025-10-02 20:46:16.279000+00:00,2025-10-02 13:46:16.279,00:00:15.9,74776279,0.0,0.0,0.0,0.0,0.0,0.0,0.0,0.0,0.0,0.0,1.0,0.0,0.0,0.0,0.0,0.001,0.0,0.0,0.0,0.0,0.0593559387755102,0.3214570612244898,-2.1447585714285715,-0.3105767959183673,-0.0595029285714285,0.9392980408163264,-0.2413624897959183,-0.0390073102040816,-0.1890890959183673,47.60051397,,0.061,0.0417755102040816,650.158,651.157,-122.82535459,102.22045115,0.0,0.0,82.02244897959183,22.5,22.7,0.923,100,True
,107,10700.0,2025-10-02 20:46:16.379000+00:00,2025-10-02 13:46:16.379,00:00:16.0,74776379,0.0,0.0,0.0,0.0,0.0,0.0,0.0,0.0,0.0,0.0,1.0,0.0,0.0,0.0,0.0,0.001,0.0,0.0,0.0,0.0,0.0595675714285714,0.3218420952380952,-2.1446633333333334,-0.3117489047619047,-0.0574714999999999,0.9397769523809524,-0.2804760952380952,-0.0856103714285714,-0.0895712047619047,47.60051397,,0.061,0.041095238095238,650.158,651.157,-122.82535459,102.22045115,0.0,0.0,82.09047619047618,22.5,22.7,0.923,100,True
,108,10800.0,2025-10-02 20:46:16.479000+00:00,2025-10-02 13:46:16.479,00:00:16.1,74776479,0.0,0.0,0.0,0.0,0.0,0.0,0.0,0.0,0.0,0.0,1.0,0.0,0.0,0.0,0.0,0.001,0.0,0.0,0.0,0.0,0.0606063955056179,0.321546202247191,-2.144360112359551,-0.3120782359550561,-0.0607023741573033,0.9396285168539328,-0.707976224719101,-0.0262036247191011,-0.2429978887640449,47.60051397,,0.0600337078651685,0.041,650.158,651.157,-122.82535459,102.22045115,0.0,0.0,82.1,22.5,22.7,0.923,100,True
,109,10900.0,2025-10-02 20:46:16.579000+00:00,2025-10-02 13:46:16.579,00:00:16.2,74776579,0.0,0.0,0.0,0.0,0.0,0.0,0.0,0.0,0.0,0.0,1.0,0.0,0.0,0.0,0.0,0.001,0.0,0.0,0.0,0.0,0.0619404333333333,0.3219437901234568,-2.1439944444444445,-0.3121677530864197,-0.0554495666666666,0.9399797901234568,-0.3283181975308641,0.0983068432098765,-0.2144158765432098,47.60051397,,0.06,0.041,650.158,651.157,-122.82535459,102.23058926,0.0,0.0,82.0,22.5,22.7,0.923,100,True
,110,11000.0,2025-10-02 20:46:16.679000+00:00,2025-10-02 13:46:16.679,00:00:16.3,74776679,0.0,0.0,0.0,0.0,0.0,0.0,0.0,0.0,0.0,0.0,1.0,0.0,0.0,0.0,0.0,0.001,0.0,0.0,0.0,0.0,0.062977874074074,0.3220917037037037,-2.1437,-0.3123733518518518,-0.0605688999999999,0.9399013703703704,-0.8739199629629629,-0.1783388907407407,-0.2652192222222222,47.60051397,,0.06,0.041,650.158,651.157,-122.82535459,102.23058926,0.0,0.0,82.02407407407408,22.5,22.7,0.9232407407407408,100,True
,111,11100.0,2025-10-02 20:46:16.779000+00:00,2025-10-02 13:46:16.779,00:00:16.4,74776779,0.0,0.0,0.0,0.0,0.0,0.0,0.0,0.0,0.0,0.0,1.0,0.0,0.0,0.0,0.0,0.001,0.0,0.0,0.0,0.0,0.0647070172413793,0.3215095172413793,-2.1432310344827585,-0.3134528448275862,-0.0759393017241379,0.939345396551724,-1.3759370344827586,-0.4567484310344827,-0.4403154008620689,47.60051397,,0.0601551724137931,0.041,650.158,651.157,-122.82535459,102.23058926,0.0,0.0,82.08448275862068,22.5,22.7,0.924,100,True
,112,11200.0,2025-10-02 20:46:16.879000+00:00,2025-10-02 13:46:16.879,00:00:16.5,74776879,0.0,0.0,0.0,0.0,0.0,0.0,0.0,0.0,0.0,0.0,1.0,0.0,0.0,0.0,0.0,0.001,0.0,0.0,0.0,0.0,0.0659959954545454,0.3206260227272727,-2.1429127272727277,-0.3078577727272727,-0.0690038681818181,0.9386951818181818,-0.1699253636363636,-0.5862014999999999,-0.0041009034090909,47.60051397,,0.061,0.041,650.158,651.157,-122.82535459,102.23058926,0.0,0.0,82.0,22.5,22.7,0.924,100,True
,113,11300.0,2025-10-02 20:46:16.979000+00:00,2025-10-02 13:46:16.979,00:00:16.6,74776979,0.0,0.0,0.0,0.0,0.0,0.0,0.0,0.0,0.0,0.0,1.0,0.0,0.0,0.0,0.0,0.001,0.0,0.0,0.0,0.0,0.0654191075757575,0.3187089090909091,-2.143080909090909,-0.3110212878787878,-0.127983303030303,0.9377309545454544,1.315812787878788,-3.213909090909091,0.1075142424242424,47.60051397,,0.0608939393939393,0.0411060606060606,650.158,651.157,-122.82535459,102.23058926,0.0,0.0,82.0,22.5,22.7,0.924,100,True
,114,11400.0,2025-10-02 20:46:17.079000+00:00,2025-10-02 13:46:17.079,00:00:16.7,74777079,0.0,0.0,0.0,0.0,0.0,0.0,0.0,0.0,0.0,0.0,1.0,0.0,0.0,0.0,0.0,0.001,0.0,0.0,0.0,0.0,0.0645863045454545,0.3163725454545454,-2.1434445454545457,-0.3060447727272727,-0.1212711818181818,0.9372377727272728,-0.4117387272727273,0.9724545454545456,-0.2096554545454545,47.60051397,,0.0601363636363636,0.0418636363636363,650.158,651.157,-122.82535459,102.23058926,0.0,0.0,82.0,22.5,22.7,0.924,100,True
,115,11500.0,2025-10-02 20:46:17.179000+00:00,2025-10-02 13:46:17.179,00:00:16.8,74777179,0.0,0.0,0.0,0.0,0.0,0.0,0.0,0.0,0.0,0.0,1.0,0.0,0.0,0.0,0.0,0.001,0.0,0.0,0.0,0.0,0.0650699626373626,0.3179965934065933,-2.143401868131868,-0.3061492197802198,-0.0672320219780219,0.9397081208791208,-0.3864691648351648,1.2867773626373626,-0.0384600725274724,47.60051397,,0.06,0.042,650.158,651.157,-122.82535459,102.23058926,0.0,0.0,82.0,22.5,22.7,0.924,100,True
ride_48,116,11600.0,2025-10-02 20:46:17.279000+00:00,2025-10-02 13:46:17.279,00:00:16.9,74777279,0.0,0.0,0.0,0.0,0.0,0.0,0.0,0.0,0.0,0.0,1.0,0.0,0.0,0.0,0.0,0.001,0.0,0.0,0.0,0.0,0.0676618,0.3192,-2.14276,-0.30718,-0.0842471,0.941062,-0.413181,1.16935,0.0631581,47.60051397,0.0,0.06,0.042,650.158,651.157,-122.82535459,102.23058926,0.0,0.0,82.0,22.5,22.7,0.924,100,True
,117,11700.0,2025-10-02 20:46:17.379000+00:00,2025-10-02 13:46:17.379,00:00:17.0,74777379,0.0,0.0,0.0,0.0,0.0,0.0,0.0,0.0,0.0,0.0,1.0,0.0,0.0,0.0,0.0,0.001,0.0,0.0,0.0,0.0,0.0672462472527472,0.3209618351648352,-2.1429826373626373,-0.3106536703296703,-0.0702063758241758,0.9419506813186812,0.002845156043956,0.2265803956043955,-0.0524999109890109,47.60051397,,0.06,0.042,650.158,651.157,-122.82535459,102.23058926,0.0,0.0,82.0131868131868,22.5,22.7,0.924,100,True
,118,11800.0,2025-10-02 20:46:17.479000+00:00,2025-10-02 13:46:17.479,00:00:17.1,74777479,0.0,0.0,0.0,0.0,0.0,0.0,0.0,0.0,0.0,0.0,1.0,0.0,0.0,0.0,0.0,0.001,0.0,0.0,0.0,0.0,0.0676107,0.3200473846153846,-2.14297,-0.3087412307692307,-0.0623476846153846,0.9407162307692308,-0.59048,-0.4765279230769231,-0.2774257692307692,47.60051397,,0.06,0.0415384615384615,650.158,651.157,-122.82535459,102.23574104692308,0.0,0.0,82.07692307692307,22.5,22.7,0.924,100,True
,119,11900.0,2025-10-02 20:46:17.579000+00:00,2025-10-02 13:46:17.579,00:00:17.2,74777579,0.0,0.0,0.0,0.0,0.0,0.0,0.0,0.0,0.0,0.0,1.0,0.0,0.0,0.0,0.0,0.001,0.0,0.0,0.0,0.0,0.0675656361702127,0.3189009361702127,-2.1427391489361702,-0.3079163617021276,-0.1001810765957446,0.9399822127659574,0.2911425531914893,-1.1624079148936168,-0.013647659574468,47.60051397,,0.06,0.0409574468085106,650.158,651.157,-122.82535459,102.25291367,0.0,0.0,82.03191489361701,22.5,22.7,0.924,100,True
,120,12000.0,2025-10-02 20:46:17.679000+00:00,2025-10-02 13:46:17.679,00:00:17.3,74777679,0.0,0.0,0.0,0.0,0.0,0.0,0.0,0.0,0.0,0.0,1.0,0.0,0.0,0.0,0.0,0.001,0.0,0.0,0.0,0.0,0.0645611629213483,0.3168910561797752,-2.1429777528089886,-0.3039601235955056,-0.1859631348314606,0.9395119101123596,2.2556106067415733,-0.8905458426966293,0.994975191011236,47.60051397,,0.06,0.043,650.158,651.157,-122.82535459,102.25291367,0.0,0.0,82.1,22.5,22.7,0.924,100,True
,121,12100.0,2025-10-02 20:46:17.779000+00:00,2025-10-02 13:46:17.779,00:00:17.4,74777779,0.0,0.0,0.0,0.0,0.0,0.0,0.0,0.0,0.0,0.0,1.0,0.0,0.0,0.0,0.0,0.001,0.0,0.0,0.0,0.0,0.0612229825581395,0.3177913255813954,-2.143953139534884,-0.3112238139534883,-0.1113599976744186,0.9410410813953488,-0.8082763837209306,1.5363373255813957,-0.1878405930232558,47.60051397,,0.06,0.041360465116279,650.158,651.157,-122.82535459,102.25291367,0.0,0.0,82.0453488372093,22.5,22.7,0.924,100,True
,122,12200.0,2025-10-02 20:46:17.879000+00:00,2025-10-02 13:46:17.879,00:00:17.5,74777879,0.0,0.0,0.0,0.0,0.0,0.0,0.0,0.0,0.0,0.0,1.0,0.0,0.0,0.0,0.0,0.001,0.0,0.0,0.0,0.0,0.0634188760416666,0.31887359375,-2.143647083333333,-0.30450121875,-0.0977903854166666,0.9416599791666668,-0.9907762083333334,2.6202139583333333,0.1809701354166666,47.60051397,,0.0593645833333333,0.0412708333333333,650.158,651.157,-122.82535459,102.25291367,0.0,0.0,82.0,22.5,22.7,0.924,100,True
,123,12300.0,2025-10-02 20:46:17.979000+00:00,2025-10-02 13:46:17.979,00:00:17.6,74777979,0.0,0.0,0.0,0.0,0.0,0.0,0.0,0.0,0.0,0.0,1.0,0.0,0.0,0.0,0.0,0.001,0.0,0.0,0.0,0.0,0.0634692529411764,0.3215406470588235,-2.14389,-0.3142184117647059,-0.0709296882352941,0.9427893529411764,0.0234927647058823,-0.1350841176470587,0.1539390705882353,47.60051397,,0.0597647058823529,0.042,650.158,651.157,-122.82535459,102.25291367,0.0,0.0,82.0764705882353,22.5,22.7,0.924,100,True
,124,12400.0,2025-10-02 20:46:18.079000+00:00,2025-10-02 13:46:18.079,00:00:17.7,74778079,0.0,0.0,0.0,0.0,0.0,0.0,0.0,0.0,0.0,0.0,1.0,0.0,0.0,0.0,0.0,0.001,0.0,0.0,0.0,0.0,0.0632149767676767,0.3217900303030303,-2.1439368686868687,-0.3131140909090909,-0.0884182636363636,0.9420701111111112,0.3849048787878788,-0.1779349696969696,0.1772829151515151,47.60051397,,0.06,0.0411919191919191,650.158,651.157,-122.82535459,102.25291367,0.0,0.0,82.1,22.5,22.7,0.924,100,True
,125,12500.0,2025-10-02 20:46:18.179000+00:00,2025-10-02 13:46:18.179,00:00:17.8,74778179,0.0,0.0,0.0,0.0,0.0,0.0,0.0,0.0,0.0,0.0,1.0,0.0,0.0,0.0,0.0,0.001,0.0,0.0,0.0,0.0,0.0627084071428571,0.3222122857142857,-2.1440385714285712,-0.3122116428571428,-0.1246015714285714,0.9418032857142856,-0.1471025714285714,0.6302881785714286,-0.3311301428571429,47.60051397,,0.06,0.0416428571428571,650.158,651.157,-122.82535459,102.25291367,0.0,0.0,82.1,22.5,22.7,0.924,100,True
,126,12600.0,2025-10-02 20:46:18.279000+00:00,2025-10-02 13:46:18.279,00:00:17.9,74778279,0.0,0.0,0.0,0.0,0.0,0.0,0.0,0.0,0.0,0.0,1.0,0.0,0.0,0.0,0.0,0.001,0.0,0.0,0.0,0.0,0.0630079979166666,0.3225562291666666,-2.143983958333333,-0.3135953333333333,-0.101414703125,0.9411755104166666,-0.2724958229166666,0.5158663125,-0.1620986770833333,47.60051397,,0.06,0.0414270833333333,650.158,651.157,-122.82535459,102.25291367,0.0,0.0,82.1,22.5,22.7,0.924,100,True
,127,12700.0,2025-10-02 20:46:18.379000+00:00,2025-10-02 13:46:18.379,00:00:18.0,74778379,0.0,0.0,0.0,0.0,0.0,0.0,0.0,0.0,0.0,0.0,1.0,0.0,0.0,0.0,0.0,0.001,0.0,0.0,0.0,0.0,0.0633265104166666,0.32121846875,-2.1441419791666667,-0.3106646770833333,0.0024671197916666,0.93935921875,-0.5302812499999999,-0.1128354895833333,-0.03202959375,47.60051397,,0.06,0.041,650.158,651.157,-122.82535459,102.25291367,0.0,0.0,82.1,22.5,22.7,0.924,100,True
,128,12800.0,2025-10-02 20:46:18.479000+00:00,2025-10-02 13:46:18.479,00:00:18.1,74778479,0.0,0.0,0.0,0.0,0.0,0.0,0.0,0.0,0.0,0.0,1.0,0.0,0.0,0.0,0.0,0.001,0.0,0.0,0.0,0.0,0.06380111375,0.3216625875,-2.143922,-0.31453785,-0.00666140875,0.939605475,-0.4520103749999999,0.413740375,-0.151452375,47.60051397,,0.06,0.041,650.158,651.157,-122.82535459,102.25291367,0.0,0.0,82.1,22.5,22.7,0.924,100,True
,129,12900.0,2025-10-02 20:46:18.579000+00:00,2025-10-02 13:46:18.579,00:00:18.2,74778579,0.0,0.0,0.0,0.0,0.0,0.0,0.0,0.0,0.0,0.0,1.0,0.0,0.0,0.0,0.0,0.001,0.0,0.0,0.0,0.0,0.0647605219780219,0.3228575934065933,-2.1434825274725275,-0.3202806153846154,-0.0420718637362637,0.9401727142857144,0.5788442967032967,0.420707923076923,0.3498174615384614,47.60051397,,0.06,0.041,650.158,651.157,-122.82535459,102.25347840747251,0.0,0.0,82.1,22.5,22.7,0.924,100,True
,130,13000.0,2025-10-02 20:46:18.679000+00:00,2025-10-02 13:46:18.679,00:00:18.3,74778679,0.0,0.0,0.0,0.0,0.0,0.0,0.0,0.0,0.0,0.0,1.0,0.0,0.0,0.0,0.0,0.001,0.0,0.0,0.0,0.0,0.0641366887640449,0.3234045168539325,-2.1436665168539326,-0.3132357640449438,-0.0442770404494382,0.939975584269663,-0.147834,0.3126607415730337,-0.0263647842696629,47.60051397,,0.0600112359550561,0.041,650.158,651.157,-122.82535459,102.25353284,0.0,0.0,82.1,22.5,22.7,0.924,100,True
