ms_today;input_voltage;temp_mos_max;temp_mos_1;temp_mos_2;temp_mos_3;temp_motor;current_motor;current_in;d_axis_current;q_axis_current;erpm;duty_cycle;amp_hours_used;amp_hours_charged;watt_hours_used;watt_hours_charged;tachometer;tachometer_abs;encoder_position;fault_code;vesc_id;d_axis_voltage;q_axis_voltage;ms_today_setup;amp_hours_setup;amp_hours_charged_setup;watt_hours_setup;watt_hours_charged_setup;battery_level;battery_wh_tot;current_in_setup;current_motor_setup;speed_meters_per_sec;tacho_meters;tacho_abs_meters;num_vescs;ms_today_imu;roll;pitch;yaw;accX;accY;accZ;gyroX;gyroY;gyroZ;gnss_posTime;gnss_lat;gnss_lon;gnss_alt;gnss_gVel;gnss_vVel;gnss_hAcc;gnss_vAcc;
65283925;76.6;19;18.7;0;19;18.1;0;0;0;0;0;0.001;0;0;0;0.0022;-11;79;235.8;0;1;-0.008;0.075;65283924;0;0;0;0.0022;0.537;337.923;0;0;0;-0.103;0.744;1;65248822;0.0310937;0.345221;0.261759;-0.336152;-0.0224539;0.928431;-0.0192589;0.0461802;-0.240998;65283000;47.59843303;-122.83079051;92.69771484;0.00000000;0.00000000;3.53888440;3.46698880;
65284017;76.6;19;18.7;0;19;18.1;0;0;0;0;0;0.001;0;0;0;0.0022;-11;79;235.8;0;1;-0.008;0.075;65283924;0;0;0;0.0022;0.537;337.923;0;0;0;-0.103;0.744;1;65283969;0.0303985;0.349524;0.406447;-0.338514;-0.0262904;0.929324;-0.0706375;0.11838;-0.0264119;65283000;47.59843303;-122.83079051;92.69771484;0.00000000;0.00000000;3.53888440;3.46698880;
65284110;76.6;19;18.7;0;19;18.1;0;0;0;0;0;0.001;0;0;0;0.0022;-11;79;235.8;0;1;-0.008;0.075;65284017;0;0;0;0.0022;0.537;337.919;0;0;0;-0.103;0.744;1;65284058;0.0304248;0.349521;0.40692;-0.339844;-0.0223704;0.929285;-0.0889909;-0.0237536;-0.234165;65283720;47.59838580;-122.83073720;104.30000305;0.00000000;0.00000000;20.00000000;1.00000000;
65284194;76.6;19;18.6;0;19;18.1;0;0;0;0;0;0.001;0;0;0;0.0022;-11;79;235.8;0;1;-0.009;0.074;65284193;0;0;0;0.0022;0.537;337.897;0;0;0;-0.103;0.744;1;65284152;0.0304709;0.349527;0.407278;-0.338446;-0.0286652;0.92918;-0.0253767;-0.0945262;-0.309294;65283720;47.59838580;-122.83073720;104.30000305;0.00000000;0.00000000;20.00000000;1.00000000;
65284291;76.6;19;18.7;0;18.9;18.1;0;0;0;0;0;0.001;0;0;0;0.0022;-11;79;235.8;0;1;-0.008;0.075;65284193;0;0;0;0.0022;0.537;337.897;0;0;0;-0.103;0.744;1;65284242;0.030452;0.349566;0.407601;-0.339239;-0.0210073;0.929084;-0.013141;-0.163095;-0.169121;65283720;47.59838580;-122.83073720;104.30000305;0.00000000;0.00000000;20.00000000;1.00000000;
65284377;76.6;19;18.7;0;18.9;18.1;0;0;0;0;0;0.001;0;0;0;0.0022;-11;79;235.8;0;1;-0.009;0.074;65284292;0;0;0;0.0022;0.537;337.89;0;0;0;-0.103;0.744;1;65284330;0.0304788;0.349589;0.407963;-0.340339;-0.0244372;0.92908;0.0443555;0.0454039;-0.316844;65283720;47.59838580;-122.83073720;104.30000305;0.00000000;0.00000000;20.00000000;1.00000000;
65284518;76.6;19;18.6;0;19;18.1;0;0;0;0;0;0.001;0;0;0;0.0022;-11;79;235.8;0;1;-0.008;0.075;65284378;0;0;0;0.0022;0.537;337.884;0;0;0;-0.103;0.744;1;65284330;0.0304788;0.349589;0.407963;-0.340339;-0.0244372;0.92908;0.0443555;0.0454039;-0.316844;65284000;47.59843441;-122.83078787;92.72142520;0.00000000;0.00000000;3.87117791;3.57691455;
65284643;76.6;19;18.7;0;19;18.1;0;0;0;0;0;0.001;0;0;0;0.0022;-11;79;235.8;0;1;-0.009;0.075;65284519;0;0;0;0.0022;0.537;337.882;0;0;0;-0.103;0.744;1;65284521;0.0304404;0.349515;0.408646;-0.337456;-0.0218896;0.929281;-0.0889909;0.116239;-0.235597;65284000;47.59843441;-122.83078787;92.72142520;0.00000000;0.00000000;3.87117791;3.57691455;
65284733;76.6;19;18.7;0;19.1;18.1;0;0;0;0;0;0.001;0;0;0;0.0022;-11;79;235.8;0;1;-0.008;0.074;65284644;0;0;0;0.0022;0.537;337.879;0;0;0;-0.103;0.744;1;65284645;0.0304667;0.349516;0.409181;-0.3397;-0.0219227;0.929354;0.0443555;0.0454039;-0.316844;65284000;47.59843441;-122.83078787;92.72142520;0.00000000;0.00000000;3.87117791;3.57691455;
65284869;76.6;19;18.7;0;19;18.1;0;0;0;0;0;0.001;0;0;0;0.0022;-11;79;235.8;0;1;-0.008;0.074;65284734;0;0;0;0.0022;0.537;337.866;0;0;0;-0.103;0.744;1;65284735;0.0304999;0.349512;0.409515;-0.335955;-0.0213979;0.929289;-0.0889909;0.116239;-0.235597;65284000;47.59843441;-122.83078787;92.72142520;0.00000000;0.00000000;3.87117791;3.57691455;
65284968;76.6;19;18.7;0;19;18.1;0;0;0;0;0;0.001;0;0;0;0.0022;-11;79;235.8;0;1;-0.009;0.074;65284870;0;0;0;0.0022;0.537;337.849;0;0;0;-0.103;0.744;1;65284870;0.0304992;0.349564;0.409994;-0.338199;-0.021431;0.929009;0.0565912;-0.0231651;-0.176671;65284000;47.59843441;-122.83078787;92.72142520;0.00000000;0.00000000;3.87117791;3.57691455;
65285055;76.6;19;18.7;0;19;18.1;0;0;0;0;0;0.001;0;0;0;0.0022;-11;79;235.8;0;1;-0.008;0.075;65284969;0;0;0;0.0022;0.537;337.831;0;0;0;-0.103;0.744;1;65284970;0.0305435;0.349553;0.410327;-0.336228;-0.0199087;0.928732;-0.013141;0.0468938;-0.17127;65284000;47.59843441;-122.83078787;92.72142520;0.00000000;0.00000000;3.87117791;3.57691455;
65285149;76.6;19;18.7;0;18.9;18.1;0;0;0;0;0;0.001;0;0;0;0.0022;-11;79;235.8;0;1;-0.009;0.074;65285056;0;0;0;0.0022;0.537;337.81;0;0;0;-0.103;0.744;1;65285057;0.0305401;0.34952;0.410651;-0.337627;-0.0253253;0.928566;-0.158723;0.116302;-0.22948;65284000;47.59843441;-122.83078787;92.72142520;0.00000000;0.00000000;3.87117791;3.57691455;
65285233;76.6;19;18.7;0;19.1;18.1;0;0;0;0;0;0.001;0;0;0;0.0022;-11;79;235.8;0;1;-0.008;0.075;65285151;0;0;0;0.0022;0.537;337.786;0;0;0;-0.103;0.744;1;65285152;0.030532;0.349462;0.410988;-0.339717;-0.0208915;0.928574;-0.0192589;-0.0238162;-0.240282;65284000;47.59843441;-122.83078787;92.72142520;0.00000000;0.00000000;3.87117791;3.57691455;
65285322;76.6;19;18.7;0;19;18.1;0;0;0;0;0;0.001;0;0;0;0.0022;-11;79;235.8;0;1;-0.008;0.075;65285234;0;0;0;0.0022;0.536;337.767;0;0;0;-0.103;0.744;1;65285235;0.0305933;0.349476;0.411383;-0.335529;-0.0208602;0.928629;-0.0889909;-0.0937499;-0.233448;65284000;47.59843441;-122.83078787;92.72142520;0.00000000;0.00000000;3.87117791;3.57691455;
65285408;76.6;19;18.7;0;19;18.1;0;0;0;0;0;0.001;0;0;0;0.0022;-11;79;235.8;0;1;-0.008;0.075;65285323;0;0;0;0.0022;0.536;337.766;0;0;0;-0.103;0.744;1;65285324;0.0305528;0.349496;0.41169;-0.339981;-0.0293323;0.928857;-0.152605;-0.0229773;-0.158319;65284000;47.59843441;-122.83078787;92.72142520;0.00000000;0.00000000;3.87117791;3.57691455;
65285504;76.6;19;18.7;0;19;18.1;0;0;0;0;0;0.001;0;0;0;0.0022;-11;79;235.8;0;1;-0.008;0.075;65285409;0;0;0;0.0022;0.536;337.761;0;0;0;-0.103;0.744;1;65285410;0.0305205;0.349445;0.412014;-0.334122;-0.0195179;0.929091;0.0504733;0.116114;-0.247832;65285000;47.59843456;-122.83078756;92.94056347;0.00000000;0.00000000;4.14809799;3.65200853;
65285646;76.6;19;18.7;0;18.9;18.1;0;0;0;0;0;0.001;0;0;0;0.0022;-11;79;235.8;0;1;-0.008;0.073;65285505;0;0;0;0.0022;0.536;337.759;0;0;0;-0.103;0.744;1;65285506;0.0306163;0.349366;0.412382;-0.335299;-0.0228424;0.929303;-0.0828731;0.186949;-0.166585;65285000;47.59843456;-122.83078756;92.94056347;0.00000000;0.00000000;4.14809799;3.65200853;
65285734;76.6;19;18.6;0;18.9;18.1;0;0;0;0;0;0.001;0;0;0;0.0022;-11;79;235.8;0;1;-0.008;0.074;65285647;0;0;0;0.0022;0.536;337.752;0;0;0;-0.103;0.744;1;65285648;0.0306156;0.349378;0.412853;-0.338523;-0.0195741;0.929633;-0.0192589;0.0461802;-0.240998;65285000;47.59843456;-122.83078756;92.94056347;0.00000000;0.00000000;4.14809799;3.65200853;
65285817;76.6;19;18.7;0;19;18.1;0;0;0;0;0;0.001;0;0;0;0.0022;-11;79;235.8;0;1;-0.008;0.074;65285734;0;0;0;0.0022;0.536;337.75;0;0;0;-0.103;0.744;1;65285735;0.0306704;0.349439;0.413232;-0.337892;-0.0264464;0.929844;-0.013141;0.396876;-0.174852;65285000;47.59843456;-122.83078756;92.94056347;0.00000000;0.00000000;4.14809799;3.65200853;
65285907;76.6;19;18.8;0;19;18.1;0;0;0;0;0;0.001;0;0;0;0.0022;-11;79;235.8;0;1;-0.008;0.075;65285818;0;0;0;0.0022;0.536;337.75;0;0;0;-0.103;0.744;1;65285819;0.0304972;0.349572;0.413471;-0.332075;-0.0231829;0.930152;0.056591;0.956784;-0.186701;65285000;47.59843456;-122.83078756;92.94056347;0.00000000;0.00000000;4.14809799;3.65200853;
65286050;76.6;19;18.7;0;18.9;18.1;0;0;0;0;0;0.001;0;0;0;0.0022;-11;79;235.8;0;1;-0.009;0.074;65285908;0;0;0;0.0022;0.536;337.748;0;0;0;-0.103;0.744;1;65285909;0.0301774;0.349313;0.413668;-0.332594;-0.0227863;0.929756;-0.0192589;-0.373798;-0.2367;65285000;47.59843456;-122.83078756;92.94056347;0.00000000;0.00000000;4.14809799;3.65200853;
65286183;76.6;19;18.7;0;18.9;18.1;0;0;0;0;0;0.001;0;0;0;0.0022;-11;79;235.8;0;1;-0.008;0.074;65286052;0;0;0;0.0022;0.536;337.746;0;0;0;-0.103;0.744;1;65286053;0.0302528;0.349255;0.414228;-0.331572;-0.0242144;0.929725;-0.0131412;1.23683;-0.183449;65285000;47.59843456;-122.83078756;92.94056347;0.00000000;0.00000000;4.14809799;3.65200853;
65286264;76.6;19;18.7;0;19;18.1;0;0;0;0;0;0.001;0;0;0;0.0022;-11;79;235.8;0;1;-0.008;0.074;65286185;0;0;0;0.0022;0.536;337.745;0;0;0;-0.103;0.744;1;65286187;0.0305294;0.349396;0.414862;-0.339922;-0.0364999;0.929938;-0.101227;1.02476;-0.384368;65285000;47.59843456;-122.83078756;92.94056347;0.00000000;0.00000000;4.14809799;3.65200853;
65286364;76.6;19;18.7;0;19;18.2;0;0;0;0;0;0.001;0;0;0;0.0022;-11;79;235.8;0;1;-0.008;0.074;65286265;0;0;0;0.0022;0.536;337.733;0;0;0;-0.103;0.744;1;65286274;0.0304422;0.34889;0.415081;-0.334445;-0.0195293;0.929464;-0.0828732;0.886912;-0.173749;65285000;47.59843456;-122.83078756;92.94056347;0.00000000;0.00000000;4.14809799;3.65200853;
65286449;76.6;19;18.6;0;19;18.2;0;0;0;0;0;0;0;0;0;0.0022;-11;79;235.8;0;1;-0.002;0.046;65286365;0;0;0;0.0022;0.536;337.713;0;0;0;-0.103;0.744;1;65286365;0.0305495;0.34899;0.415391;-0.319443;-0.02225;0.929349;-0.222337;-0.3029;-0.149335;65285000;47.59843456;-122.83078756;92.94056347;0.00000000;0.00000000;4.14809799;3.65200853;
65286535;76.6;19;18.7;0;19;18.1;0;0;0;0;0;-0.001;0;0;0;0.0022;-11;79;235.8;0;1;-0.005;-0.026;65286450;0;0;0;0.0022;0.536;337.71;0;0;0;-0.103;0.744;1;65286450;0.0302806;0.345803;0.416341;-0.33742;0.0109451;0.927947;-3.41172;-2.43876;-3.64236;65286000;47.59843946;-122.83078361;92.91065050;0.00000000;0.00000000;3.67629814;3.64922714;
65286625;76.6;19;18.7;0;19;18.1;-2.08;0;-0.06;2.11;-102;0;0;0;0;0.0022;-12;80;176.4;0;1;-0.099;-0.136;65286536;0;0;0;0.0022;0.536;337.71;0;0;0;-0.103;0.744;1;65286542;0.0380956;0.342808;0.421698;-0.314072;-0.105805;0.928975;-0.889069;-3.58853;0.294153;65286000;47.59843946;-122.83078361;92.91065050;0.00000000;0.00000000;3.67629814;3.64922714;
65286712;76.6;19;18.7;0;19;18.2;-5.73;-0.02;0.3;5.58;-116;0;0;0;0;0.0023;-13;81;115.2;0;1;-0.059;-0.152;65286627;0;0;0;0.0022;0.536;337.704;-0.02;-5.89;-0.092;-0.113;0.753;1;65286628;0.0358428;0.314331;0.41657;-0.399445;-0.0517658;0.921759;1.77792;-32.3328;2.95444;65286000;47.59843946;-122.83078361;92.91065050;0.00000000;0.00000000;3.67629814;3.64922714;
65286806;76.6;19;18.6;0;19;18.2;-3.76;-0.01;-0.47;3.67;0;0;0;0;0;0.0023;-13;81;115.2;0;1;0.074;-0.15;65286806;0;0;0;0.0023;0.536;337.695;-0.01;-2.48;0;-0.122;0.763;1;65286758;0.0278566;0.212332;0.410732;-0.185551;-0.0308747;0.901563;3.01956;-51.6419;-2.71923;65286000;47.59843946;-122.83078361;92.91065050;0.00000000;0.00000000;3.67629814;3.64922714;
65286895;76.6;19;18.7;0;19;18.2;-1.78;0;-0.72;1.93;-8;0;0;0;0;0.0023;-14;82;54;0;1;0.128;-0.068;65286806;0;0;0;0.0023;0.536;337.695;-0.01;-2.48;0;-0.122;0.763;1;65286849;0.0189386;0.149595;0.408448;-0.0241783;-0.0205815;0.902627;8.7279;-22.1759;3.57588;65286000;47.59843946;-122.83078361;92.91065050;0.00000000;0.00000000;3.67629814;3.64922714;
65286986;76.6;19;18.7;0;19.1;18.2;-3.36;-0.01;0.07;4.34;-28;0;0;0;0;0.0024;-14;82;41.3333;0;1;0.154;-0.017;65286896;0;0;0;0.0023;0.536;337.69;0;-2.88;-0.005;-0.131;0.772;1;65286941;0.00433793;0.133149;0.400199;-0.035003;0.0297096;0.922263;5.78205;0.939898;5.00321;65286000;47.59843946;-122.83078361;92.91065050;0.00000000;0.00000000;3.67629814;3.64922714;
65287074;76.6;19;18.6;0;18.9;18.2;-3.35;-0.01;0.07;6.05;-116;-0.001;0;0;0;0.0024;-16;84;295.2;0;1;0.002;-0.129;65286987;0;0;0;0.0024;0.536;337.675;-0.02;5.89;-0.045;-0.131;0.772;1;65287029;-0.00191794;0.134674;0.390759;-0.0394394;-0.00651355;0.943869;1.14794;1.87487;7.43813;65286000;47.59843946;-122.83078361;92.91065050;0.00000000;0.00000000;3.67629814;3.64922714;
65287163;76.6;18.9;18.7;0;19;18.1;-6.06;-0.04;0.05;6.05;-194;-0.009;0;0;0;0.0025;-18;86;176.4;0;1;-0.237;-0.427;65287075;0;0;0;0.0024;0.536;337.669;-0.03;-6.09;-0.103;-0.15;0.791;1;65287121;-0.00226538;0.130085;0.377884;-0.0349615;-0.0184763;0.960146;-4.02691;-3.57373;8.58038;65286000;47.59843946;-122.83078361;92.91065050;0.00000000;0.00000000;3.67629814;3.64922714;
65287259;76.7;19;18.6;0;19;18.1;-6.04;-0.07;-0.06;6.04;-347;-0.013;0;0;0;0.0026;-21;89;306.924;0;1;-0.032;-0.752;65287259;0;0;0;0.0026;0.536;337.681;-0.08;-5.93;-0.314;-0.197;0.838;1;65287212;0.00339107;0.119982;0.361002;-0.0574599;0.0124417;0.971951;-6.40754;-5.07987;11.8967;65286000;47.59843946;-122.83078361;92.91065050;0.00000000;0.00000000;3.67629814;3.64922714;
65287343;76.7;19;18.6;0;18.9;18.1;-6.02;-0.09;-0.03;6.02;-386;-0.016;0;0;0;0.0028;-25;93;108.386;0;1;0.05;-0.912;65287259;0;0;0;0.0026;0.536;337.681;-0.08;-5.93;-0.314;-0.197;0.838;1;65287303;0.0137118;0.113842;0.342572;-0.0679001;-0.00203942;0.98186;-9.84034;-2.287;11.1854;65286000;47.59843946;-122.83078361;92.91065050;0.00000000;0.00000000;3.67629814;3.64922714;
65287482;76.7;19;18.6;0;18.9;18.1;-6;-0.1;0.01;6;-405;-0.014;0;0;0;0.0031;-30;98;138.413;0;1;0.106;-0.95;65287352;0;0;0;0.0028;0.536;337.693;-0.1;-5.96;-0.365;-0.235;0.876;1;65287437;0.0249119;0.111447;0.324046;-0.145758;-0.0387481;0.989272;-5.47899;-1.92008;12.8369;65287000;47.59844134;-122.83077702;93.06019738;0.00000000;0.00000000;3.67271805;3.72623205;
65287567;76.7;19;18.6;0;18.9;18.1;-5.96;-0.08;0;5.96;-386;-0.011;0;0;0;0.0033;-34;102;283.667;0;1;0.149;-0.871;65287483;0;0;0;0.0031;0.536;337.729;-0.08;-5.94;-0.384;-0.282;0.923;1;65287524;0.0184686;0.0927429;0.294131;-0.171881;-0.0239868;0.989986;8.78183;-14.3345;10.5182;65287000;47.59844134;-122.83077702;93.06019738;0.00000000;0.00000000;3.67271805;3.72623205;
65287661;76.6;19;18.7;0;18.9;18.1;-5.94;-0.06;0;5.94;-324;-0.004;0;0;0;0.0034;-36;104;121.823;0;1;0.071;-0.648;65287569;0;0;0;0.0033;0.536;337.746;-0.07;-5.86;-0.363;-0.32;0.961;1;65287620;-0.00142108;0.0746388;0.281234;-0.151284;0.0844604;0.987697;12.2402;-12.0802;5.06175;65287000;47.59844134;-122.83077702;93.06019738;0.00000000;0.00000000;3.67271805;3.72623205;
65287751;76.6;19;18.6;0;19;18.1;-3.57;0;0.05;3.54;-68;-0.027;0;0;0;0.0034;-38;106;6.52133;0;1;0.084;-0.519;65287662;0;0;0;0.0034;0.536;337.746;-0.04;-5.98;-0.304;-0.348;0.989;1;65287704;-0.0175002;0.0658668;0.278728;-0.170098;0.0720356;0.988163;3.44288;-2.82965;-0.796415;65287000;47.59844134;-122.83077702;93.06019738;0.00000000;0.00000000;3.67271805;3.72623205;
65287842;76.6;19;18.7;0;19;18.1;1.43;0.02;0.02;-1.38;-196;-0.017;0;0;0.0001;0.0034;-40;108;248.534;0;1;-0.196;-0.756;65287752;0;0;0;0.0034;0.536;337.733;0.05;2.85;-0.081;-0.367;1.008;1;65287799;-0.0151237;0.0572876;0.282387;-0.0305954;0.0167409;0.988597;-7.04391;-10.4858;-3.3116;65287000;47.59844134;-122.83077702;93.06019738;0.00000000;0.00000000;3.67271805;3.72623205;
65287932;76.6;19;18.7;0;19;18.1;-3.94;-0.01;0.32;4.26;-5;0;0;0;0.0001;0.0035;-42;110;176.4;0;1;-0.129;-0.259;65287843;0;0;0.0001;0.0034;0.536;337.706;0;-0.29;-0.194;-0.376;1.017;1;65287893;0.0073791;0.0463894;0.277319;-0.170055;-0.0167707;0.98762;-20.0629;-2.58729;9.20424;65287000;47.59844134;-122.83077702;93.06019738;0.00000000;0.00000000;3.67271805;3.72623205;
65288026;76.6;19;18.7;0;19;18.2;-2.73;-0.01;-0.37;2.36;-1;0;0;0;0.0001;0.0035;-43;111;115.2;0;1;0.018;-0.15;65288026;0;0;0.0001;0.0035;0.536;337.672;0;-1.07;-0.002;-0.405;1.046;1;65287975;0.0257827;0.051265;0.270315;-0.135037;-0.0354004;0.990109;-4.6742;1.78588;-1.25584;65287000;47.59844134;-122.83077702;93.06019738;0.00000000;0.00000000;3.67271805;3.72623205;
65288112;76.6;19;18.7;0;19;18.2;0.57;0;-0.48;-0.48;0;0;0;0;0.0001;0.0035;-43;111;115.2;0;1;0.072;-0.144;65288026;0;0;0.0001;0.0035;0.536;337.672;0;-1.07;-0.002;-0.405;1.046;1;65288069;0.0214096;0.0543282;0.27637;-0.0738348;-0.0997025;0.991344;6.16855;0.108463;-0.995358;65287000;47.59844134;-122.83077702;93.06019738;0.00000000;0.00000000;3.67271805;3.72623205;
65288201;76.6;19;18.7;0;19;18.2;2.29;0;-0.22;-2.18;68;0;0;0;0.0001;0.0035;-42;112;176.4;0;1;0.012;-0.144;65288201;0;0;0.0001;0.0035;0.536;337.629;-0.01;3.19;0.095;-0.395;1.055;1;65288156;0.0196876;0.0567967;0.273063;-0.0760601;0.0725478;0.991809;0.0455458;3.10079;-2.73749;65287000;47.59844134;-122.83077702;93.06019738;0.00000000;0.00000000;3.67271805;3.72623205;
65288289;76.6;19;18.8;0;19;18.2;4.14;-0.01;-0.05;-4.04;0;0;0;0;0.0001;0.0035;-42;112;176.4;0;1;-0.096;-0.128;65288288;0;0;0.0001;0.0035;0.536;337.603;-0.02;4.77;0;-0.395;1.055;1;65288246;0.0188973;0.0649199;0.280059;-0.109715;-0.0339542;0.993226;-1.22306;4.80485;-0.394902;65287000;47.59844134;-122.83077702;93.06019738;0.00000000;0.00000000;3.67271805;3.72623205;
65288380;76.6;19;18.7;0;19;18.2;-2.44;-0.02;0.63;-5.39;0;0;0;0;0.0001;0.0036;-41;113;235.8;0;1;-0.161;0.006;65288380;0;0;0.0001;0.0036;0.536;337.576;0;-5.4;0;-0.386;1.064;1;65288337;0.016731;0.0696648;0.284876;-0.101255;0.00487065;0.9925;3.06844;0.540093;-6.70095;65287000;47.59844134;-122.83077702;93.06019738;0.00000000;0.00000000;3.67271805;3.72623205;
65288468;76.6;19;18.7;0;19;18.1;-5.98;0;0.13;-5.96;95;0.001;0;0;0.0001;0.0036;-39;115;337.7;0;1;-0.132;0.183;65288380;0;0;0.0001;0.0036;0.536;337.576;0;-5.4;0;-0.386;1.064;1;65288427;0.00917634;0.0714497;0.295606;-0.12806;0.0136966;0.990551;6.75569;0.333985;-6.31962;65288000;47.59844413;-122.83077331;93.08437506;0.00000000;0.00000000;4.01106453;3.91246104;
65288614;76.6;19;18.7;0;19;18.1;-6.06;-0.04;0;-6.06;281;0.005;0;0;0.0001;0.0037;-35;119;193.817;0;1;-0.25;0.438;65288476;0;0;0.0001;0.0036;0.536;337.561;-0.01;-6.12;0.107;-0.367;1.083;1;65288561;0.000130514;0.078086;0.304888;-0.157773;0.0633446;0.990126;3.23606;8.11105;-5.66878;65288000;47.59844413;-122.83077331;93.08437506;0.00000000;0.00000000;4.01106453;3.91246104;
65288692;76.7;19;18.6;0;19;18.1;-6.03;-0.07;-0.03;-6.03;335;0.012;0;0;0.0001;0.0038;-32;122;26.2297;0;1;-0.021;0.764;65288616;0;0;0.0001;0.0037;0.536;337.561;-0.07;-6.04;0.276;-0.329;1.121;1;65288653;0.00843946;0.110588;0.322806;-0.150875;-0.00384161;0.993748;-6.53624;9.16042;-5.73566;65288000;47.59844413;-122.83077331;93.08437506;0.00000000;0.00000000;4.01106453;3.91246104;
65288784;76.7;19;18.6;0;18.9;18.1;-5.99;-0.08;0;-5.99;371;0.012;0;0;0.0001;0.004;-29;125;235.29;0;1;-0.014;0.832;65288693;0;0;0.0001;0.0038;0.536;337.581;-0.09;-6.16;0.317;-0.301;1.149;1;65288739;0.019685;0.12358;0.330656;-0.125374;-0.0512599;0.991881;-5.11588;6.93868;-3.94018;65288000;47.59844413;-122.83077331;93.08437506;0.00000000;0.00000000;4.01106453;3.91246104;
65288878;76.7;19;18.7;0;18.9;18.1;-6.02;-0.09;0;-6.02;383;0.014;0;0;0.0001;0.0042;-25;129;82.6985;0;1;0.001;0.898;65288835;0;0;0.0001;0.0041;0.536;337.606;-0.09;-5.96;0.353;-0.254;1.196;1;65288836;0.0254935;0.131388;0.335497;-0.14128;-0.0457475;0.988533;-0.126944;3.66523;-2.30649;65288000;47.59844413;-122.83077331;93.08437506;0.00000000;0.00000000;4.01106453;3.91246104;
65288969;76.7;19;18.7;0;19;18.1;-5.97;-0.08;0.02;-5.97;373;0.01;0;0;0.0001;0.0044;-22;132;281.939;0;1;-0.003;0.86;65288922;0;0;0.0001;0.0043;0.536;337.631;-0.08;-5.99;0.369;-0.216;1.234;1;65288922;0.023416;0.133665;0.339114;-0.109621;-0.0196776;0.984656;2.59505;0.225056;-3.2831;65288000;47.59844413;-122.83077331;93.08437506;0.00000000;0.00000000;4.01106453;3.91246104;
65289054;76.7;19;18.7;0;19;18.1;-6.01;-0.09;0;-6.01;367;0.012;0;0;0.0001;0.0045;-18;136;121.972;0;1;-0.006;0.844;65289009;0;0;0.0001;0.0045;0.536;337.655;-0.1;-6;0.355;-0.188;1.262;1;65289022;0.0183572;0.133582;0.344513;-0.113271;-0.0124717;0.981744;3.39512;2.38991;-3.79709;65288000;47.59844413;-122.83077331;93.08437506;0.00000000;0.00000000;4.01106453;3.91246104;
65289144;76.6;19;18.7;0;19;18.1;-5.98;-0.07;0.01;-5.98;344;0.01;0;0;0.0001;0.0047;-15;139;314.318;0;1;-0.005;0.77;65289098;0;0;0.0001;0.0046;0.536;337.675;-0.05;-5.78;0.346;-0.16;1.291;1;65289099;0.0137734;0.134321;0.349246;-0.0924535;0.00567325;0.980266;2.19501;0.0175834;-3.03506;65288000;47.59844413;-122.83077331;93.08437506;0.00000000;0.00000000;4.01106453;3.91246104;
65289239;76.6;19;18.7;0;19;18.1;-5.98;-0.07;-0.02;-5.98;322;0.009;0;0;0.0001;0.0048;-12;142;126.291;0;1;0.028;0.68;65289192;0;0;0.0001;0.0048;0.536;337.678;-0.05;-5.92;0.325;-0.131;1.319;1;65289192;0.0112539;0.133373;0.352459;-0.0897417;-0.000868383;0.979162;1.73872;0.178122;-1.02904;65288000;47.59844413;-122.83077331;93.08437506;0.00000000;0.00000000;4.01106453;3.91246104;
65289326;76.6;19;18.7;0;19;18.1;-5.95;-0.04;0.01;-5.95;275;0.004;0;0;0.0001;0.0049;-10;144;279.592;0;1;0.02;0.541;65289280;0;0;0.0001;0.0049;0.536;337.678;-0.04;-5.91;0.294;-0.103;1.347;1;65289281;0.00899106;0.129038;0.352313;-0.0621083;0.00340166;0.978426;1.62253;-2.03433;1.67415;65288000;47.59844413;-122.83077331;93.08437506;0.00000000;0.00000000;4.01106453;3.91246104;
65289421;76.6;19;18.7;0;19;18.1;-5.97;-0.03;-0.04;-5.97;257;0.002;0;0;0.0001;0.005;-8;146;54;0;1;0.045;0.437;65289378;0;0;0.0001;0.005;0.536;337.678;-0.06;-6.12;0.257;-0.084;1.366;1;65289378;0.00821326;0.129101;0.350597;-0.0567344;0.00402854;0.979663;-1.3674;5.73076;1.15428;65288000;47.59844413;-122.83077331;93.08437506;0.00000000;0.00000000;4.01106453;3.91246104;
65289506;76.6;19;18.7;0;19;18.1;-5.93;-0.01;0.06;-5.94;20;0;0;0;0.0001;0.005;-7;147;115.2;0;1;-0.126;0.162;65289458;0;0;0.0001;0.005;0.536;337.678;-0.01;-5.99;0.056;-0.065;1.385;1;65289459;0.0127417;0.13692;0.350859;-0.00792492;-0.0149661;0.983544;-4.76473;9.8413;-0.768164;65289000;47.59844673;-122.83077470;93.45018073;0.00000000;0.00000000;4.35884953;4.10325432;
65289593;76.6;19.1;18.7;0;19;18.2;3.29;-0.01;-0.38;-4.26;0;0;0;0;0.0001;0.0051;-6;148;176.4;0;1;-0.084;-0.114;65289549;0;0;0.0001;0.005;0.536;337.668;-0.01;4.53;0.104;-0.056;1.394;1;65289550;0.0209215;0.154883;0.356005;-0.0427816;-0.0403496;0.989611;-5.62604;15.9579;-5.04182;65289000;47.59844673;-122.83077470;93.45018073;0.00000000;0.00000000;4.35884953;4.10325432;
65289693;76.6;19.1;18.7;0;19;18.2;0.41;0;-0.13;-0.42;0;0;0;0;0.0001;0.0051;-6;148;176.4;0;1;-0.094;-0.131;65289638;0;0;0.0001;0.0051;0.536;337.652;0;0.46;0;-0.056;1.394;1;65289684;0.0270505;0.178323;0.360841;-0.143694;-0.0407185;0.994621;0.183819;17.2644;-0.505314;65289000;47.59844673;-122.83077470;93.45018073;0.00000000;0.00000000;4.35884953;4.10325432;
65289775;76.6;19.1;18.8;0;19.1;18.2;-1.56;0;-0.56;1.46;0;0;0;0;0.0001;0.0051;-6;148;176.4;0;1;-0.092;-0.135;65289734;0;0;0.0001;0.0051;0.536;337.631;0;-1.82;0;-0.056;1.394;1;65289684;0.0270505;0.178323;0.360841;-0.143694;-0.0407185;0.994621;0.183819;17.2644;-0.505314;65289000;47.59844673;-122.83077470;93.45018073;0.00000000;0.00000000;4.35884953;4.10325432;
65289862;76.6;19.1;18.8;0;19;18.2;-2.06;0;-0.39;2.02;0;0;0;0;0.0001;0.0051;-6;148;176.4;0;1;-0.093;-0.137;65289819;0;0;0.0001;0.0051;0.536;337.619;0;-2.06;0;-0.056;1.394;1;65289776;0.0198636;0.189967;0.35264;-0.208205;-0.00857798;0.988527;7.36391;-7.0109;7.89724;65289000;47.59844673;-122.83077470;93.45018073;0.00000000;0.00000000;4.35884953;4.10325432;
65289959;76.6;19.1;18.8;0;19.1;18.2;-2.42;0;0.11;2.41;0;0;0;0;0.0001;0.0051;-6;148;176.4;0;1;-0.095;-0.137;65289913;0;0;0.0001;0.0051;0.536;337.595;-0.01;-2.46;0;-0.056;1.394;1;65289864;0.00262791;0.170304;0.342421;-0.188299;0.0752756;0.977143;9.34938;-18.7474;3.41599;65289000;47.59844673;-122.83077470;93.45018073;0.00000000;0.00000000;4.35884953;4.10325432;
65290048;76.6;19.1;18.8;0;19;18.2;-2.24;0;-0.4;2;-14;0;0;0;0.0001;0.0051;-7;149;115.2;0;1;-0.012;-0.148;65289999;0;0;0.0001;0.0051;0.536;337.576;0;-2.19;-0.071;-0.056;1.394;1;65289960;-0.00739981;0.132255;0.343874;-0.138432;0.0529578;0.964623;0.229027;-30.587;-4.30615;65289000;47.59844673;-122.83077470;93.45018073;0.00000000;0.00000000;4.35884953;4.10325432;
65290134;76.6;19.1;18.8;0;19.3;18.2;-2.01;0;-1.01;1.72;0;0;0;0;0.0001;0.0051;-7;149;115.2;0;1;0.073;-0.149;65290091;0;0;0.0001;0.0051;0.536;337.549;0;-2.18;0;-0.065;1.404;1;65290048;-0.00101776;0.0843579;0.351759;-0.0740737;-0.00658439;0.955581;-7.22376;-27.6477;-4.38507;65289000;47.59844673;-122.83077470;93.45018073;0.00000000;0.00000000;4.35884953;4.10325432;
65290225;76.6;19.1;18.9;0;19.1;18.2;-1.28;0;-0.64;1.1;0;0;0;0;0.0001;0.0052;-7;149;115.2;0;1;0.071;-0.148;65290178;0;0;0.0001;0.0051;0.536;337.523;0;-1.2;0;-0.065;1.404;1;65290134;0.012911;0.043317;0.355172;-0.000401562;-0.0775823;0.954043;-6.65605;-18.9183;0.394852;65289000;47.59844673;-122.83077470;93.45018073;0.00000000;0.00000000;4.35884953;4.10325432;
65290316;76.6;19.1;18.8;0;19.1;18.2;-2;0;-0.11;1.97;-25;0;0;0;0.0001;0.0052;-7;149;103.534;0;1;0.072;-0.148;65290269;0;0;0.0001;0.0052;0.536;337.501;0;-1.88;0;-0.065;1.404;1;65290226;0.0178432;0.0315341;0.350625;0.0447405;-0.0152272;0.963472;0.932575;4.49321;3.35442;65289000;47.59844673;-122.83077470;93.45018073;0.00000000;0.00000000;4.35884953;4.10325432;
65290448;76.6;19.1;18.7;0;19;18.2;-4.14;-0.01;-0.3;4.79;-125;-0.004;0;0;0.0001;0.0052;-9;151;352.8;0;1;0.127;-0.042;65290411;0;0;0.0001;0.0052;0.536;337.479;-0.01;-4.57;-0.046;-0.075;1.413;1;65290317;0.013076;0.0453302;0.348709;0.0337632;-0.0129513;0.977774;3.57622;12.5687;-1.03599;65289000;47.59844673;-122.83077470;93.45018073;0.00000000;0.00000000;4.35884953;4.10325432;
65290543;76.6;19.1;18.8;0;19;18.2;-6.06;-0.02;0.04;6.05;-134;-0.004;0;0;0.0001;0.0053;-10;152;265.701;0;1;-0.103;-0.265;65290499;0;0;0.0001;0.0052;0.536;337.46;-0.02;-6.17;-0.072;-0.084;1.423;1;65290448;0.00435678;0.079534;0.352763;-0.0368042;-0.00709413;0.995064;2.39689;14.5304;-0.88232;65290000;47.59844861;-122.83077627;93.97490824;0.00000000;0.00000000;4.64662123;4.30810070;
65290635;76.6;19;18.8;0;19;18.2;-6.08;-0.05;-0.04;6.07;-307;-0.011;0;0;0.0001;0.0054;-13;155;88.4586;0;1;-0.285;-0.588;65290584;0;0;0.0001;0.0053;0.536;337.459;-0.03;-6.11;-0.187;-0.103;1.441;1;65290543;0.00383229;0.0902592;0.353413;-0.0216831;0.0351806;0.998491;-1.66592;3.12246;-0.619917;65290000;47.59844861;-122.83077627;93.97490824;0.00000000;0.00000000;4.64662123;4.30810070;
65290723;76.6;19.1;18.8;0;19.1;18.1;-6.06;-0.09;-0.01;6.06;-385;-0.011;0;0;0.0001;0.0056;-17;159;228.295;0;1;0.098;-0.9;65290692;0;0;0.0001;0.0054;0.536;337.469;-0.09;-6.04;-0.321;-0.141;1.479;1;65290635;0.00702214;0.0868991;0.356286;-0.0164119;-0.0190862;0.99682;-1.59744;-0.743937;-2.20262;65290000;47.59844861;-122.83077627;93.97490824;0.00000000;0.00000000;4.64662123;4.30810070;
65290809;76.7;19;18.7;0;19.1;18.2;-6.01;-0.11;0;6.01;-433;-0.018;0;0;0.0001;0.0058;-21;163;339.837;0;1;0.095;-1.102;65290764;0;0;0.0001;0.0057;0.536;337.492;-0.13;-6.06;-0.393;-0.179;1.517;1;65290724;0.0077804;0.0817428;0.359866;-0.0395417;0.00573102;0.9945;-0.788803;-3.48603;-3.36987;65290000;47.59844861;-122.83077627;93.97490824;0.00000000;0.00000000;4.64662123;4.30810070;
65290901;76.7;19.1;18.8;0;19;18.1;-5.98;-0.12;-0.04;5.98;-461;-0.018;0;0;0.0001;0.006;-25;167;88.3619;0;1;0.094;-1.119;65290858;0;0;0.0001;0.0059;0.536;337.519;-0.14;-6.04;-0.425;-0.216;1.555;1;65290809;0.0103347;0.07619;0.364866;-0.0695022;-0.0362747;0.992059;-1.13622;-2.9092;-1.72902;65290000;47.59844861;-122.83077627;93.97490824;0.00000000;0.00000000;4.64662123;4.30810070;
65290990;76.7;19.1;18.7;0;19;18.1;-5.99;-0.1;0.02;5.99;-434;-0.017;0;0;0.0001;0.0062;-29;171;216.362;0;1;0.159;-1.015;65290950;0;0;0.0001;0.0061;0.536;337.547;-0.1;-5.99;-0.417;-0.254;1.592;1;65290901;0.0113138;0.0734607;0.364175;-0.144887;-0.0292651;0.990646;1.29591;-0.83331;2.74461;65290000;47.59844861;-122.83077627;93.97490824;0.00000000;0.00000000;4.64662123;4.30810070;
65291078;76.7;19;18.8;0;19.1;18.2;-5.96;-0.1;0.01;5.96;-414;-0.013;0;0;0.0001;0.0064;-33;175;359.761;0;1;0.111;-0.982;65291034;0;0;0.0001;0.0063;0.536;337.571;-0.1;-5.99;-0.405;-0.292;1.63;1;65290991;0.00731206;0.0731597;0.357809;-0.100505;0.0418156;0.989325;1.53569;-2.43985;3.09137;65290000;47.59844861;-122.83077627;93.97490824;0.00000000;0.00000000;4.64662123;4.30810070;
65291171;76.6;19;18.8;0;19;18.2;-5.99;-0.09;0;5.98;-378;-0.01;0;0;0.0001;0.0066;-36;178;157.918;0;1;0.087;-0.855;65291126;0;0;0.0001;0.0065;0.536;337.592;-0.09;-5.99;-0.379;-0.32;1.658;1;65291078;0.00537212;0.0678219;0.35453;-0.150439;0.00226271;0.986565;0.906858;-5.88564;1.56554;65290000;47.59844861;-122.83077627;93.97490824;0.00000000;0.00000000;4.64662123;4.30810070;
65291264;76.6;19.1;18.8;0;19.1;18.2;-3.42;-0.02;-0.55;5.6;37;0;0;0;0.0001;0.0067;-38;180;46.0266;0;1;0.152;-0.315;65291216;0;0;0.0001;0.0066;0.536;337.593;-0.01;-5.79;-0.306;-0.348;1.687;1;65291172;0.00217968;0.0591254;0.353337;-0.261141;-0.00901673;0.983716;0.351437;-6.24303;0.844935;65290000;47.59844861;-122.83077627;93.97490824;0.00000000;0.00000000;4.64662123;4.30810070;
65291386;76.6;19.1;18.8;0;19.1;18.2;0.72;-0.01;0.54;4.61;-33;0;0;0;0.0001;0.0067;-39;181;352.8;0;1;0.133;0.051;65291305;0;0;0.0001;0.0067;0.536;337.57;-0.02;4.85;-0.034;-0.358;1.696;1;65291265;0.0279041;0.0603303;0.336042;-0.108343;-0.0643034;0.981913;-18.1189;-6.53065;13.7823;65290000;47.59844861;-122.83077627;93.97490824;0.00000000;0.00000000;4.64662123;4.30810070;
65291575;76.6;19.1;18.8;0;19.2;18.2;2.32;-0.01;0.83;2.24;-9;0;0;0;0.0001;0.0067;-40;182;295.2;0;1;0.029;0.141;65291396;0;0;0.0001;0.0067;0.536;337.545;-0.01;3.71;0;-0.367;1.705;1;65291386;0.0305392;0.0517809;0.319758;-0.0713524;-0.0602607;0.979998;14.3041;-3.23301;7.6713;65291000;47.59844809;-122.83077817;94.31208842;0.00000000;0.00000000;4.84595108;4.51297188;
65291714;76.6;19.1;18.7;0;19.1;18.2;-2.12;0;0.39;-2.02;0;0;0;0;0.0001;0.0068;-39;183;352.8;0;1;0.058;0.144;65291579;0;0;0.0001;0.0067;0.536;337.52;0;-1.47;-0.005;-0.376;1.715;1;65291581;-0.00401999;0.0464759;0.307847;-0.0408525;0.101384;0.979708;-4.51265;0.577585;3.80198;65291000;47.59844809;-122.83077817;94.31208842;0.00000000;0.00000000;4.84595108;4.51297188;
65291803;76.6;19.1;18.8;0;19.1;18.2;-4.3;-0.02;0.94;-5;100;0;0;0;0.0001;0.0068;-38;184;54;0;1;0.112;0.11;65291717;0;0;0.0001;0.0068;0.536;337.473;-0.01;-4.25;0;-0.367;1.724;1;65291718;0.0364521;0.0808661;0.333431;-0.127651;-0.0822108;0.991663;-12.5651;13.9345;-11.2287;65291000;47.59844809;-122.83077817;94.31208842;0.00000000;0.00000000;4.84595108;4.51297188;
65291891;76.6;19.1;18.8;0;19;18.2;-4.89;-0.01;0.19;-5.96;69;0.006;0;0;0.0001;0.0068;-37;185;115.2;0;1;-0.064;0.132;65291804;0;0;0.0001;0.0068;0.536;337.468;-0.02;-5.84;0.084;-0.358;1.734;1;65291805;0.0472132;0.0984349;0.345026;-0.18261;-0.22715;0.992481;10.7648;6.61328;-1.53547;65291000;47.59844809;-122.83077817;94.31208842;0.00000000;0.00000000;4.84595108;4.51297188;
65291980;76.6;19.1;18.7;0;19.1;18.2;-6.03;-0.03;0.05;-6.03;163;0.01;0;0;0.0001;0.0069;-35;187;237.481;0;1;-0.246;0.365;65291892;0;0;0.0001;0.0068;0.536;337.459;-0.01;-5.99;0.035;-0.348;1.743;1;65291893;0.0130154;0.107;0.342573;-0.200673;0.0487606;0.988525;25.0636;1.33034;2.11286;65291000;47.59844809;-122.83077817;94.31208842;0.00000000;0.00000000;4.84595108;4.51297188;
65292072;76.6;19.1;18.8;0;19;18.2;-6.09;-0.06;-0.07;-6.09;315;0.012;0;0;0.0001;0.007;-31;191;79.5512;0;1;-0.161;0.686;65291981;0;0;0.0001;0.0069;0.536;337.456;-0.04;-5.98;0.164;-0.32;1.771;1;65291982;-0.0200365;0.111989;0.345535;-0.232195;0.100897;0.98408;11.1207;-0.690394;-3.81094;65291000;47.59844809;-122.83077817;94.31208842;0.00000000;0.00000000;4.84595108;4.51297188;
65292158;76.7;19.1;18.8;0;19.1;18.1;-6.06;-0.1;0.01;-6.06;402;0.02;0;0;0.0001;0.0072;-27;195;313.134;0;1;-0.056;1.01;65292074;0;0;0.0001;0.007;0.536;337.458;-0.09;-6.05;0.305;-0.292;1.8;1;65292075;-0.0190189;0.113436;0.351089;-0.202523;0.0748338;0.979617;-13.6146;0.499459;-3.83134;65291000;47.59844809;-122.83077817;94.31208842;0.00000000;0.00000000;4.84595108;4.51297188;
65292252;76.7;19.1;18.8;0;19.1;18.2;-6.01;-0.13;-0.04;-6.01;485;0.02;0;0;0.0001;0.0075;-23;199;228.045;0;1;-0.003;1.225;65292160;0;0;0.0001;0.0072;0.536;337.481;-0.12;-5.99;0.387;-0.254;1.837;1;65292160;0.0128201;0.120908;0.354745;-0.196033;-0.0452772;0.978291;-21.9568;6.33606;-1.2618;65291000;47.59844809;-122.83077817;94.31208842;0.00000000;0.00000000;4.84595108;4.51297188;
65292337;76.7;19.1;18.8;0;19.2;18.1;-6.01;-0.13;0.02;-6;492;0.023;0;0.0001;0.0001;0.0077;-18;204;137.303;0;1;-0.008;1.275;65292253;0;0;0.0001;0.0075;0.536;337.508;-0.14;-5.97;0.458;-0.216;1.875;1;65292253;0.0374775;0.13213;0.355802;-0.12024;-0.102122;0.978168;-4.88584;5.22381;-0.499461;65291000;47.59844809;-122.83077817;94.31208842;0.00000000;0.00000000;4.84595108;4.51297188;
65292428;76.6;19.1;18.8;0;19.1;18.2;-5.96;-0.12;-0.01;-5.95;478;0.017;0;0.0001;0.0001;0.008;-14;208;39.0854;0;1;0.029;1.169;65292342;0;0.0001;0.0001;0.0078;0.536;337.535;-0.12;-5.83;0.469;-0.169;1.922;1;65292354;0.0308552;0.131575;0.356845;-0.0878058;-0.0390474;0.97562;12.8322;-2.84096;-1.90119;65291000;47.59844809;-122.83077817;94.31208842;0.00000000;0.00000000;4.84595108;4.51297188;
65292473;76.7;19.1;18.8;0;19.1;18.2;-5.94;-0.1;-0.03;-5.94;445;0.012;0;0.0001;0.0001;0.0081;-11;211;205.796;0;1;0.026;0.955;65292430;0;0.0001;0.0001;0.008;0.536;337.56;-0.09;-5.9;0.45;-0.131;1.96;1;65292430;0.00484643;0.120439;0.360837;-0.0368472;0.0340929;0.97203;17.0162;-8.09444;-2.21451;65292000;47.59843957;-122.83077622;94.55947073;0.00000000;0.00000000;4.71520281;4.53156376;
65292565;76.6;19.1;18.8;0;19.1;18.2;-5.99;-0.08;0.05;-5.99;398;0.012;0;0.0001;0.0001;0.0083;-9;213;356.573;0;1;0.012;0.867;65292521;0;0.0001;0.0001;0.0082;0.536;337.572;-0.1;-5.99;0.405;-0.094;1.998;1;65292521;-0.012107;0.1044;0.365089;-0.00655107;0.0553746;0.970552;3.80009;-3.46713;-1.52396;65292000;47.59843957;-122.83077622;94.55947073;0.00000000;0.00000000;4.71520281;4.53156376;
65292660;76.6;19.1;18.8;0;19.1;18.2;-5.92;-0.06;-0.03;-5.92;338;0.004;0;0.0001;0.0001;0.0084;-6;216;170.497;0;1;0.042;0.645;65292610;0;0.0001;0.0001;0.0083;0.536;337.572;-0.06;-5.85;0.336;-0.065;2.026;1;65292659;-0.00657501;0.105513;0.366291;-0.0337843;0.0212441;0.974156;-10.3053;-0.912308;1.86592;65292000;47.59843957;-122.83077622;94.55947073;0.00000000;0.00000000;4.71520281;4.53156376;
65292745;76.6;19.1;18.8;0;19.2;18.2;-5.4;-0.02;0.2;-5.39;82;0.003;0;0.0001;0.0001;0.0085;-4;218;293.967;0;1;0.016;0.431;65292702;0;0.0001;0.0001;0.0084;0.536;337.572;-0.02;-6.03;0.274;-0.037;2.054;1;65292659;-0.00657501;0.105513;0.366291;-0.0337843;0.0212441;0.974156;-10.3053;-0.912308;1.86592;65292000;47.59843957;-122.83077622;94.55947073;0.00000000;0.00000000;4.71520281;4.53156376;
65292838;76.6;19.1;18.8;0;19.1;18.2;-5.87;-0.01;0.05;-5.93;7;0;0;0.0001;0.0001;0.0085;-3;219;352.8;0;1;-0.109;0.237;65292789;0;0.0001;0.0001;0.0085;0.536;337.557;-0.01;-5.94;0.099;-0.028;2.064;1;65292745;0.0208856;0.0916238;0.357035;-0.092001;-0.000274758;0.977345;-7.26398;2.07083;6.06599;65292000;47.59843957;-122.83077622;94.55947073;0.00000000;0.00000000;4.71520281;4.53156376;
65292925;76.6;19.1;18.8;0;19.1;18.2;-0.74;-0.01;-0.26;-3.58;0;0;0;0.0001;0.0001;0.0085;-2;220;54;0;1;0.135;0.022;65292881;0;0.0001;0.0001;0.0085;0.536;337.532;-0.01;4.03;0.095;-0.018;2.073;1;65292839;0.0177573;0.0913111;0.347067;0.0673569;-0.0563745;0.981315;10.1777;1.17902;7.84764;65292000;47.59843957;-122.83077622;94.55947073;0.00000000;0.00000000;4.71520281;4.53156376;
65293013;76.6;19.2;18.8;0;19.2;18.2;-1.95;-0.01;0.41;2.41;-12;0;0;0.0001;0.0001;0.0085;-2;220;48.1667;0;1;0.16;-0.012;65292967;0;0.0001;0.0001;0.0085;0.536;337.514;0;-2.48;0;-0.018;2.073;1;65292926;-0.00476328;0.095294;0.340931;0.0779511;0.0746054;0.987477;10.6424;14.5086;-3.01099;65292000;47.59843957;-122.83077622;94.55947073;0.00000000;0.00000000;4.71520281;4.53156376;
65293104;76.6;19.1;18.7;0;19.1;18.2;-2.89;-0.02;0.16;6.02;-121;-0.004;0;0.0001;0.0001;0.0086;-4;222;295.2;0;1;-0.006;-0.149;65293064;0;0.0001;0.0001;0.0085;0.536;337.486;0;-6.03;-0.061;-0.028;2.082;1;65293015;-0.0164398;0.122388;0.345131;-0.0347143;-0.0380807;0.997425;4.79962;21.268;0.805543;65292000;47.59843957;-122.83077622;94.55947073;0.00000000;0.00000000;4.71520281;4.53156376;
65293196;76.6;19.1;18.8;0;19.1;18.2;-6.11;-0.06;0;6.11;-320;-0.014;0;0.0001;0.0001;0.0087;-7;225;113.743;0;1;-0.322;-0.643;65293149;0;0.0001;0.0001;0.0086;0.536;337.475;-0.05;-5.87;-0.159;-0.047;2.101;1;65293105;-0.0177892;0.143302;0.335437;-0.0403958;0.0199014;1.0014;-3.27452;8.12146;9.02712;65292000;47.59843957;-122.83077622;94.55947073;0.00000000;0.00000000;4.71520281;4.53156376;
65293293;76.7;19.1;18.8;0;19.1;18.2;-6.07;-0.12;-0.05;6.07;-443;-0.023;0;0.0001;0.0001;0.0089;-11;229;213.324;0;1;0.107;-1.125;65293244;0;0.0001;0.0001;0.0088;0.536;337.488;-0.12;-6.22;-0.36;-0.084;2.139;1;65293196;-0.0118588;0.134581;0.320378;-0.0279851;0.0278951;0.996105;-7.16485;-9.94058;8.92086;65292000;47.59843957;-122.83077622;94.55947073;0.00000000;0.00000000;4.71520281;4.53156376;
65293419;76.7;19.1;18.8;0;19.1;18.2;-6.04;-0.16;0;6.04;-564;-0.029;0;0.0001;0.0001;0.0094;-19;237;103.845;0;1;0.103;-1.457;65293374;0;0.0001;0.0001;0.0091;0.536;337.516;-0.13;-5.88;-0.468;-0.122;2.177;1;65293294;-0.00325912;0.11714;0.3094;-0.0248464;0.0534073;0.990305;-8.63053;-7.8969;3.40673;65292000;47.59843957;-122.83077622;94.55947073;0.00000000;0.00000000;4.71520281;4.53156376;
65293513;76.7;19.1;18.8;0;19;18.2;-6.01;-0.17;0.03;6;-585;-0.029;0;0.0001;0.0001;0.0097;-24;242;152.414;0;1;0.171;-1.587;65293466;0;0.0001;0.0001;0.0096;0.536;337.565;-0.18;-6.03;-0.559;-0.197;2.252;1;65293425;0.0159633;0.0956282;0.312391;-0.0852208;0.0172261;0.985665;-10.27;-9.68609;-7.25309;65293000;47.59843981;-122.83076894;94.79002030;0.00000000;0.00000000;4.81744957;4.60960770;
65293600;76.7;19.1;18.8;0;19.1;18.2;-5.98;-0.17;0;5.98;-594;-0.027;0;0.0001;0.0001;0.01;-29;247;182.314;0;1;0.185;-1.57;65293553;0;0.0001;0.0001;0.0099;0.536;337.596;-0.16;-6.04;-0.567;-0.254;2.309;1;65293514;0.0305887;0.085857;0.325125;-0.0779379;-0.0798005;0.984528;-5.72885;-4.58763;-8.40642;65293000;47.59843981;-122.83076894;94.79002030;0.00000000;0.00000000;4.81744957;4.60960770;
65293695;76.7;19.1;18.7;0;19.1;18.2;-5.92;-0.14;-0.02;5.91;-547;-0.022;0;0.0001;0.0001;0.0103;-34;252;246.316;0;1;0.186;-1.367;65293644;0;0.0001;0.0001;0.0102;0.536;337.623;-0.13;-5.7;-0.556;-0.301;2.356;1;65293601;0.0346418;0.0775914;0.330766;-0.187369;-0.162004;0.983756;7.55713;-7.55211;2.89648;65293000;47.59843981;-122.83076894;94.79002030;0.00000000;0.00000000;4.81744957;4.60960770;
65293783;76.6;19.1;18.8;0;19.2;18.2;-5.85;-0.08;-0.01;5.84;-418;-0.005;0;0.0001;0.0001;0.0105;-38;256;30.5059;0;1;0.145;-0.857;65293737;0;0.0001;0.0001;0.0105;0.536;337.643;-0.09;-5.87;-0.457;-0.339;2.393;1;65293696;0.0119255;0.0729642;0.319908;-0.230685;0.0107406;0.982855;19.6258;-2.45705;8.25053;65293000;47.59843981;-122.83076894;94.79002030;0.00000000;0.00000000;4.81744957;4.60960770;
65293874;76.6;19.1;18.8;0;19.1;18.2;-2.64;0;0.08;2.7;-90;-0.021;0;0.0001;0.0001;0.0106;-40;258;299.378;0;1;0.062;-0.445;65293828;0;0.0001;0.0001;0.0106;0.536;337.642;-0.01;-5.89;-0.238;-0.367;2.422;1;65293784;-0.0168269;0.0885577;0.310077;-0.303171;0.097747;0.985922;10.0932;12.484;4.36626;65293000;47.59843981;-122.83076894;94.79002030;0.00000000;0.00000000;4.81744957;4.60960770;
65293963;76.6;19.1;18.9;0;19.2;18.2;1.85;0.02;0.01;-1.82;-13;0;0;0.0001;0.0001;0.0106;-41;259;235.8;0;1;-0.142;-0.602;65293917;0;0.0001;0.0001;0.0106;0.536;337.604;0.01;1.79;-0.08;-0.376;2.431;1;65293874;-0.0207502;0.108963;0.312068;-0.127472;0.138287;0.987666;-10.5428;-1.14558;-7.24629;65293000;47.59843981;-122.83076894;94.79002030;0.00000000;0.00000000;4.81744957;4.60960770;
65294050;76.6;19.2;18.9;0;19.1;18.2;-0.67;-0.01;0.25;0.86;0;0;0;0.0001;0.0001;0.0106;-42;260;176.4;0;1;-0.11;-0.108;65294004;0;0.0001;0.0001;0.0106;0.536;337.576;0;-0.95;-0.097;-0.395;2.45;1;65293964;0.00229142;0.111253;0.321668;-0.197967;0.0175513;0.984931;-12.8745;6.59351;-3.46675;65293000;47.59843981;-122.83076894;94.79002030;0.00000000;0.00000000;4.81744957;4.60960770;
65294141;76.6;19.1;18.8;0;19.1;18.2;-3.01;-0.01;0.22;-5.24;0;0.008;0;0.0001;0.0001;0.0106;-41;261;235.8;0;1;-0.165;0.019;65294099;0;0.0001;0.0001;0.0106;0.536;337.548;-0.02;-5.9;0.089;-0.386;2.459;1;65294051;0.0255951;0.147141;0.333425;-0.268894;0.0205311;0.988499;-16.683;19.8092;-11.7708;65293000;47.59843981;-122.83076894;94.79002030;0.00000000;0.00000000;4.81744957;4.60960770;
65294237;76.6;19.1;18.8;0;19.1;18.2;-6.08;-0.01;-0.01;-6.07;120;0.008;0;0.0001;0.0001;0.0106;-39;263;352.8;0;1;-0.139;0.255;65294185;0;0.0001;0.0001;0.0106;0.536;337.521;-0.01;-6.02;0.084;-0.376;2.469;1;65294143;0.0441053;0.176009;0.353418;-0.257304;-0.218077;0.987822;3.44282;13.9285;-4.97346;65293000;47.59843981;-122.83076894;94.79002030;0.00000000;0.00000000;4.81744957;4.60960770;
65294325;76.6;19.1;18.8;0;19.1;18.2;-6.08;-0.05;0.02;-6.08;286;0.014;0;0.0001;0.0001;0.0107;-36;266;160.079;0;1;-0.326;0.523;65294278;0;0.0001;0.0001;0.0107;0.536;337.502;-0.05;-6.03;0.162;-0.358;2.488;1;65294238;0.0232717;0.191505;0.358786;-0.338028;-0.0241368;0.980235;23.1428;0.500256;-3.75356;65293000;47.59843981;-122.83076894;94.79002030;0.00000000;0.00000000;4.81744957;4.60960770;
65294409;76.7;19.1;18.9;0;19.1;18.2;-6.11;-0.11;-0.05;-6.1;426;0.021;0;0.0001;0.0001;0.011;-32;270;46.5235;0;1;-0.064;1.083;65294367;0;0.0001;0.0001;0.0108;0.536;337.511;-0.09;-5.99;0.339;-0.32;2.525;1;65294326;-0.0114367;0.190154;0.369084;-0.34097;0.0707585;0.967739;15.241;-7.87399;-8.03418;65293000;47.59843981;-122.83076894;94.79002030;0.00000000;0.00000000;4.81744957;4.60960770;
65294548;76.7;19.1;18.9;0;19.1;18.2;-6.06;-0.17;0;-6.05;595;0.031;0;0.0001;0.0001;0.0114;-24;278;168.422;0;1;-0.03;1.518;65294512;0;0.0001;0.0001;0.0111;0.536;337.53;-0.16;-5.95;0.468;-0.273;2.572;1;65294410;-0.0200979;0.181395;0.379538;-0.276911;0.0523736;0.956782;-3.73959;-7.69394;-4.12199;65294000;47.59843813;-122.83076228;94.86349930;0.00000000;0.00000000;4.94802952;4.70701313;
65294633;76.7;19.1;18.9;0;19.2;18.2;-6.01;-0.19;0;-6.01;648;0.033;0;0.0001;0.0001;0.0118;-18;284;164.141;0;1;0.008;1.732;65294589;0;0.0001;0.0001;0.0116;0.536;337.579;-0.19;-6.03;0.586;-0.197;2.648;1;65294549;0.0130641;0.175309;0.380486;-0.186141;-0.052955;0.949478;-18.8273;-3.41805;3.27172;65294000;47.59843813;-122.83076228;94.86349930;0.00000000;0.00000000;4.94802952;4.70701313;
65294725;76.7;19.1;18.9;0;19.1;18.2;-5.98;-0.18;0.01;-5.97;636;0.03;0;0.0001;0.0001;0.0122;-12;290;148.994;0;1;0.026;1.697;65294684;0;0.0001;0.0001;0.012;0.536;337.612;-0.18;-5.98;0.609;-0.141;2.704;1;65294634;0.0356008;0.166491;0.37405;-0.131881;-0.0975765;0.947829;-5.14879;-7.32424;4.64139;65294000;47.59843813;-122.83076228;94.86349930;0.00000000;0.00000000;4.94802952;4.70701313;
65294817;76.7;19.1;18.9;0;19.1;18.2;-5.96;-0.16;0;-5.95;589;0.023;0;0.0001;0.0001;0.0125;-7;295;104.548;0;1;0.054;1.53;65294772;0;0.0001;0.0001;0.0123;0.536;337.639;-0.16;-6.07;0.577;-0.084;2.761;1;65294726;0.0290387;0.152342;0.370225;-0.0476602;0.0189571;0.948039;11.4474;-7.10014;-0.822553;65294000;47.59843813;-122.83076228;94.86349930;0.00000000;0.00000000;4.94802952;4.70701313;
65294904;76.7;19.1;18.9;0;19.2;18.2;-5.94;-0.13;-0.03;-5.93;524;0.019;0;0.0001;0.0001;0.0128;-2;300;22.5541;0;1;0.056;1.27;65294861;0;0.0001;0.0001;0.0126;0.536;337.666;-0.13;-5.96;0.541;-0.037;2.808;1;65294817;0.00811168;0.14034;0.376879;-0.0306275;0.0299914;0.951868;12.9411;-1.13574;-6.28509;65294000;47.59843813;-122.83076228;94.86349930;0.00000000;0.00000000;4.94802952;4.70701313;
65294994;76.6;19.1;18.9;0;19.1;18.2;-5.9;-0.09;0.01;-5.89;428;0.009;0;0.0001;0.0001;0.0129;2;304;242.447;0;1;0.053;0.914;65294953;0;0.0001;0.0001;0.0129;0.536;337.687;-0.09;-5.9;0.445;0;2.846;1;65294904;-0.00527169;0.137327;0.388826;0.00466318;0.0561466;0.960666;2.33317;6.1196;-8.73145;65294000;47.59843813;-122.83076228;94.86349930;0.00000000;0.00000000;4.94802952;4.70701313;
65295087;76.6;19.2;19;0;19.1;18.2;-5.94;-0.05;0;-5.94;292;0.005;0;0.0001;0.0001;0.013;4;306;22.4036;0;1;0.067;0.557;65295042;0;0.0001;0.0001;0.013;0.536;337.689;-0.05;-5.91;0.343;0.028;2.874;1;65294995;-0.000624573;0.144362;0.399708;0.0144436;0.0068373;0.970813;-5.67374;4.48931;-3.86617;65294000;47.59843813;-122.83076228;94.86349930;0.00000000;0.00000000;4.94802952;4.70701313;
65295176;76.6;19.2;18.9;0;19.2;18.2;-2.38;-0.01;0.17;-5.76;121;0;0;0.0001;0.0001;0.0131;5;307;115.2;0;1;0.011;0.109;65295131;0;0.0001;0.0001;0.0131;0.536;337.671;0;-5.77;0.013;0.037;2.883;1;65295088;0.00839483;0.143652;0.401788;-0.015457;-0.0583556;0.97711;-0.851117;1.962;2.27192;65294000;47.59843813;-122.83076228;94.86349930;0.00000000;0.00000000;4.94802952;4.70701313;
65295266;76.6;19.2;19;0;19.2;18.2;1.59;0;-0.6;-1.54;0;0;0;0.0001;0.0001;0.0131;5;307;115.2;0;1;0.073;-0.144;65295221;0;0.0001;0.0001;0.0131;0.536;337.645;0;1.34;0.001;0.047;2.893;1;65295176;0.00358257;0.138655;0.39753;0.0056509;0.00468608;0.981433;6.68975;-3.28515;2.57755;65294000;47.59843813;-122.83076228;94.86349930;0.00000000;0.00000000;4.94802952;4.70701313;
65295357;76.6;19.2;18.9;0;19.2;18.2;-2.23;0;-0.45;2.14;0;0;0;0.0001;0.0001;0.0131;5;307;115.2;0;1;0.072;-0.148;65295311;0;0.0001;0.0001;0.0131;0.536;337.617;0;-2.03;0;0.047;2.893;1;65295267;-0.00850014;0.123554;0.394295;-0.0525891;0.0502103;0.982456;6.76804;-6.30225;1.89883;65294000;47.59843813;-122.83076228;94.86349930;0.00000000;0.00000000;4.94802952;4.70701313;
65295446;76.6;19.2;18.8;0;19.1;18.2;-5.48;-0.02;-0.07;5.54;-2;-0.003;0;0.0001;0.0001;0.0132;4;308;54;0;1;0.115;-0.099;65295408;0;0.0001;0.0001;0.0131;0.536;337.59;-0.02;-5.8;-0.117;0.037;2.902;1;65295357;-0.0142013;0.117048;0.395397;-0.0321632;-0.0383019;0.98533;0.571624;-4.01845;-0.672876;65294000;47.59843813;-122.83076228;94.86349930;0.00000000;0.00000000;4.94802952;4.70701313;
65295547;76.6;19.2;18.9;0;19.1;18.2;-6.06;-0.03;0.06;6.06;-161;-0.008;0;0.0001;0.0001;0.0132;2;310;282.795;0;1;-0.152;-0.352;65295546;0;0.0001;0.0001;0.0132;0.536;337.556;-0.05;-5.93;-0.137;0.018;2.921;1;65295447;-0.0130637;0.119004;0.397515;0.00762225;0.020729;0.991185;-4.13963;11.1376;-4.06881;65295000;47.59843751;-122.83075465;95.03937099;0.00000000;0.00000000;5.14396477;4.81200266;
65295718;76.7;19.2;18.9;0;19.2;18.2;-6.09;-0.11;-0.02;6.09;-468;-0.026;0;0.0001;0.0001;0.0136;-6;318;146.387;0;1;-0.027;-1.069;65295674;0;0.0001;0.0001;0.0134;0.536;337.562;-0.12;-6.14;-0.349;-0.018;2.959;1;65295548;-0.00740729;0.125524;0.397912;0.0175064;-0.0269944;0.996328;1.10019;1.00475;4.49978;65295000;47.59843751;-122.83075465;95.03937099;0.00000000;0.00000000;5.14396477;4.81200266;
65295808;76.7;19.2;18.9;0;19.2;18.2;-6.06;-0.17;-0.02;6.05;-567;-0.031;0;0.0001;0.0001;0.014;-11;323;188.478;0;1;0.154;-1.567;65295759;0;0.0001;0.0001;0.0138;0.536;337.602;-0.18;-6.28;-0.497;-0.084;3.025;1;65295719;-0.00748081;0.109367;0.400989;0.0111037;0.0986614;0.994983;-9.72811;-1.40808;-12.3747;65295000;47.59843751;-122.83075465;95.03937099;0.00000000;0.00000000;5.14396477;4.81200266;
65295904;76.7;19.2;18.9;0;19.1;18.2;-6.05;-0.2;0;6.04;-646;-0.037;0;0.0001;0.0001;0.0144;-17;329;181.267;0;1;0.16;-1.796;65295854;0;0.0001;0.0001;0.0141;0.536;337.633;-0.21;-6.1;-0.584;-0.131;3.072;1;65295809;0.012514;0.111295;0.424499;-0.0368461;-0.112418;0.996851;-11.0947;4.93333;-15.2009;65295000;47.59843751;-122.83075465;95.03937099;0.00000000;0.00000000;5.14396477;4.81200266;
65295984;76.7;19.2;18.9;0;19.2;18.2;-5.99;-0.21;0;5.99;-687;-0.034;0;0.0001;0.0001;0.0148;-24;336;145.139;0;1;0.174;-1.914;65295937;0;0.0001;0.0001;0.0146;0.536;337.676;-0.2;-6.12;-0.645;-0.197;3.138;1;65295905;0.0242583;0.115576;0.43574;-0.151618;-0.258189;0.996899;7.73211;-3.39371;5.64947;65295000;47.59843751;-122.83075465;95.03937099;0.00000000;0.00000000;5.14396477;4.81200266;
65296081;76.7;19.2;19;0;19.2;18.2;-5.88;-0.16;-0.01;5.87;-604;-0.022;0;0.0001;0.0001;0.0151;-29;341;188.927;0;1;0.223;-1.556;65296038;0;0.0001;0.0001;0.0149;0.536;337.711;-0.17;-5.86;-0.633;-0.254;3.195;1;65295992;-0.00205821;0.0960672;0.411885;-0.19478;0.00625143;0.988379;20.7563;-16.1308;19.6754;65295000;47.59843751;-122.83075465;95.03937099;0.00000000;0.00000000;5.14396477;4.81200266;
65296172;76.6;19.2;18.9;0;19.2;18.2;-5.85;-0.09;0;5.85;-435;-0.006;0;0.0002;0.0001;0.0153;-33;345;319.445;0;1;0.179;-0.963;65296122;0;0.0001;0.0001;0.0152;0.536;337.732;-0.09;-5.9;-0.509;-0.301;3.242;1;65296121;-0.0345644;0.0975576;0.377211;-0.315263;0.187864;0.985234;-7.75211;7.46099;6.05365;65295000;47.59843751;-122.83075465;95.03937099;0.00000000;0.00000000;5.14396477;4.81200266;
65296259;76.6;19.2;18.9;0;19.2;18.2;-4.74;-0.02;0.07;4.66;-9;-0.026;0;0.0002;0.0001;0.0154;-35;347;215.393;0;1;0.088;-0.472;65296210;0;0.0002;0.0001;0.0153;0.536;337.722;-0.03;-5.91;-0.306;-0.32;3.26;1;65296210;-0.0116357;0.12716;0.371549;-0.265952;-0.0172712;0.988214;-18.2793;17.151;2.09957;65295000;47.59843751;-122.83075465;95.03937099;0.00000000;0.00000000;5.14396477;4.81200266;
65296390;76.6;19.2;19;0;19.2;18.2;0.04;0.01;0.04;0.06;-16;0;0;0.0002;0.0002;0.0154;-38;350;54;0;1;-0.127;-0.602;65296354;0;0.0002;0.0002;0.0154;0.536;337.681;0.02;1.74;-0.089;-0.339;3.279;1;65296355;0.0100363;0.141841;0.366785;-0.154935;-0.0736384;0.986006;-6.5606;-0.559935;2.09594;65295000;47.59843751;-122.83075465;95.03937099;0.00000000;0.00000000;5.14396477;4.81200266;
65296478;76.6;19.2;18.9;0;19.2;18.2;-0.37;0;0.01;0.16;0;0;0;0.0002;0.0002;0.0154;-38;350;54;0;1;0.162;-0.008;65296437;0;0.0002;0.0002;0.0154;0.536;337.64;0;0.22;0;-0.358;3.298;1;65296448;0.0129759;0.167011;0.346844;-0.240775;0.0443196;0.981106;-4.86245;11.7028;10.1136;65296000;47.59843985;-122.83074662;95.49089715;0.00000000;0.00000000;5.25181532;4.89935446;
65296575;76.6;19.2;19;0;19.2;18.2;0.54;0;-0.64;-1.52;0;0;0;0.0002;0.0002;0.0154;-38;350;54;0;1;0.163;-0.004;65296525;0;0.0002;0.0002;0.0154;0.536;337.613;0;1.73;0;-0.358;3.298;1;65296525;0.00717041;0.186208;0.341016;-0.205816;0.00662564;0.977995;10.1347;8.58165;-0.727337;65296000;47.59843985;-122.83074662;95.49089715;0.00000000;0.00000000;5.25181532;4.89935446;
65296664;76.6;19.2;18.9;0;19.2;18.2;0.58;0;-0.43;-1.77;0;0;0;0.0002;0.0002;0.0154;-38;350;54;0;1;0.163;-0.004;65296616;0;0.0002;0.0002;0.0154;0.536;337.585;0;1.87;0;-0.358;3.298;1;65296617;-0.00546197;0.192806;0.336481;-0.187949;0.0389162;0.972093;3.09064;0.183861;6.37145;65296000;47.59843985;-122.83074662;95.49089715;0.00000000;0.00000000;5.25181532;4.89935446;
65296750;76.6;19.2;19;0;19.1;18.2;0.72;0;-0.13;-1.93;0;0;0;0.0002;0.0002;0.0154;-38;350;54;0;1;0.162;-0.004;65296706;0;0.0002;0.0002;0.0154;0.536;337.557;0;1.92;0;-0.358;3.298;1;65296749;-0.0133182;0.195957;0.331197;-0.186926;0.0521273;0.967249;3.68634;1.45213;0.333034;65296000;47.59843985;-122.83074662;95.49089715;0.00000000;0.00000000;5.25181532;4.89935446;
65296884;76.6;19.2;18.9;0;19.2;18.2;1.1;0;0.43;-2.26;80;0;0;0.0002;0.0002;0.0155;-37;351;91.166;0;1;0.159;-0.009;65296800;0;0.0002;0.0002;0.0154;0.536;337.529;0;-1.99;0;-0.358;3.298;1;65296844;-0.0191269;0.199693;0.331241;-0.215402;0.00607442;0.962844;0.949683;3.00889;1.96266;65296000;47.59843985;-122.83074662;95.49089715;0.00000000;0.00000000;5.25181532;4.89935446;
65296976;76.6;19.3;18.9;0;19.2;18.2;3.23;-0.01;-0.77;-3.11;0;0;0;0.0002;0.0002;0.0155;-37;351;115.2;0;1;0.078;-0.14;65296886;0;0.0002;0.0002;0.0155;0.536;337.501;-0.01;2.9;0.092;-0.348;3.308;1;65296931;-0.01904;0.203563;0.325868;-0.22005;0.056365;0.961512;-2.82073;1.55817;3.85431;65296000;47.59843985;-122.83074662;95.49089715;0.00000000;0.00000000;5.25181532;4.89935446;
65297062;76.6;19.2;19;0;19.3;18.2;4.27;-0.01;0.45;-4.13;116;0;0;0.0002;0.0002;0.0155;-36;352;176.4;0;1;0.036;-0.142;65296977;0;0.0002;0.0002;0.0155;0.536;337.48;-0.01;3.88;0;-0.348;3.308;1;65297021;-0.0120244;0.207848;0.32429;-0.21165;0.0322913;0.960974;-7.78893;2.96496;-2.32981;65296000;47.59843985;-122.83074662;95.49089715;0.00000000;0.00000000;5.25181532;4.89935446;
65297154;76.6;19.2;18.9;0;19.3;18.2;4.11;-0.01;0.06;-4;0;0;0;0.0002;0.0002;0.0156;-36;352;176.4;0;1;-0.096;-0.127;65297064;0;0.0002;0.0002;0.0155;0.536;337.455;-0.02;4.36;0.103;-0.339;3.317;1;65297111;7.80713e-05;0.21407;0.328231;-0.172835;0.0116646;0.961904;-6.57045;7.08933;-2.90056;65296000;47.59843985;-122.83074662;95.49089715;0.00000000;0.00000000;5.25181532;4.89935446;
65297246;76.6;19.2;19;0;19.3;18.2;-1.12;-0.01;0.01;-3.22;0;0;0;0.0002;0.0002;0.0156;-35;353;235.8;0;1;-0.153;-0.006;65297155;0;0.0002;0.0002;0.0156;0.536;337.429;-0.01;3.57;0.014;-0.329;3.326;1;65297200;0.00790481;0.231338;0.329575;-0.184425;-0.0262065;0.966197;0.0921067;15.8247;2.46891;65296000;47.59843985;-122.83074662;95.49089715;0.00000000;0.00000000;5.25181532;4.89935446;
65297338;76.6;19.2;19;0;19.2;18.2;-2.38;-0.01;1.4;-2.28;39;0;0;0.0002;0.0002;0.0156;-34;354;253.133;0;1;-0.161;0.017;65297248;0;0.0002;0.0002;0.0156;0.536;337.402;-0.01;-3.09;0;-0.329;3.326;1;65297289;0.0031411;0.261996;0.326371;-0.233986;0.0047592;0.972683;4.57575;23.3746;1.43608;65296000;47.59843985;-122.83074662;95.49089715;0.00000000;0.00000000;5.25181532;4.89935446;
65297468;76.6;19.2;18.9;0;19.2;18.2;-1.94;0;0.31;-1.89;0;0;0;0.0002;0.0002;0.0156;-34;354;295.2;0;1;-0.081;0.14;65297339;0;0.0002;0.0002;0.0156;0.536;337.374;0;-2.21;0.055;-0.32;3.336;1;65297381;-0.00475385;0.296033;0.325459;-0.271393;0.00993489;0.976235;3.30709;20.4179;-0.179166;65297000;47.59843487;-122.83074365;95.56432866;0.00000000;0.00000000;5.18054771;5.02352619;
65297606;76.6;19.2;18.9;0;19.2;18.2;-1;0;0.72;-0.89;0;0;0;0.0002;0.0002;0.0156;-34;354;295.2;0;1;-0.072;0.148;65297560;0;0.0002;0.0002;0.0156;0.536;337.308;0;0.76;0;-0.32;3.336;1;65297519;-0.00197192;0.34347;0.326403;-0.373238;0.415518;0.974494;-29.4817;2.63373;-0.493413;65297000;47.59843487;-122.83074365;95.56432866;0.00000000;0.00000000;5.18054771;5.02352619;
65297694;76.6;19.2;19;0;19.2;18.2;-1.18;0;0.88;-0.74;0;0;0;0.0002;0.0002;0.0156;-34;354;295.2;0;1;-0.072;0.148;65297652;0;0.0002;0.0002;0.0156;0.536;337.281;0;-1.28;0;-0.32;3.336;1;65297607;0.0158963;0.343291;0.33183;-0.322735;-0.124366;0.959828;1.57354;1.48878;-2.92532;65297000;47.59843487;-122.83074365;95.56432866;0.00000000;0.00000000;5.18054771;5.02352619;
65297787;76.6;19.2;19;0;19.3;18.2;-0.22;0;0.71;-0.13;0;0;0;0.0002;0.0002;0.0156;-34;354;295.2;0;1;-0.072;0.146;65297739;0;0.0002;0.0002;0.0156;0.536;337.256;0;-0.71;0;-0.32;3.336;1;65297695;0.0135623;0.343416;0.333182;-0.330488;-0.0469964;0.948819;5.72449;0.970393;1.14296;65297000;47.59843487;-122.83074365;95.56432866;0.00000000;0.00000000;5.18054771;5.02352619;
65297876;76.6;19.2;18.9;0;19.2;18.2;0.46;0;0.62;0.03;0;0;0;0.0002;0.0002;0.0156;-34;354;295.2;0;1;-0.071;0.146;65297828;0;0.0002;0.0002;0.0156;0.536;337.23;0;0.66;0;-0.32;3.336;1;65297788;0.00380365;0.34332;0.330144;-0.324535;0.03577;0.940425;2.46787;-1.06233;0.88731;65297000;47.59843487;-122.83074365;95.56432866;0.00000000;0.00000000;5.18054771;5.02352619;
65297968;76.6;19.2;19;0;19.2;18.2;0.47;0;0.64;0.03;0;0;0;0.0002;0.0002;0.0156;-34;354;295.2;0;1;-0.072;0.146;65297919;0;0.0002;0.0002;0.0156;0.536;337.204;0;0.69;0;-0.32;3.336;1;65297877;0.00489958;0.343776;0.330935;-0.336126;0.00367106;0.934444;-3.88636;0.51949;-1.87418;65297000;47.59843487;-122.83074365;95.56432866;0.00000000;0.00000000;5.18054771;5.02352619;
65298057;76.6;19.2;19;0;19.2;18.2;0.43;0;0.64;0.03;0;0;0;0.0002;0.0002;0.0156;-34;354;295.2;0;1;-0.072;0.146;65298008;0;0.0002;0.0002;0.0156;0.536;337.19;0;0.75;0;-0.32;3.336;1;65297968;0.0114382;0.343767;0.333643;-0.33123;-0.0500373;0.930161;-0.601587;0.323812;-0.473838;65297000;47.59843487;-122.83074365;95.56432866;0.00000000;0.00000000;5.18054771;5.02352619;
65298150;76.6;19.2;18.9;0;19.3;18.2;0.49;0;0.64;0.04;0;0;0;0.0002;0.0002;0.0156;-34;354;295.2;0;1;-0.072;0.146;65298102;0;0.0002;0.0002;0.0156;0.536;337.169;0;0.67;0;-0.32;3.336;1;65298057;0.00874127;0.343911;0.332889;-0.334915;-0.00571851;0.927296;3.04408;-0.290731;1.03968;65297000;47.59843487;-122.83074365;95.56432866;0.00000000;0.00000000;5.18054771;5.02352619;
65298237;76.6;19.2;19;0;19.3;18.2;0.41;0;0.65;0.03;0;0;0;0.0002;0.0002;0.0156;-34;354;295.2;0;1;-0.071;0.146;65298192;0;0.0002;0.0002;0.0156;0.536;337.144;0;0.66;0;-0.32;3.336;1;65298151;0.00531145;0.343942;0.331936;-0.332186;0.0196888;0.925679;-0.462123;-0.0962915;-0.481775;65297000;47.59843487;-122.83074365;95.56432866;0.00000000;0.00000000;5.18054771;5.02352619;
65298322;76.6;19.2;18.9;0;19.3;18.2;0.36;0;0.64;0.02;0;0;0;0.0002;0.0002;0.0156;-34;354;295.2;0;1;-0.072;0.145;65298285;0;0.0002;0.0002;0.0156;0.535;337.125;0;0.57;0;-0.32;3.336;1;65298238;0.00825763;0.344302;0.333349;-0.334105;-0.0181091;0.925109;-1.97544;0.249296;-0.914717;65297000;47.59843487;-122.83074365;95.56432866;0.00000000;0.00000000;5.18054771;5.02352619;
65298418;76.6;19.2;18.9;0;19.3;18.2;0.49;0;0.64;0.04;0;0;0;0.0002;0.0002;0.0156;-34;354;295.2;0;1;-0.072;0.145;65298374;0;0.0002;0.0002;0.0156;0.535;337.107;0;0.9;0;-0.32;3.336;1;65298324;0.00992793;0.344567;0.334266;-0.332152;-0.0228753;0.924931;1.07567;0.120947;0.224351;65297000;47.59843487;-122.83074365;95.56432866;0.00000000;0.00000000;5.18054771;5.02352619;
65298507;76.6;19.2;18.9;0;19.2;18.2;0.4;0;0.64;0.03;0;0;0;0.0002;0.0002;0.0156;-34;354;295.2;0;1;-0.071;0.146;65298458;0;0.0002;0.0002;0.0156;0.535;337.1;0;-0.63;0;-0.32;3.336;1;65298419;0.00768518;0.344522;0.333733;-0.332186;0.00602552;0.924994;0.714769;-0.160153;0.118347;65298000;47.59843473;-122.83074378;95.98352186;0.00000000;0.00000000;5.21225357;5.17240620;
65298600;76.6;19.2;19;0;19.1;18.2;0.42;0;0.65;0.03;0;0;0;0.0002;0.0002;0.0156;-34;354;295.2;0;1;-0.071;0.145;65298599;0;0.0002;0.0002;0.0156;0.535;337.086;0;0.63;0;-0.32;3.336;1;65298508;0.00790823;0.344682;0.33414;-0.334907;-0.00637696;0.925631;-1.04445;-0.0286489;-0.712465;65298000;47.59843473;-122.83074378;95.98352186;0.00000000;0.00000000;5.21225357;5.17240620;
65298687;76.6;19.2;18.9;0;19.2;18.2;0.45;0;0.65;0.03;0;0;0;0.0002;0.0002;0.0156;-34;354;295.2;0;1;-0.072;0.146;65298599;0;0.0002;0.0002;0.0156;0.535;337.086;0;0.63;0;-0.32;3.336;1;65298646;0.00930287;0.344864;0.335085;-0.337354;-0.0136392;0.926544;0.569187;-0.0207487;0.0594204;65298000;47.59843473;-122.83074378;95.98352186;0.00000000;0.00000000;5.21225357;5.17240620;
65298776;76.6;19.2;18.9;0;19.3;18.2;0.44;0;0.64;0.03;0;0;0;0.0002;0.0002;0.0156;-34;354;295.2;0;1;-0.072;0.145;65298688;0;0.0002;0.0002;0.0156;0.535;337.07;0;0.76;0;-0.32;3.336;1;65298729;0.00843265;0.344961;0.33501;-0.331708;-0.000433891;0.927227;0.138559;0.048196;-0.044048;65298000;47.59843473;-122.83074378;95.98352186;0.00000000;0.00000000;5.21225357;5.17240620;
65298863;76.6;19.2;18.9;0;19.2;18.2;0.48;0;0.65;0.04;0;0;0;0.0002;0.0002;0.0156;-34;354;295.2;0;1;-0.072;0.146;65298777;0;0.0002;0.0002;0.0156;0.535;337.062;0;0.68;0;-0.32;3.336;1;65298825;0.00878822;0.345019;0.335477;-0.3357;-0.00721683;0.927817;-0.449887;0.115125;-0.344467;65298000;47.59843473;-122.83074378;95.98352186;0.00000000;0.00000000;5.21225357;5.17240620;
65298959;76.6;19.2;18.9;0;19.2;18.2;0.44;0;0.68;0.04;0;0;0;0.0002;0.0002;0.0156;-34;354;295.2;0;1;-0.071;0.146;65298864;0;0.0002;0.0002;0.0156;0.535;337.053;0;0.63;0;-0.32;3.336;1;65298909;0.0092309;0.34506;0.335938;-0.335444;-0.0101148;0.928272;0.062709;0.187538;-0.109092;65298000;47.59843473;-122.83074378;95.98352186;0.00000000;0.00000000;5.21225357;5.17240620;
65299042;76.6;19.2;19;0;19.2;18.2;0.52;0;0.67;0.04;0;0;0;0.0002;0.0002;0.0156;-34;354;295.2;0;1;-0.072;0.146;65298960;0;0.0002;0.0002;0.0156;0.535;337.031;0;0.7;0;-0.32;3.336;1;65299000;0.00885973;0.345132;0.336095;-0.335529;-0.00524503;0.928671;-0.013141;-0.0930988;-0.169837;65298000;47.59843473;-122.83074378;95.98352186;0.00000000;0.00000000;5.21225357;5.17240620;
65299137;76.6;19.2;18.9;0;19.3;18.2;0.39;0;0.64;0.03;0;0;0;0.0002;0.0002;0.0156;-34;354;295.2;0;1;-0.071;0.146;65299049;0;0.0002;0.0002;0.0156;0.535;337.009;0;-0.61;0;-0.32;3.336;1;65299091;0.00922407;0.345232;0.336523;-0.33402;-0.00687576;0.929128;-0.380155;-0.0949268;-0.348435;65298000;47.59843473;-122.83074378;95.98352186;0.00000000;0.00000000;5.21225357;5.17240620;
65299235;76.6;19.2;18.9;0;19.2;18.2;0.39;0;0.64;0.03;0;0;0;0.0002;0.0002;0.0156;-34;354;295.2;0;1;-0.072;0.146;65299138;0;0.0002;0.0002;0.0156;0.535;336.999;0;0.66;0;-0.32;3.336;1;65299183;0.00951208;0.345247;0.336915;-0.332996;-0.00724432;0.929392;0.271905;0.0473571;-0.126011;65298000;47.59843473;-122.83074378;95.98352186;0.00000000;0.00000000;5.21225357;5.17240620;
