ride_id,sample_idx,_elapsed_ms,ts_utc,ts_pst,ms_today,cf_accel,cf_brake,cf_cruise,cf_turn_left,cf_turn_right,cf_carve_left,cf_carve_right,cf_ascent,cf_descent,cf_traction_loss,cf_idle,cf_forward,cf_reverse,speed_meters_per_sec,erpm,duty_cycle,current_in,current_motor,d_axis_current,q_axis_current,roll,pitch,yaw,accX,accY,accZ,gyroX,gyroY,gyroZ,gnss_lat,fault_code,d_axis_voltage,q_axis_voltage,tacho_meters,tacho_abs_meters,gnss_lon,gnss_alt,gnss_gVel,gnss_vVel,input_voltage,temp_mos_max,temp_motor,battery_level,dt_ms,_on_grid
ride_102,0,0.0,2025-09-30 18:08:03.925000+00:00,2025-09-30 11:08:03.925,65283925,,,,,,,,,,,,,,0.0,0.0,0.001,0.0,0.0,0.0,0.0,0.0310937,0.345221,0.261759,-0.336152,-0.0224539,0.928431,-0.0192589,0.0461802,-0.240998,47.59843303,0.0,-0.008,0.075,-0.103,0.744,-122.83079051,92.69771484,0.0,0.0,76.6,19.0,18.1,0.537,100,True
,1,100.0,2025-09-30 18:08:04.025000+00:00,2025-09-30 11:08:04.025,65284025,,,,,,,,,,,,,,0.0,0.0,0.001,0.0,0.0,0.0,0.0,0.030400762365591395,0.34952374193548386,0.406487688172043,-0.33862840860215054,-0.02595319569892473,0.9293206451612903,-0.0722162870967742,0.10615345376344086,-0.044283134408602154,47.598428967204306,,-0.008,0.075,-0.103,0.744,-122.83078592419355,93.6957611376344,0.0,0.0,76.6,19.0,18.1,0.537,100,True
,2,200.0,2025-09-30 18:08:04.125000+00:00,2025-09-30 11:08:04.125,65284125,,,,,,,,,,,,,,0.0,0.0,0.001,0.0,0.0,0.0,0.0,0.03043303214285714,0.34952207142857145,0.40698392857142857,-0.33959435714285713,-0.023494471428571428,0.9292662500000001,-0.07763122142857143,-0.03639156428571429,-0.24758089285714288,47.5983858,,-0.00817857142857143,0.07482142857142857,-0.103,0.744,-122.8307372,104.30000305,0.0,0.0,76.6,19.0,18.1,0.537,100,True
,3,300.0,2025-09-30 18:08:04.225000+00:00,2025-09-30 11:08:04.225,65284225,,,,,,,,,,,,,,0.0,0.0,0.001,0.0,0.0,0.0,0.0,0.03046485979381443,0.3495394639175258,0.4073812268041237,-0.33869943298969074,-0.026217829896907213,0.9291493195876289,-0.021466321649484536,-0.11643994020618556,-0.2644964432989691,47.5983858,,-0.00868041237113402,0.07431958762886598,-0.103,0.744,-122.8307372,104.30000305,0.0,0.0,76.6,19.0,18.1,0.537,100,True
,4,400.0,2025-09-30 18:08:04.325000+00:00,2025-09-30 11:08:04.325,65284325,,,,,,,,,,,,,,0.0,0.0,0.001,0.0,0.0,0.0,0.0,0.030462595348837208,0.3495750930232558,0.40774411627906976,-0.3396738837209302,-0.022363306976744185,0.9290824186046511,0.00959017441860465,-0.0806652023255814,-0.22752311627906976,47.5983858,,-0.008395348837209302,0.07460465116279069,-0.103,0.744,-122.8307372,104.30000305,0.0,0.0,76.6,19.0,18.1,0.537,100,True
,5,500.0,2025-09-30 18:08:04.425000+00:00,2025-09-30 11:08:04.425,65284425,,,,,,,,,,,,,,0.0,0.0,0.001,0.0,0.0,0.0,0.0,0.0304788,0.349589,0.407963,-0.340339,-0.0244372,0.92908,0.0443555,0.0454039,-0.316844,47.59840234808511,,-0.008659574468085105,0.07434042553191489,-0.103,0.744,-122.8307544493617,100.35835952659575,0.0,0.0,76.6,19.0,18.1,0.537,100,True
,6,600.0,2025-09-30 18:08:04.525000+00:00,2025-09-30 11:08:04.525,65284525,,,,,,,,,,,,,,0.0,0.0,0.001,0.0,0.0,0.0,0.0,0.0304766496,0.349584856,0.40800124800000004,-0.340177552,-0.024294534399999998,0.929091256,0.0368881016,0.049370665599999995,-0.31229416800000004,47.59843441,,-0.008056,0.075,-0.103,0.744,-122.83078787,92.7214252,0.0,0.0,76.6,19.0,18.1,0.537,100,True
,7,700.0,2025-09-30 18:08:04.625000+00:00,2025-09-30 11:08:04.625,65284625,,,,,,,,,,,,,,0.0,0.0,0.001,0.0,0.0,0.0,0.0,0.0304459296,0.349525656,0.408547648,-0.337871152,-0.0222564544,0.929252056,-0.06978901840000001,0.1060387456,-0.247296568,47.59843441,,-0.008856,0.075,-0.103,0.744,-122.83078787,92.7214252,0.0,0.0,76.6,19.0,18.1,0.537,100,True
,8,800.0,2025-09-30 18:08:04.725000+00:00,2025-09-30 11:08:04.725,65284725,,,,,,,,,,,,,,0.0,0.0,0.001,0.0,0.0,0.0,0.0,0.03046436222222222,0.34951591111111113,0.40913344444444444,-0.33950053333333335,-0.021919757777777778,0.9293475111111111,0.03250248666666668,0.05170035333333334,-0.30962204444444447,47.59843441,,-0.008088888888888889,0.07408888888888888,-0.103,0.744,-122.83078787,92.7214252,0.0,0.0,76.6,19.0,18.1,0.537,100,True
,9,900.0,2025-09-30 18:08:04.825000+00:00,2025-09-30 11:08:04.825,65284825,,,,,,,,,,,,,,0.0,0.0,0.001,0.0,0.0,0.0,0.0,0.03048915882352941,0.34951329411764703,0.4094069411764706,-0.33716661764705885,-0.02156768823529412,0.9293100294117648,-0.04584941764705882,0.09332176176470589,-0.2618827941176471,47.59843441,,-0.008,0.074,-0.103,0.744,-122.83078787,92.7214252,0.0,0.0,76.6,19.0,18.1,0.537,100,True
,10,1000.0,2025-09-30 18:08:04.925000+00:00,2025-09-30 11:08:04.925,65284925,,,,,,,,,,,,,,0.0,0.0,0.001,0.0,0.0,0.0,0.0,0.03049950404040404,0.34954141414141415,0.4097859494949495,-0.33722433333333335,-0.021416623232323233,0.9291306161616162,-0.006641429292929296,0.03738415555555555,-0.2022651212121212,47.59843441,,-0.008565656565656565,0.074,-0.103,0.744,-122.83078787,92.7214252,0.0,0.0,76.6,19.0,18.1,0.537,100,True
,11,1100.0,2025-09-30 18:08:05.025000+00:00,2025-09-30 11:08:05.025,65285025,,,,,,,,,,,,,,0.0,0.0,0.001,0.0,0.0,0.0,0.0,0.030528224137931034,0.3495567931034483,0.4102121724137931,-0.33690765517241383,-0.020433631034482758,0.9288275172413794,0.010904586206896556,0.022735558620689662,-0.17313241379310346,47.59843441,,-0.008344827586206896,0.0746551724137931,-0.103,0.744,-122.83078787,92.7214252,0.0,0.0,76.6,19.0,18.1,0.537,100,True
,12,1200.0,2025-09-30 18:08:05.125000+00:00,2025-09-30 11:08:05.125,65285125,,,,,,,,,,,,,,0.0,0.0,0.001,0.0,0.0,0.0,0.0,0.030540968085106385,0.3495284255319149,0.4105682765957447,-0.3372698085106383,-0.02394233829787234,0.9286083829787234,-0.12155312765957446,0.09858075744680851,-0.2146178723404255,47.59843441,,-0.00874468085106383,0.07425531914893617,-0.103,0.744,-122.83078787,92.7214252,0.0,0.0,76.6,19.0,18.1,0.537,100,True
,13,1300.0,2025-09-30 18:08:05.225000+00:00,2025-09-30 11:08:05.225,65285225,,,,,,,,,,,,,,0.0,0.0,0.001,0.0,0.0,0.0,0.0,0.03053277142857143,0.3494675238095238,0.4109559047619048,-0.3395179523809524,-0.021313766666666668,0.9285732380952381,-0.03254119523809523,-0.01047160952380953,-0.2392532380952381,47.59843441,,-0.008095238095238095,0.0749047619047619,-0.103,0.744,-122.83078787,92.7214252,0.0,0.0,76.6,19.0,18.1,0.537,100,True
,14,1400.0,2025-09-30 18:08:05.325000+00:00,2025-09-30 11:08:05.325,65285325,,,,,,,,,,,,,,0.0,0.0,0.001,0.0,0.0,0.0,0.0,0.030591887209302327,0.34947669767441863,0.4113937093023256,-0.33568430232558144,-0.021155738372093023,0.9286369534883722,-0.09120999651162791,-0.09128108837209302,-0.23082722093023256,47.59843441,,-0.008,0.075,-0.103,0.744,-122.83078787,92.7214252,0.0,0.0,76.6,19.0,18.1,0.536,100,True
,15,1500.0,2025-09-30 18:08:05.425000+00:00,2025-09-30 11:08:05.425,65285425,,,,,,,,,,,,,,0.0,0.0,0.001,0.0,0.0,0.0,0.0,0.030547080208333334,0.34948696874999996,0.411747375,-0.33894346875,-0.027594333333333332,0.9288984375,-0.11664321770833333,0.0016534510416666669,-0.17417026041666667,47.5984344365625,,-0.008,0.075,-0.103,0.744,-122.83078781510416,92.76023093531249,0.0,0.0,76.6,19.0,18.1,0.536,100,True
,16,1600.0,2025-09-30 18:08:05.525000+00:00,2025-09-30 11:08:05.525,65285525,,,,,,,,,,,,,,0.0,0.0,0.001,0.0,0.0,0.0,0.0,0.0305346676056338,0.34943331690140844,0.41206842253521125,-0.33429606338028167,-0.020009551408450704,0.929122352112676,0.030753057746478872,0.12658959859154928,-0.2358165985915493,47.59843456,,-0.008,0.07470422535211267,-0.103,0.744,-122.83078756,92.94056347,0.0,0.0,76.6,19.0,18.1,0.536,100,True
,17,1700.0,2025-09-30 18:08:05.625000+00:00,2025-09-30 11:08:05.625,65285625,,,,,,,,,,,,,,0.0,0.0,0.001,0.0,0.0,0.0,0.0,0.030602132394366197,0.3493776830985916,0.41232757746478876,-0.3351249366197183,-0.022350748591549296,0.929271647887324,-0.06315285774647889,0.1764734014084507,-0.1786004014084507,47.59843456,,-0.008,0.07329577464788732,-0.103,0.744,-122.83078756,92.94056347,0.0,0.0,76.6,19.0,18.1,0.536,100,True
,18,1800.0,2025-09-30 18:08:05.725000+00:00,2025-09-30 11:08:05.725,65285725,,,,,,,,,,,,,,0.0,0.0,0.001,0.0,0.0,0.0,0.0,0.03061567159090909,0.34937677272727274,0.41280482954545455,-0.33819327272727273,-0.019908357954545455,0.92959925,-0.025764897727272723,0.0605770090909091,-0.23338757954545453,47.59843456,,-0.008,0.07389772727272727,-0.103,0.744,-122.83078756,92.94056347,0.0,0.0,76.6,19.0,18.1,0.536,100,True
,19,1900.0,2025-09-30 18:08:05.825000+00:00,2025-09-30 11:08:05.825,65285825,,,,,,,,,,,,,,0.0,0.0,0.001,0.0,0.0,0.0,0.0,0.030655004444444446,0.34945082222222223,0.41325324444444445,-0.33737493333333335,-0.026156311111111108,0.9298713777777777,-0.006942599999999999,0.4466456,-0.17590524444444444,47.59843456,,-0.008,0.07408888888888888,-0.103,0.744,-122.83078756,92.94056347,0.0,0.0,76.6,19.0,18.1,0.536,100,True
,20,2000.0,2025-09-30 18:08:05.925000+00:00,2025-09-30 11:08:05.925,65285925,,,,,,,,,,,,,,0.0,0.0,0.001,0.0,0.0,0.0,0.0,0.030456945454545453,0.3495393986013986,0.41349579720279717,-0.3321403286713287,-0.02313297832167832,0.9301021538461538,0.04704346013986014,0.7892981538461539,-0.19299458041958042,47.59843456,,-0.008125874125874125,0.07487412587412587,-0.103,0.744,-122.83078756,92.94056347,0.0,0.0,76.6,19.0,18.1,0.536,100,True
,21,2100.0,2025-09-30 18:08:06.025000+00:00,2025-09-30 11:08:06.025,65286025,,,,,,,,,,,,,,0.0,0.0,0.001,0.0,0.0,0.0,0.0,0.03023330909090909,0.3493582797202797,0.4136335594405594,-0.33250326573426575,-0.022855635664335662,0.9298252307692307,-0.005998427972027973,-0.14117876923076922,-0.22795891608391608,47.59843456,,-0.008825174825174824,0.07417482517482517,-0.103,0.744,-122.83078756,92.94056347,0.0,0.0,76.6,19.0,18.1,0.536,100,True
,22,2200.0,2025-09-30 18:08:06.125000+00:00,2025-09-30 11:08:06.125,65286125,,,,,,,,,,,,,,0.0,0.0,0.001,0.0,0.0,0.0,0.0,0.03021991879699248,0.3492802932330827,0.4139837894736842,-0.3320176842105263,-0.02359161954887218,0.9297385187969925,-0.01580906917293233,0.5344508721804513,-0.20667124060150377,47.59843456,,-0.00843609022556391,0.074,-0.103,0.744,-122.83078756,92.94056347,0.0,0.0,76.6,19.0,18.1,0.536,100,True
,23,2300.0,2025-09-30 18:08:06.225000+00:00,2025-09-30 11:08:06.225,65286225,,,,,,,,,,,,,,0.0,0.0,0.001,0.0,0.0,0.0,0.0,0.030396222222222224,0.3493281111111111,0.4145567407407407,-0.3359016296296296,-0.03058465925925926,0.9298354444444444,-0.05881531851851851,1.1268677777777778,-0.2876292222222222,47.59843456,,-0.008,0.074,-0.103,0.744,-122.83078756,92.94056347,0.0,0.0,76.6,19.0,18.1,0.536,100,True
,24,2400.0,2025-09-30 18:08:06.325000+00:00,2025-09-30 11:08:06.325,65286325,,,,,,,,,,,,,,0.0,0.0,0.001,0.0,0.0,0.0,0.0,0.030476208,0.34908733999999997,0.41499558999999997,-0.33658103,-0.026147834000000002,0.92964886,-0.09003118199999999,0.94067272,-0.25589041,47.59843456,,-0.008,0.074,-0.103,0.744,-122.83078756,92.94056347,0.0,0.0,76.6,19.0,18.161,0.536,100,True
,25,2500.0,2025-09-30 18:08:06.425000+00:00,2025-09-30 11:08:06.425,65286425,,,,,,,,,,,,,,0.0,0.0,0.00028235294117647056,0.0,0.0,0.0,0.0,0.030519203529411766,0.34896176470588236,0.4153034705882353,-0.32367885882352937,-0.021481802352941174,0.9293814705882353,-0.18295898588235296,0.033046917647058804,-0.15622836470588233,47.59843456,,-0.0036941176470588234,0.05390588235294118,-0.103,0.744,-122.83078756,92.94056347,0.0,0.0,76.6,19.0,18.2,0.536,100,True
,26,2600.0,2025-09-30 18:08:06.525000+00:00,2025-09-30 11:08:06.525,65286525,,,,,,,,,,,,,,0.0,0.0,-0.0008837209302325582,0.0,0.0,0.0,0.0,0.030311867441860468,0.3461735813953489,0.41623053488372097,-0.3353296511627907,0.0070852046511627916,0.9281100232558139,-3.0408615116279067,-2.1904041860465115,-3.2361943023255817,47.59843889023256,,-0.004651162790697674,-0.017627906976744184,-0.103,0.744,-122.83078406930233,92.91412875232558,0.0,0.0,76.6,19.0,18.111627906976747,0.536,100,True
ride_102,27,2700.0,2025-09-30 18:08:06.625000+00:00,2025-09-30 11:08:06.625,65286625,,,,,,,,,,,,,,0.0,-102.0,0.0,0.0,-2.08,-0.06,2.11,0.0380956,0.342808,0.421698,-0.314072,-0.105805,0.928975,-0.889069,-3.58853,0.294153,47.59843946,0.0,-0.099,-0.136,-0.103,0.744,-122.83078361,92.9106505,0.0,0.0,76.6,19.0,18.1,0.536,100,True
,28,2800.0,2025-09-30 18:08:06.725000+00:00,2025-09-30 11:08:06.725,65286725,,,,,,,,,,,,,,-0.07927659574468085,-99.95744680851064,0.0,-0.018617021276595744,-5.457553191489362,0.19351063829787232,5.315851063829787,0.034738325531914895,0.30022475531914894,0.4157626170212766,-0.36986391489361703,-0.04887660531914894,0.9189659361702127,1.9496361702127658,-35.00320744680851,2.1697835106382977,47.59843946,,-0.040606382978723404,-0.15172340425531913,-0.11424468085106383,0.7543829787234042,-122.83078361,92.9106505,0.0,0.0,76.6,19.0,18.2,0.536,100,True
,29,2900.0,2025-09-30 18:08:06.825000+00:00,2025-09-30 11:08:06.825,65286825,,,,,,,,,,,,,,0.0,-1.7078651685393258,0.0,-0.007865168539325843,-3.3373033707865165,-0.5233707865168539,3.2985393258426967,0.025952757303370787,0.19893870786516854,0.410244404494382,-0.15110064831460673,-0.028677275280898876,0.9017901460674157,4.2381943820224715,-45.35140561797753,-1.3753301123595507,47.59843946,,0.08552808988764045,-0.1324943820224719,-0.122,0.763,-122.83078361,92.9106505,0.0,0.0,76.6,19.0,18.2,0.536,100,True
,30,3000.0,2025-09-30 18:08:06.925000+00:00,2025-09-30 11:08:06.925,65286925,,,,,,,,,,,,,,-0.0016483516483516484,-14.593406593406593,0.0,-0.0032967032967032967,-2.300879120879121,-0.4595604395604395,2.7245054945054945,0.014125192307692307,0.14417324175824175,0.4057285494505494,-0.027746882417582417,-0.004002016483516484,0.9091004065934066,7.756740659340659,-14.555307252747252,4.046428351648352,47.59843946,,0.13657142857142857,-0.05118681318681319,-0.12496703296703297,0.765967032967033,-122.83078361,92.9106505,0.0,0.0,76.6,19.0,18.2,0.536,100,True
,31,3100.0,2025-09-30 18:08:07.025000+00:00,2025-09-30 11:08:07.025,65287025,,,,,,,,,,,,,,-0.022727272727272728,-67.0,-0.0004431818181818182,-0.01,-3.3555681818181817,0.07,5.097840909090909,0.001565442159090909,0.13382485227272725,0.39601536363636364,-0.036969131818181816,0.013656158522727273,0.9318383863636364,3.7282967045454547,1.354260590909091,6.082322272727273,47.59843946,,0.08663636363636364,-0.06663636363636363,-0.131,0.772,-122.83078361,92.9106505,0.0,0.0,76.6,19.0,18.2,0.536,100,True
,32,3200.0,2025-09-30 18:08:07.125000+00:00,2025-09-30 11:08:07.125,65287125,,,,,,,,,,,,,,-0.07823595505617978,-160.69662921348316,-0.005584269662921348,-0.027191011235955055,-4.902921348314607,0.05853932584269664,6.05,-0.002117034831460674,0.13204434831460674,0.38338119101123597,-0.036873412359550564,-0.013368608988764047,0.9531962696629214,-1.8174234831460676,-1.2473614606741572,8.092677752808989,47.59843946,,-0.1349550561797753,-0.29976404494382025,-0.1418876404494382,0.7828876404494383,-122.83078361,92.9106505,0.0,0.0,76.6,18.942696629213483,18.142696629213482,0.536,100,True
,33,3300.0,2025-09-30 18:08:07.225000+00:00,2025-09-30 11:08:07.225,65287225,,,,,,,,,,,,,,-0.23927083333333338,-292.8125,-0.011583333333333333,-0.059375000000000004,-6.047083333333333,-0.021041666666666667,6.043541666666667,0.0013877439583333336,0.12356014583333334,0.3669810416666667,-0.049491716666666664,0.001491575000000002,0.9677700625,-5.564400208333334,-4.546445416666667,10.722169999999998,47.59843946,,-0.10460416666666666,-0.6368958333333333,-0.18035416666666668,0.8213541666666666,-122.83078361,92.9106505,0.0,0.0,76.66458333333334,18.964583333333334,18.1,0.536,100,True
,34,3400.0,2025-09-30 18:08:07.325000+00:00,2025-09-30 11:08:07.325,65287325,,,,,,,,,,,,,,-0.314,-377.64285714285717,-0.015357142857142857,-0.08571428571428572,-6.024285714285714,-0.03642857142857142,6.024285714285714,0.011500215,0.11515771428571428,0.3465212857142857,-0.06566291428571429,0.0010636771428571435,0.9797366428571428,-9.10474,-2.8854721428571426,11.337821428571427,47.59843946,,0.03242857142857143,-0.8777142857142858,-0.197,0.838,-122.83078361,92.9106505,0.0,0.0,76.7,19.0,18.1,0.536,100,True
,35,3500.0,2025-09-30 18:08:07.425000+00:00,2025-09-30 11:08:07.425,65287425,,,,,,,,,,,,,,-0.3440863309352518,-397.2086330935252,-0.014820143884892086,-0.09589928057553956,-6.00820143884892,-0.006402877697841727,6.00820143884892,0.020319053237410074,0.11242912230215828,0.3316429928057554,-0.11383065971223022,-0.023694900287769785,0.98623254676259,-7.26745726618705,-2.070543597122302,12.159666187050359,47.59844056906475,,0.08303597122302159,-0.9344172661870503,-0.21941726618705035,0.8604172661870504,-122.8307797223741,92.99887240043167,0.0,0.0,76.7,19.0,18.1,0.536,100,True
,36,3600.0,2025-09-30 18:08:07.525000+00:00,2025-09-30 11:08:07.525,65287525,,,,,,,,,,,,,,-0.37461176470588237,-395.38823529411764,-0.01248235294117647,-0.08988235294117647,-5.979764705882353,0.004941176470588235,5.979764705882353,0.02165234823529412,0.10198492588235294,0.30891252941176467,-0.15897316470588235,-0.03128061882352941,0.9896332,1.735307176470588,-8.200315999999999,11.663910588235295,47.59844134,,0.12775294117647057,-0.910035294117647,-0.2587764705882353,0.8997764705882353,-122.83077702,93.06019738,0.0,0.0,76.7,19.0,18.1,0.536,100,True
,37,3700.0,2025-09-30 18:08:07.625000+00:00,2025-09-30 11:08:07.625,65287625,,,,,,,,,,,,,,-0.3710425531914894,-347.74468085106383,-0.006680851063829788,-0.0676595744680851,-5.947659574468085,0.0,5.947659574468085,0.0061962442553191496,0.08157228510638298,0.28617327659574465,-0.15917221276595744,0.042927429787234045,0.9885736382978724,10.915717872340425,-12.943548936170213,7.151454255319149,47.59844134,,0.10087234042553192,-0.733404255319149,-0.30544680851063827,0.9464468085106383,-122.83077702,93.06019738,0.0,0.0,76.63829787234042,19.0,18.1,0.536,100,True
,38,3800.0,2025-09-30 18:08:07.725000+00:00,2025-09-30 11:08:07.725,65287725,,,,,,,,,,,,,,-0.32104444444444447,-141.95555555555555,-0.020355555555555554,-0.017333333333333333,-4.254666666666667,0.035555555555555556,4.233333333333333,-0.01285512088888889,0.06840093333333333,0.2794519555555555,-0.16466284444444446,0.07562498666666667,0.9880283777777779,5.9843280000000005,-5.50203111111111,0.8959437777777781,47.59844134,,0.08024444444444445,-0.5562666666666667,-0.3399111111111111,0.9809111111111111,-122.83077702,93.06019738,0.0,0.0,76.6,19.0,18.1,0.536,100,True
,39,3900.0,2025-09-30 18:08:07.825000+00:00,2025-09-30 11:08:07.825,65287825,,,,,,,,,,,,,,-0.12265934065934067,-172.08791208791212,-0.01886813186813187,0.016263736263736263,0.49593406593406586,0.02560439560439561,-0.4608791208791212,-0.01556766153846154,0.05889030769230769,0.28170345054945056,-0.05665632527472528,0.027070679120879126,0.988515923076923,-5.084839340659341,-9.05553021978022,-2.8417302747252746,47.59844134,,-0.14369230769230773,-0.7117252747252747,-0.36345054945054944,1.0044505494505493,-122.83077702,93.06019738,0.0,0.0,76.6,19.0,18.1,0.536,100,True
,40,4000.0,2025-09-30 18:08:07.925000+00:00,2025-09-30 11:08:07.925,65287925,,,,,,,,,,,,,,-0.1852111111111111,-19.855555555555554,-0.0013222222222222212,-0.007666666666666665,-3.522333333333334,0.2966666666666667,3.8213333333333335,0.0056288822222222215,0.047237037777777775,0.27771317777777776,-0.15920814222222224,-0.014164242222222224,0.987695988888889,-19.050311888888885,-3.2016185555555543,8.230785777777779,47.59844134,,-0.13421111111111111,-0.2976555555555556,-0.3753,1.0163,-122.83077702,93.06019738,0.0,0.0,76.6,19.0,18.1,0.536,100,True
,41,4100.0,2025-09-30 18:08:08.025000+00:00,2025-09-30 11:08:08.025,65288025,,,,,,,,,,,,,,-0.004042553191489384,-1.042553191489362,0.0,-0.01,-2.742872340425532,-0.3626595744680851,2.380212765957447,0.025586917021276596,0.051213131914893614,0.2703895106382979,-0.1354095319148936,-0.03520221170212766,0.9900825212765958,-4.837909574468085,1.7393569148936172,-1.1445625531914896,47.59844134,,0.016436170212765944,-0.1511595744680851,-0.4046914893617022,1.0456914893617022,-122.83077702,93.06019738,0.0,0.0,76.6,19.0,18.198936170212765,0.536,100,True
,42,4200.0,2025-09-30 18:08:08.125000+00:00,2025-09-30 11:08:08.125,65288125,,,,,,,,,,,,,,0.012168539325842696,9.932584269662922,0.0,0.0,0.8212359550561797,-0.44202247191011235,-0.7283146067415731,0.02115807191011236,0.05468876741573034,0.2758869550561798,-0.07415984382022472,-0.07454234382022472,0.9914119213483146,5.2741786,0.5455444719101123,-1.2498267191011236,47.59844134,,0.06323595505617977,-0.144,-0.40353932584269664,1.047314606741573,-122.83077702,93.06019738,0.0,0.0,76.6,19.0,18.2,0.536,100,True
,43,4300.0,2025-09-30 18:08:08.225000+00:00,2025-09-30 11:08:08.225,65288225,,,,,,,,,,,,,,0.06909090909090909,49.45454545454545,0.0,-0.0027272727272727275,2.7945454545454544,-0.17363636363636364,-2.6872727272727275,0.019472063636363637,0.05901211818181818,0.274971,-0.0852387090909091,0.0435018,0.9921954545454545,-0.30043759999999997,3.5655336363636363,-2.0986023636363638,47.59844134,,-0.017454545454545455,-0.13963636363636364,-0.395,1.055,-122.83077702,93.06019738,0.0,0.0,76.6,19.0,18.2,0.536,100,True
,44,4400.0,2025-09-30 18:08:08.325000+00:00,2025-09-30 11:08:08.325,65288325,,,,,,,,,,,,,,0.0,0.0,0.0,-0.013956043956043957,1.5369230769230766,0.21901098901098903,-4.574065934065934,0.018040302197802196,0.0667970032967033,0.2819646263736264,-0.10636818681318681,-0.01859491868131868,0.9929387912087912,0.4746762637362638,3.1176933846153845,-2.8896023076923076,47.59844134,,-0.12171428571428572,-0.07498901098901098,-0.39143956043956046,1.0585604395604395,-122.83077702,93.06019738,0.0,0.0,76.6,19.0,18.2,0.536,100,True
,45,4500.0,2025-09-30 18:08:08.425000+00:00,2025-09-30 11:08:08.425,65288425,,,,,,,,,,,,,,0.0,48.57954545454545,0.0005113636363636364,-0.009772727272727273,-4.2502272727272725,0.3743181818181818,-5.681477272727273,0.01286782159090909,0.07057753295454545,0.2903629318181818,-0.11496210227272728,0.009383919886363636,0.9915033522727272,4.953965568181818,0.4346968636363636,-6.5059517045454545,47.598442766704544,,-0.14617045454545455,0.09651136363636363,-0.386,1.064,-122.8307751228409,93.07256096636364,0.0,0.0,76.6,19.0,18.148863636363636,0.536,100,True
,46,4600.0,2025-09-30 18:08:08.525000+00:00,2025-09-30 11:08:08.525,65288525,,,,,,,,,,,,,,0.041773972602739726,167.6164383561644,0.0025616438356164386,-0.015616438356164383,-6.011232876712329,0.07924657534246576,-5.99904109589041,0.005644750397260274,0.07404058424657535,0.29922979452054793,-0.1396602808219178,0.03307972328767123,0.9903850753424657,5.381587876712329,3.3702364041095896,-6.065524931506849,47.59844413,,-0.17806849315068493,0.28255479452054794,-0.3785821917808219,1.071417808219178,-122.83077331,93.08437506,0.0,0.0,76.6,19.0,18.1,0.536,100,True
,47,4700.0,2025-09-30 18:08:08.625000+00:00,2025-09-30 11:08:08.625,65288625,,,,,,,,,,,,,,0.13083333333333333,288.61538461538464,0.005987179487179487,-0.04423076923076923,-6.05576923076923,-0.004230769230769231,-6.05576923076923,0.0013022884358974357,0.08266961538461538,0.30741489743589745,-0.15680020512820514,0.05386962166666667,0.9906367948717948,1.857915128205128,8.259038076923078,-5.678211794871795,47.59844413,,-0.21770512820512822,0.483974358974359,-0.3616410256410256,1.0883589743589743,-122.83077331,93.08437506,0.0,0.0,76.61410256410257,19.0,18.1,0.536,100,True
,48,4800.0,2025-09-30 18:08:08.725000+00:00,2025-09-30 11:08:08.725,65288725,,,,,,,,,,,,,,0.2907065217391305,347.9130434782609,0.012,-0.07358695652173913,-6.015652173913043,-0.01923913043478261,-6.015652173913043,0.012473186304347825,0.11524817391304348,0.3256217608695652,-0.14172790217391307,-0.020850344456521733,0.9930783152173913,-6.026763043478261,8.36349152173913,-5.091629130434782,47.59844413,,-0.01848913043478261,0.7883913043478261,-0.3189565217391304,1.1310434782608696,-122.83077331,93.08437506,0.0,0.0,76.7,19.0,18.1,0.536,100,True
,49,4900.0,2025-09-30 18:08:08.825000+00:00,2025-09-30 11:08:08.825,65288825,,,,,,,,,,,,,,0.33270212765957446,376.2340425531915,0.012872340425531915,-0.08436170212765957,-6.003085106382978,0.0,-6.003085106382978,0.022218494680851065,0.1269856170212766,0.3327675,-0.13231172340425532,-0.04885555531914894,0.9904207021276595,-2.939854723404255,5.510898617021277,-3.227613085106383,47.59844413,,-0.007457446808510639,0.8607872340425532,-0.28049999999999997,1.1695,-122.83077331,93.08437506,0.0,0.0,76.7,19.0,18.1,0.536,100,True
,50,5000.0,2025-09-30 18:08:08.925000+00:00,2025-09-30 11:08:08.925,65288925,,,,,,,,,,,,,,0.36126373626373626,377.83516483516485,0.011934065934065935,-0.08483516483516483,-5.994175824175824,0.01032967032967033,-5.994175824175824,0.024420505494505494,0.13256403296703298,0.3373651208791209,-0.12492864835164835,-0.032282826373626373,0.9865305934065934,1.278921032967033,1.8884368351648353,-2.8108929670329674,47.59844413,,-0.0010659340659340657,0.8783736263736264,-0.23437362637362638,1.2156263736263735,-122.83077331,93.08437506,0.0,0.0,76.7,19.0,18.1,0.536,100,True
,51,5100.0,2025-09-30 18:08:09.025000+00:00,2025-09-30 11:08:09.025,65289025,,,,,,,,,,,,,,0.35977647058823525,369.0470588235294,0.01131764705882353,-0.08658823529411765,-5.99635294117647,0.006823529411764706,-5.99635294117647,0.020083143529411766,0.13361031764705883,0.3426709882352941,-0.11202570588235294,-0.014930183529411764,0.9827375058823529,3.1221549411764706,1.6513127529411764,-3.6217287058823526,47.59844413,,-0.004976470588235294,0.8494588235294117,-0.1975529411764706,1.2524470588235295,-122.83077331,93.08437506,0.0,0.0,76.7,19.0,18.1,0.536,100,True
,52,5200.0,2025-09-30 18:08:09.125000+00:00,2025-09-30 11:08:09.125,65289125,,,,,,,,,,,,,,0.3479,348.85555555555555,0.010422222222222222,-0.07422222222222222,-5.9863333333333335,0.00788888888888889,-5.9863333333333335,0.014741091111111111,0.1341649888888889,0.3482468111111111,-0.09684830555555554,0.0018426494444444448,0.9805780222222222,2.4483665555555554,0.5184079044444445,-3.195933,47.59844413,,-0.005211111111111111,0.7856222222222222,-0.16591111111111112,1.2848777777777778,-122.83077331,93.08437506,0.0,0.0,76.6211111111111,19.0,18.1,0.536,100,True
,53,5300.0,2025-09-30 18:08:09.225000+00:00,2025-09-30 11:08:09.225,65289225,,,,,,,,,,,,,,0.3280947368421053,325.2421052631579,0.009147368421052631,-0.07,-5.98,-0.015578947368421052,-5.98,0.011625194736842107,0.1335127052631579,0.3519855052631579,-0.09014133368421053,9.564712631578935e-05,0.979324694736842,1.8059627368421052,0.15446368,-1.3246639999999998,47.59844413,,0.023136842105263157,0.6932631578947369,-0.13527368421052632,1.3148736842105262,-122.83077331,93.08437506,0.0,0.0,76.6,19.0,18.1,0.536,100,True
,54,5400.0,2025-09-30 18:08:09.325000+00:00,2025-09-30 11:08:09.325,65289325,,,,,,,,,,,,,,0.29435632183908045,275.54022988505744,0.004057471264367816,-0.040344827586206895,-5.950344827586207,0.0096551724137931,-5.950344827586207,0.009017069655172414,0.1290878275862069,0.35231467816091955,-0.062425925287356326,0.003352579045977012,0.978434459770115,1.6238655172413794,-2.0088995172413795,1.6430788505747131,47.59844413,,0.020091954022988506,0.5425977011494253,-0.10332183908045976,1.3466781609195402,-122.83077331,93.08437506,0.0,0.0,76.6,19.0,18.1,0.536,100,True
,55,5500.0,2025-09-30 18:08:09.425000+00:00,2025-09-30 11:08:09.425,65289425,,,,,,,,,,,,,,0.24754117647058824,245.8470588235294,0.0019058823529411765,-0.029058823529411765,-5.968117647058823,-0.03529411764705882,-5.968588235294117,0.008426363058823529,0.12946895294117647,0.3506093294117647,-0.05443748329411764,0.003134674588235294,0.9798456352941176,-1.5272743529411765,5.924197176470589,1.0638120470588235,47.59844425235294,,0.03695294117647059,0.42405882352941177,-0.08310588235294118,1.3668941176470588,-122.83077337541177,93.10158944447059,0.0,0.0,76.6,19.0,18.1,0.536,100,True
,56,5600.0,2025-09-30 18:08:09.525000+00:00,2025-09-30 11:08:09.525,65289525,,,,,,,,,,,,,,0.06648275862068966,15.632183908045977,0.0,-0.01,-3.9164367816091956,-0.03609195402298851,-5.573103448275862,0.014528093103448275,0.1408429540229885,0.35198283908045974,-0.015537298390804598,-0.020509622988505748,0.9848689770114942,-4.952832183908046,11.177109195402299,-1.7014911724137933,47.59844673,,-0.11682758620689655,0.10172413793103449,-0.0630344827586207,1.3869655172413793,-122.8307747,93.45018073,0.0,0.0,76.6,19.02183908045977,18.12183908045977,0.536,100,True
,57,5700.0,2025-09-30 18:08:09.625000+00:00,2025-09-30 11:08:09.625,65289625,,,,,,,,,,,,,,0.07072,0.0,0.0,-0.0068000000000000005,2.3684000000000003,-0.3,-3.0312,0.02288278,0.1623838,0.35755252000000004,-0.07507356800000001,-0.040467648,0.9912142,-3.76688512,16.37598,-3.5901380800000005,47.59844673,,-0.0872,-0.11944,-0.056,1.394,-122.8307747,93.45018073,0.0,0.0,76.6,19.1,18.2,0.536,100,True
,58,5800.0,2025-09-30 18:08:09.725000+00:00,2025-09-30 11:08:09.725,65289725,,,,,,,,,,,,,,0.0,0.0,0.0,0.0,-0.3587804878048781,-0.29780487804878053,0.31365853658536585,0.0270505,0.178323,0.360841,-0.143694,-0.0407185,0.994621,0.183819,17.2644,-0.505314,47.59844673,,-0.09321951219512195,-0.1325609756097561,-0.056,1.394,-122.8307747,93.45018073,0.0,0.0,76.6,19.1,18.2,0.536,100,True
,59,5900.0,2025-09-30 18:08:09.825000+00:00,2025-09-30 11:08:09.825,65289825,,,,,,,,,,,,,,0.0,0.0,0.0,0.0,-1.8473563218390805,-0.46229885057471265,1.7818390804597701,0.022920097701149424,0.1850149540229885,0.3561277816091954,-0.18076928735632183,-0.022246936781609192,0.9911187011494254,4.3103080804597695,3.31307816091954,4.323740022988506,47.59844673,,-0.09257471264367816,-0.13614942528735632,-0.056,1.394,-122.8307747,93.45018073,0.0,0.0,76.6,19.1,18.2,0.536,100,True
,60,6000.0,2025-09-30 18:08:09.925000+00:00,2025-09-30 11:08:09.925,65289925,,,,,,,,,,,,,,0.0,0.0,0.0,0.0,-2.2938144329896906,-0.06525773195876289,2.273298969072165,0.008669285876288658,0.1771961855670103,0.34600291752577317,-0.19527636082474226,0.04588362350515464,0.9811332680412371,8.65344206185567,-14.633575257731959,4.986737422680412,47.59844673,,-0.09429896907216495,-0.137,-0.056,1.394,-122.8307747,93.45018073,0.0,0.0,76.6,19.1,18.2,0.536,100,True
,61,6100.0,2025-09-30 18:08:10.025000+00:00,2025-09-30 11:08:10.025,65290025,,,,,,,,,,,,,,-0.05265168539325842,-10.382022471910112,0.0,0.0,-2.2865168539325844,-0.26820224719101127,2.1059550561797753,-0.004808376741573034,0.14208788764044944,0.3434985056179775,-0.15131897752808987,0.05872532134831461,0.9678585056179775,2.585972157303371,-27.52732808988764,-2.310540786516854,47.59844673,,-0.03344943820224719,-0.14515730337078653,-0.056,1.394,-122.8307747,93.45018073,0.0,0.0,76.6,19.1,18.2,0.536,100,True
,62,6200.0,2025-09-30 18:08:10.125000+00:00,2025-09-30 11:08:10.125,65290125,,,,,,,,,,,,,,-0.0074302325581395295,-1.4651162790697665,0.0,0.0,-2.0340697674418604,-0.9461627906976745,1.7493023255813953,-0.0016856489534883713,0.08937038720930232,0.35093382558139535,-0.08080887093023256,-0.0003532305813953515,0.9565272558139535,-6.443817174418604,-27.955301162790697,-4.3768109302325575,47.59844673,,0.0641046511627907,-0.14889534883720928,-0.06405813953488372,1.4029534883720929,-122.8307747,93.45018073,0.0,0.0,76.6,19.1,18.2,0.536,100,True
ride_102,63,6300.0,2025-09-30 18:08:10.225000+00:00,2025-09-30 11:08:10.225,65290225,,,,,,,,,,,,,,0.0,0.0,0.0,0.0,-1.28,-0.64,1.1,0.012911,0.043317,0.355172,-0.000401562,-0.0775823,0.954043,-6.65605,-18.9183,0.394852,47.59844673,0.0,0.071,-0.148,-0.065,1.404,-122.8307747,93.45018073,0.0,0.0,76.6,19.1,18.2,0.536,100,True
,64,6400.0,2025-09-30 18:08:10.325000+00:00,2025-09-30 11:08:10.325,65290325,,,,,,,,,,,,,,-0.0031363636363636364,-31.81818181818182,-0.00027272727272727274,-0.0006818181818181819,-2.145909090909091,-0.12295454545454546,2.162272727272727,0.017518163636363635,0.032474743181818186,0.35049436363636366,0.04399204772727273,-0.015072025,0.9644471363636363,1.1128235227272727,5.043811590909091,3.055073863636364,47.59844673,,0.07575,-0.14077272727272727,-0.06568181818181819,1.4046136363636363,-122.8307747,93.45018073,0.0,0.0,76.6,19.1,18.2,0.536,100,True
,65,6500.0,2025-09-30 18:08:10.425000+00:00,2025-09-30 11:08:10.425,65290425,,,,,,,,,,,,,,-0.03798484848484849,-107.57575757575758,-0.003303030303030303,-0.008257575757575757,-3.7671212121212116,-0.2668939393939394,4.298636363636364,0.013906648484848485,0.04292633409090909,0.34904284848484846,0.03567591136363636,-0.013347858333333334,0.9752819848484848,3.1155848863636364,11.161607045454545,-0.2709943181818182,47.59844673,,0.11741666666666667,-0.06046969696969698,-0.07325757575757576,1.4114318181818182,-122.8307747,93.45018073,0.0,0.0,76.6,19.1,18.2,0.536,100,True
,66,6600.0,2025-09-30 18:08:10.525000+00:00,2025-09-30 11:08:10.525,65290525,,,,,,,,,,,,,,-0.06707368421052631,-132.29473684210527,-0.004,-0.018105263157894735,-5.696210526315789,-0.024421052631578954,5.811263157894737,0.006008842736842106,0.07305328,0.3519948736842105,-0.023433534736842107,-0.008203909578947368,0.991788,2.620342,14.15870947368421,-0.9114364210526316,47.59844825378947,,-0.05942105263157893,-0.22274736842105264,-0.08229473684210527,1.4211052631578949,-122.83077597252631,93.87548618547369,0.0,0.0,76.6,19.1,18.2,0.536,100,True
,67,6700.0,2025-09-30 18:08:10.625000+00:00,2025-09-30 11:08:10.625,65290625,,,,,,,,,,,,,,-0.1745,-288.195652173913,-0.010239130434782608,-0.046739130434782616,-6.077826086956522,-0.03130434782608695,6.067826086956522,0.0038892997826086954,0.08909341739130434,0.3533423478260869,-0.023326697826086956,0.030585520652173907,0.9981185,-1.2243102173913045,4.3624534782608695,-0.6484390652173914,47.59844861,,-0.26521739130434785,-0.5528913043478261,-0.10093478260869565,1.4390434782608696,-122.83077627,93.97490824,0.0,0.0,76.6,19.01086956521739,18.2,0.536,100,True
,68,6800.0,2025-09-30 18:08:10.725000+00:00,2025-09-30 11:08:10.725,65290725,,,,,,,,,,,,,,-0.3226744186046512,-386.1162790697674,-0.011162790697674419,-0.09046511627906977,-6.058837209302325,-0.009767441860465116,6.058837209302325,0.007039773953488372,0.08677918604651164,0.35636925581395346,-0.016949802325581395,-0.01850905534883721,0.9967660465116279,-1.578634488372093,-0.8077066046511627,-2.2297653488372093,47.59844861,,0.09793023255813954,-0.9046976744186047,-0.14188372093023255,1.4798837209302327,-122.83077627,93.97490824,0.0,0.0,76.60232558139535,19.09767441860465,18.102325581395352,0.536,100,True
,69,6900.0,2025-09-30 18:08:10.825000+00:00,2025-09-30 11:08:10.825,65290825,,,,,,,,,,,,,,-0.39856521739130435,-437.8695652173913,-0.018,-0.1117391304347826,-6.004782608695652,-0.006956521739130435,6.004782608695652,0.008224626086956522,0.08077709565217392,0.3607355652173913,-0.04475222173913043,-0.0015743226086956516,0.9940754782608696,-0.849223347826087,-3.3857117391304348,-3.084504782608696,47.59844861,,0.09482608695652174,-1.1049565217391306,-0.18543478260869564,1.5236086956521737,-122.83077627,93.97490824,0.0,0.0,76.7,19.017391304347825,18.182608695652174,0.536,100,True
,70,7000.0,2025-09-30 18:08:10.925000+00:00,2025-09-30 11:08:10.925,65290925,,,,,,,,,,,,,,-0.4228426966292135,-453.7191011235955,-0.017730337078651685,-0.1146067415730337,-5.982696629213484,-0.023820224719101127,5.982696629213484,0.010598726966292136,0.07545400898876405,0.36467966292134835,-0.08983068539325842,-0.03438447078651685,0.9916779662921349,-0.48036471910112355,-2.349409438202247,-0.5226478651685393,47.59844861,,0.11152808988764046,-1.0909550561797752,-0.22624719101123594,1.5649775280898877,-122.83077627,93.97490824,0.0,0.0,76.7,19.1,18.1,0.536,100,True
,71,7100.0,2025-09-30 18:08:11.025000+00:00,2025-09-30 11:08:11.025,65291025,,,,,,,,,,,,,,-0.4122272727272727,-426.04545454545456,-0.01540909090909091,-0.1,-5.978068181818182,0.016022727272727272,5.978068181818182,0.009722198863636363,0.0733409840909091,0.3616430681818182,-0.12723506818181818,-0.0009943670454545459,0.9901206022727272,1.3912770454545453,-1.4722747727272727,2.882525909090909,47.59844861,,0.1399090909090909,-1.0018749999999998,-0.26911363636363633,1.6071136363636365,-122.83077627,93.97490824,0.0,0.0,76.7,19.060227272727275,18.139772727272728,0.536,100,True
,72,7200.0,2025-09-30 18:08:11.125000+00:00,2025-09-30 11:08:11.125,65291125,,,,,,,,,,,,,,-0.39186021505376345,-395.80645161290323,-0.011483870967741935,-0.09494623655913978,-5.975161290322581,0.004946236559139785,5.970107526881721,0.006331660215053763,0.07046210215053764,0.3561518709677419,-0.1257404623655914,0.02182650505376344,0.9879301612903226,1.217893182795699,-4.181270752688173,2.320251612903226,47.59844861,,0.09887096774193549,-0.9178172043010753,-0.3061505376344086,1.6441505376344085,-122.83077627,93.97490824,0.0,0.0,76.64946236559139,19.0,18.2,0.536,100,True
,73,7300.0,2025-09-30 18:08:11.225000+00:00,2025-09-30 11:08:11.225,65291225,,,,,,,,,,,,,,-0.33661290322580645,-137.03225806451616,-0.004193548387096775,-0.04935483870967742,-4.497741935483871,-0.31935483870967746,5.759354838709678,0.0035184451612903225,0.06277231935483871,0.35383729032258066,-0.21471758064516128,-0.004286642258064516,0.9849107419354839,0.5843554838709677,-6.093156774193549,1.1471241935483871,47.59844861,,0.12474193548387097,-0.5414516129032257,-0.33625806451612905,1.6748387096774193,-122.83077627,93.97490824,0.0,0.0,76.6,19.058064516129033,18.2,0.536,100,True
,74,7400.0,2025-09-30 18:08:11.325000+00:00,2025-09-30 11:08:11.325,65291325,,,,,,,,,,,,,,-0.16999999999999998,2.0,0.0,-0.015,-1.35,-0.0050000000000000044,5.105,0.01504189,0.05972785,0.3446895,-0.18474200000000002,-0.036660065,0.9828145,-8.8837315,-6.386839999999999,7.313617499999999,47.59844861,,0.14250000000000002,-0.132,-0.353,1.6915,-122.83077627,93.97490824,0.0,0.0,76.6,19.1,18.2,0.536,100,True
,75,7500.0,2025-09-30 18:08:11.425000+00:00,2025-09-30 11:08:11.425,65291425,,,,,,,,,,,,,,-0.026984126984126985,-28.047619047619047,0.0,-0.01,1.05015873015873,0.5998412698412698,4.120952380952382,0.028447850793650795,0.0585661380952381,0.33268180952380955,-0.10071001904761905,-0.06346919206349207,0.9815178412698413,-11.428439682539683,-5.850184603174603,12.5213,47.59844850269841,,0.11153968253968255,0.06957142857142856,-0.3598571428571428,1.6978571428571427,-122.8307766620635,94.04448510253968,0.0,0.0,76.6,19.1,18.2,0.536,100,True
,76,7600.0,2025-09-30 18:08:11.525000+00:00,2025-09-30 11:08:11.525,65291525,,,,,,,,,,,,,,-0.008994708994708996,-15.349206349206352,0.0,-0.01,1.8967195767195766,0.7532804232804233,2.866984126984127,0.0298420835978836,0.05404264603174603,0.3240659365079365,-0.08113827301587301,-0.06133019735449735,0.9805046137566138,5.726586772486776,-4.105401534391534,9.287966666666666,47.59844822756614,,0.0565132275132275,0.11719047619047618,-0.3646190476190476,1.7026190476190477,-122.8307776673545,94.22288731417989,0.0,0.0,76.6,19.1,18.2,0.536,100,True
,77,7700.0,2025-09-30 18:08:11.625000+00:00,2025-09-30 11:08:11.625,65291625,,,,,,,,,,,,,,-0.0017985611510791366,-5.7625899280575545,0.0,-0.006402877697841727,0.7228776978417266,0.6717266187050359,0.707625899280576,0.018107836690647482,0.049872626618705035,0.3154734676258993,-0.06038121294964029,-0.002115124460431654,0.9798936834532375,7.535484892086331,-1.8622923741007196,6.2794582733812945,47.59844809,,0.039431654676259,0.14207913669064748,-0.37023741007194244,1.7085971223021583,-122.83077817,94.31208842,0.0,0.0,76.6,19.1,18.2,0.536,100,True
,78,7800.0,2025-09-30 18:08:11.725000+00:00,2025-09-30 11:08:11.725,65291725,,,,,,,,,,,,,,-0.004382022471910113,12.359550561797754,0.0,-0.002471910112359551,-2.389438202247191,0.4579775280898877,-2.388314606741573,0.0009821784269662924,0.05072637415730337,0.3110090674157303,-0.05158040449438202,0.07869250786516854,0.981185584269663,-5.507896629213483,2.2284396629213488,1.9442555056179773,47.59844809,,0.06467415730337078,0.13979775280898876,-0.3748876404494382,1.7161123595505618,-122.83077817,94.31208842,0.0,0.0,76.6,19.1,18.2,0.536,100,True
,79,7900.0,2025-09-30 18:08:11.825000+00:00,2025-09-30 11:08:11.825,65291825,,,,,,,,,,,,,,0.021,92.25,0.0015,-0.0175,-4.4475,0.7525,-5.24,0.039142375,0.0852583,0.33632975,-0.14139074999999998,-0.1184456,0.9918674999999999,-6.732625,12.104195,-8.8053925,47.59844809,,0.068,0.1155,-0.36475,1.7265,-122.83077817,94.31208842,0.0,0.0,76.6,19.1,18.2,0.536,100,True
,80,8000.0,2025-09-30 18:08:11.925000+00:00,2025-09-30 11:08:11.925,65291925,,,,,,,,,,,,,,0.0652808988764045,104.91011235955057,0.00752808988764045,-0.017640449438202248,-5.325505617977528,0.13651685393258428,-5.986741573033708,0.03414887191011236,0.10170696067415731,0.3440888988764045,-0.18951047191011236,-0.12174595056179774,0.9909697191011235,16.227262921348313,4.5950782022471905,-0.1417259550561798,47.59844809,,-0.13352808988764045,0.22101123595505617,-0.35417977528089883,1.737438202247191,-122.83077817,94.31208842,0.0,0.0,76.6,19.1,18.2,0.536,100,True
,81,8100.0,2025-09-30 18:08:12.025000+00:00,2025-09-30 11:08:12.025,65292025,,,,,,,,,,,,,,0.09809782608695652,237.3478260869565,0.010978260869565219,-0.04467391304347826,-6.059347826086957,-0.008695652173913049,-6.059347826086957,-0.0031512902173913004,0.10944027173913044,0.3440218043478261,-0.2160913695652174,0.0742621,0.9863508152173913,18.243703260869566,0.3419375,-0.7846508695652172,47.59844809,,-0.20442391304347826,0.5220108695652175,-0.3343043478260869,1.756695652173913,-122.83077817,94.31208842,0.0,0.0,76.6,19.1,18.2,0.536,100,True
,82,8200.0,2025-09-30 18:08:12.125000+00:00,2025-09-30 11:08:12.125,65292125,,,,,,,,,,,,,,0.2508953488372093,368.6162790697674,0.016930232558139535,-0.08465116279069768,-6.071511627906976,-0.020697674418604657,-6.071511627906976,-0.01940937441860465,0.11288075581395349,0.34895781395348835,-0.21390876744186046,0.08483479534883721,0.9813295465116278,-4.123147674418606,0.04288749999999997,-3.823512093023256,47.59844809,,-0.0962906976744186,0.8856744186046512,-0.3027441860465116,1.7888720930232558,-122.83077817,94.31208842,0.0,0.0,76.66162790697675,19.1,18.138372093023257,0.536,100,True
,83,8300.0,2025-09-30 18:08:12.225000+00:00,2025-09-30 11:08:12.225,65292225,,,,,,,,,,,,,,0.3634468085106383,461.1595744680851,0.02,-0.12138297872340426,-6.024361702127659,-0.025638297872340426,-6.024361702127659,0.0036748553191489376,0.11876178723404256,0.3536948723404255,-0.19789714893617022,-0.010777231914893604,0.9786718723404255,-19.560636170212767,4.6595895,-1.9998593617021276,47.59844809,,-0.018223404255319146,1.163244680851064,-0.26491489361702125,1.8263723404255319,-122.83077817,94.31208842,0.0,0.0,76.7,19.1,18.17127659574468,0.536,100,True
,84,8400.0,2025-09-30 18:08:12.325000+00:00,2025-09-30 11:08:12.325,65292325,,,,,,,,,,,,,,0.4479764705882353,491.01176470588234,0.022576470588235295,-0.13,-6.01,0.011529411764705878,-6.001411764705883,0.03399645529411764,0.13054571764705883,0.35565277647058824,-0.13094018823529413,-0.09409685176470589,0.9781853647058824,-7.2958578823529425,5.380833529411765,-0.6070853294117646,47.59844809,,-0.007294117647058823,1.2679411764705881,-0.22136470588235294,1.869635294117647,-122.83077817,94.31208842,0.0,0.0,76.7,19.1,18.114117647058826,0.536,100,True
,85,8500.0,2025-09-30 18:08:12.425000+00:00,2025-09-30 11:08:12.425,65292425,,,,,,,,,,,,,,0.4686373626373626,478.46153846153845,0.0171978021978022,-0.12032967032967032,-5.961648351648352,-0.009010989010989009,-5.951648351648352,0.03107351758241758,0.1315932967032967,0.3568106153846154,-0.08887505934065934,-0.041126782417582414,0.975704,12.248088791208795,-2.575088461538461,-1.8549791538461537,47.59844809,,0.027780219780219786,1.1724945054945055,-0.17054945054945056,1.9204505494505495,-122.83077817,94.31208842,0.0,0.0,76.60329670329669,19.1,18.196703296703298,0.536,100,True
,86,8600.0,2025-09-30 18:08:12.525000+00:00,2025-09-30 11:08:12.525,65292525,,,,,,,,,,,,,,0.4245652173913044,418.4347826086956,0.012,-0.08869565217391305,-5.968260869565218,0.015217391304347828,-5.968260869565218,-0.00473594347826087,0.11137347826086957,0.3632403043478261,-0.01972330043478261,0.046121686956521746,0.9711946086956521,9.546224782608697,-5.479003913043479,-1.8241991304347827,47.59843957,,0.018086956521739132,0.9052608695652173,-0.11008695652173914,1.9814782608695651,-122.83077622,94.55947073,0.0,0.0,76.64347826086956,19.1,18.2,0.536,100,True
,87,8700.0,2025-09-30 18:08:12.625000+00:00,2025-09-30 11:08:12.625,65292625,,,,,,,,,,,,,,0.361421052631579,360.10526315789474,0.006947368421052632,-0.06736842105263158,-5.9457894736842105,-0.0005263157894736872,-5.9457894736842105,-0.008613111578947369,0.10510294736842105,0.36584815789473685,-0.023751004736842107,0.033818494736842106,0.9728282105263157,-5.108577368421051,-1.8535582105263158,0.6170168421052631,47.59843957,,0.030947368421052633,0.7267894736842105,-0.0756842105263158,2.0156842105263157,-122.83077622,94.55947073,0.0,0.0,76.6,19.1,18.2,0.536,100,True
,88,8800.0,2025-09-30 18:08:12.725000+00:00,2025-09-30 11:08:12.725,65292725,,,,,,,,,,,,,,0.28858823529411765,142.23529411764707,0.003235294117647059,-0.029411764705882356,-5.522352941176471,0.14588235294117646,-5.514705882352941,-0.00657501,0.105513,0.366291,-0.0337843,0.0212441,0.974156,-10.3053,-0.912308,1.86592,47.59843957,,0.02211764705882353,0.48135294117647054,-0.04358823529411765,2.047411764705882,-122.83077622,94.55947073,0.0,0.0,76.6,19.1,18.2,0.536,100,True
,89,8900.0,2025-09-30 18:08:12.825000+00:00,2025-09-30 11:08:12.825,65292825,,,,,,,,,,,,,,0.12346236559139787,17.483870967741936,0.0004193548387096775,-0.011397849462365592,-5.8043010752688176,0.07096774193548386,-5.854516129032258,0.01704702010752688,0.09356530107526882,0.3583288494623656,-0.08386318172043011,0.0027332544086021496,0.9768992258064516,-7.689110752688173,1.6538322150537632,5.478883440860216,47.59843957,,-0.09152688172043012,0.2641182795698925,-0.029258064516129032,2.0626021505376344,-122.83077622,94.55947073,0.0,0.0,76.6,19.1,18.2,0.536,100,True
ride_102,90,9000.0,2025-09-30 18:08:12.925000+00:00,2025-09-30 11:08:12.925,65292925,,,,,,,,,,,,,,0.095,0.0,0.0,-0.01,-0.74,-0.26,-3.58,0.0177573,0.0913111,0.347067,0.0673569,-0.0563745,0.981315,10.1777,1.17902,7.84764,47.59843957,0.0,0.135,0.022,-0.018,2.073,-122.83077622,94.55947073,0.0,0.0,76.6,19.1,18.2,0.536,100,True
,91,9100.0,2025-09-30 18:08:13.025000+00:00,2025-09-30 11:08:13.025,65293025,,,,,,,,,,,,,,-0.008043956043956045,-26.373626373626372,-0.0005274725274725274,-0.011318681318681318,-2.073956043956044,0.377032967032967,2.886043956043956,-0.00630304087912088,0.09886683516483517,0.34148484615384617,0.06309412417582418,0.05974569450549451,0.9887888241758243,9.871923516483516,15.39994945054945,-2.5077109230769232,47.59843957,,0.1381098901098901,-0.030065934065934063,-0.019318681318681318,2.074186813186813,-122.83077622,94.55947073,0.0,0.0,76.6,19.186813186813186,18.2,0.536,100,True
,92,9200.0,2025-09-30 18:08:13.125000+00:00,2025-09-30 11:08:13.125,65293125,,,,,,,,,,,,,,-0.0833695652173913,-166.42391304347825,-0.006282608695652174,-0.029130434782608693,-3.625,0.12347826086956522,6.04054347826087,-0.016747815217391306,0.12716184782608697,0.3429182391304348,-0.03601116413043478,-0.02484565543478261,0.9983323369565218,2.956609782608696,18.267159347826087,2.6822073152173913,47.59843957,,-0.07813043478260871,-0.2617608695652174,-0.03233695652173913,2.086336956521739,-122.83077622,94.55947073,0.0,0.0,76.6,19.1,18.2,0.536,100,True
,93,9300.0,2025-09-30 18:08:13.225000+00:00,2025-09-30 11:08:13.225,65293225,,,,,,,,,,,,,,-0.21909278350515465,-356.77319587628864,-0.016690721649484538,-0.0779381443298969,-6.098041237113402,-0.014948453608247423,6.098041237113402,-0.01601619381443299,0.1406946907216495,0.33093482474226804,-0.03668538453608248,0.02229126907216495,0.9998169587628867,-4.437608350515464,2.721468659793814,8.995351546391753,47.59843957,,-0.19374226804123712,-0.7871030927835052,-0.058061855670103094,2.112360824742268,-122.83077622,94.55947073,0.0,0.0,76.62989690721649,19.1,18.2,0.536,100,True
,94,9400.0,2025-09-30 18:08:13.325000+00:00,2025-09-30 11:08:13.325,65293325,,,,,,,,,,,,,,-0.3874285714285714,-473.73015873015873,-0.024523809523809524,-0.13015873015873017,-6.062380952380953,-0.03730158730158731,6.062380952380953,-0.009674754285714286,0.13015153968253967,0.3175899365079365,-0.02718796984126984,0.034374388888888885,0.9946319841269842,-7.537086190476191,-9.42155015873016,7.520446031746031,47.59843957,,0.10598412698412699,-1.2093174603174603,-0.09365079365079365,2.1486507936507935,-122.83077622,94.55947073,0.0,0.0,76.7,19.1,18.2,0.536,100,True
,95,9500.0,2025-09-30 18:08:13.425000+00:00,2025-09-30 11:08:13.425,65293425,,,,,,,,,,,,,,-0.4738085106382979,-565.3404255319149,-0.029,-0.16063829787234044,-6.038085106382979,0.0019148936170212765,6.037446808510638,-0.0020321570212765957,0.11576690638297872,0.309590914893617,-0.02870008510638298,0.051097861702127656,0.990008829787234,-8.735177021276597,-8.011103617021277,2.7263159574468085,47.59843958531915,,0.10734042553191489,-1.4652978723404255,-0.12678723404255318,2.1817872340425533,-122.83077575531915,94.57418666,0.0,0.0,76.7,19.1,18.2,0.536,100,True
,96,9600.0,2025-09-30 18:08:13.525000+00:00,2025-09-30 11:08:13.525,65293525,,,,,,,,,,,,,,-0.5601034482758621,-586.2413793103449,-0.028724137931034482,-0.17,-6.005862068965517,0.02586206896551724,5.997241379310345,0.017980596551724137,0.09428044827586207,0.3141474137931034,-0.08421626206896551,0.003843120689655175,0.9855081724137931,-9.643634482758621,-8.982854137931035,-7.412170000000001,47.59843981,,0.17293103448275862,-1.5846551724137932,-0.20486206896551726,2.259862068965517,-122.83076894,94.7900203,0.0,0.0,76.7,19.1,18.2,0.536,100,True
,97,9700.0,2025-09-30 18:08:13.625000+00:00,2025-09-30 11:08:13.625,65293625,,,,,,,,,,,,,,-0.5641052631578947,-581.6315789473684,-0.02568421052631579,-0.16210526315789475,-5.96421052631579,-0.005263157894736842,5.961578947368421,0.03165530526315789,0.08368184210526317,0.3266094736842105,-0.10673555789473685,-0.101433,0.9843248421052632,-2.232539473684211,-5.367756315789474,-5.431972631578947,47.59843981,,0.18526315789473685,-1.516578947368421,-0.2663684210526316,2.3213684210526315,-122.83076894,94.7900203,0.0,0.0,76.7,19.1,18.2,0.536,100,True
,98,9800.0,2025-09-30 18:08:13.725000+00:00,2025-09-30 11:08:13.725,65293725,,,,,,,,,,,,,,-0.52225,-503.02272727272725,-0.016204545454545454,-0.11954545454545455,-5.896136363636363,-0.01659090909090909,5.886136363636363,0.02689760681818182,0.07601394545454546,0.3270644090909091,-0.2021358181818182,-0.10311379545454546,0.9834488409090909,11.671449318181818,-5.815157727272727,4.721724318181818,47.59843981,,0.17202272727272727,-1.1931363636363637,-0.31395454545454543,2.3686136363636363,-122.83076894,94.7900203,0.0,0.0,76.6659090909091,19.1,18.2,0.536,100,True
,99,9900.0,2025-09-30 18:08:13.825000+00:00,2025-09-30 11:08:13.825,65293825,,,,,,,,,,,,,,-0.3559230769230769,-266.61538461538464,-0.012384615384615385,-0.04307692307692308,-4.368461538461538,0.031538461538461536,4.39076923076923,-0.0013448384615384595,0.0801612,0.3153706153846154,-0.26414007692307695,0.050897399999999995,0.9842705384615384,15.226138461538461,4.43881923076923,6.457789999999999,47.59843981,,0.1066923076923077,-0.6668461538461539,-0.35192307692307695,2.4063846153846153,-122.83076894,94.7900203,0.0,0.0,76.6,19.1,18.2,0.536,100,True
,100,10000.0,2025-09-30 18:08:13.925000+00:00,2025-09-30 11:08:13.925,65293925,,,,,,,,,,,,,,-0.14746067415730338,-45.87640449438202,-0.008966292134831463,0.01146067415730337,-0.06707865168539362,0.0398876404494382,0.109887640449438,-0.019075083146067415,0.10025062471910112,0.31121791011235955,-0.20248955056179777,0.12097778651685392,0.9869213707865169,-1.7319235955056183,4.673791235955056,-2.2881225842696624,47.59843981,,-0.05489887640449438,-0.5349662921348315,-0.3721573033707865,2.4271573033707865,-122.83076894,94.7900203,0.0,0.0,76.6,19.1,18.2,0.536,100,True
,101,10100.0,2025-09-30 18:08:14.025000+00:00,2025-09-30 11:08:14.025,65294025,,,,,,,,,,,,,,-0.09211494252873563,-3.735632183908045,0.0,-0.0013793103448275848,0.05413793103448272,0.1810344827586207,0.0898850574712644,-0.004329735172413793,0.11059495402298851,0.31890937931034485,-0.17770981609195402,0.05224546666666666,0.9857169195402299,-12.204471264367816,4.3696335632183905,-4.5528247126436785,47.59843981,,-0.11919540229885058,-0.24995402298850572,-0.3895402298850575,2.4445402298850576,-122.83076894,94.7900203,0.0,0.0,76.6,19.171264367816093,18.2,0.536,100,True
,102,10200.0,2025-09-30 18:08:14.125000+00:00,2025-09-30 11:08:14.125,65294125,,,,,,,,,,,,,,0.056296703296703304,0.0,0.006593406593406593,-0.01,-2.5985714285714288,0.22527472527472528,-4.167472527472528,0.02149774967032967,0.14083102197802197,0.3313578351648352,-0.2564233186813187,0.02000717912087912,0.9878716593406593,-16.013373626373625,17.485562197802196,-10.310747252747253,47.59843981,,-0.15532967032967032,-0.0033296703296703395,-0.38758241758241757,2.4574175824175826,-122.83076894,94.7900203,0.0,0.0,76.6,19.11758241758242,18.2,0.536,100,True
,103,10300.0,2025-09-30 18:08:14.225000+00:00,2025-09-30 11:08:14.225,65294225,,,,,,,,,,,,,,0.084625,105.0,0.008,-0.01,-5.69625,0.01874999999999999,-5.9662500000000005,0.041791524999999996,0.1724005,0.350918875,-0.25875275,-0.1882509875,0.9879066249999999,0.9270925000000005,14.663587499999998,-5.8231275,47.59843981,,-0.14225000000000002,0.2255,-0.37725,2.4677499999999997,-122.83076894,94.7900203,0.0,0.0,76.6,19.1,18.2,0.536,100,True
ride_102,104,10400.0,2025-09-30 18:08:14.325000+00:00,2025-09-30 11:08:14.325,65294325,,,,,,,,,,,,,,0.162,286.0,0.014,-0.05,-6.08,0.02,-6.08,0.0232717,0.191505,0.358786,-0.338028,-0.0241368,0.980235,23.1428,0.500256,-3.75356,47.59843981,0.0,-0.326,0.523,-0.358,2.488,-122.83076894,94.7900203,0.0,0.0,76.6,19.1,18.2,0.536,100,True
,105,10500.0,2025-09-30 18:08:14.425000+00:00,2025-09-30 11:08:14.425,65294425,,,,,,,,,,,,,,0.3538489208633094,445.45323741007195,0.02215107913669065,-0.11690647482014388,-6.104244604316547,-0.04424460431654677,-6.094244604316547,-0.012433672661870503,0.18914576978417266,0.37028733812949644,-0.3335963021582734,0.06864225251798561,0.9664777625899281,13.056183884892086,-7.853264820143885,-7.583855971223021,47.598439616618705,,-0.0600863309352518,1.1330719424460431,-0.314589928057554,2.530410071942446,-122.83076817338129,94.79847831438849,0.0,0.0,76.7,19.1,18.2,0.536,100,True
,106,10600.0,2025-09-30 18:08:14.525000+00:00,2025-09-30 11:08:14.525,65294525,,,,,,,,,,,,,,0.4466546762589928,567.0359712230215,0.029345323741007193,-0.16007194244604317,-6.068273381294964,-0.008273381294964029,-6.058273381294963,-0.018664751798561148,0.1828443309352518,0.3778082014388489,-0.287510690647482,0.055415705755395686,0.9585950287769784,-0.598916834532373,-7.723732446043165,-4.769330791366906,47.59843840798561,,-0.03562589928057554,1.446021582733813,-0.28077697841726623,2.564223021582734,-122.8307633820144,94.85134090431654,0.0,0.0,76.7,19.1,18.2,0.536,100,True
,107,10700.0,2025-09-30 18:08:14.625000+00:00,2025-09-30 11:08:14.625,65294625,,,,,,,,,,,,,,0.5748941176470588,643.0117647058823,0.03281176470588235,-0.18811764705882353,-6.014705882352941,0.0,-6.013764705882353,0.009942970588235293,0.1758818,0.3803967764705882,-0.1946840588235294,-0.04304172,0.9501654352941177,-17.40728023529412,-3.820486705882353,2.5758414117647055,47.59843813,,0.004423529411764708,1.7118588235294117,-0.2041529411764706,2.6408470588235295,-122.83076228,94.8634993,0.0,0.0,76.7,19.1,18.2,0.536,100,True
ride_102,108,10800.0,2025-09-30 18:08:14.725000+00:00,2025-09-30 11:08:14.725,65294725,,,,,,,,,,,,,,0.609,636.0,0.03,-0.18,-5.98,0.01,-5.97,0.0356008,0.166491,0.37405,-0.131881,-0.0975765,0.947829,-5.14879,-7.32424,4.64139,47.59843813,0.0,0.026,1.697,-0.141,2.704,-122.83076228,94.8634993,0.0,0.0,76.7,19.1,18.2,0.536,100,True
,109,10900.0,2025-09-30 18:08:14.825000+00:00,2025-09-30 11:08:14.825,65294825,,,,,,,,,,,,,,0.5736896551724138,583.0229885057471,0.022632183908045975,-0.15724137931034482,-5.95816091954023,-0.002758620689655172,-5.94816091954023,0.027114376321839082,0.15123836781609196,0.37083686206896554,-0.046093974712643676,0.01997174827586207,0.9483910919540229,11.58475172413793,-6.551689425287356,-1.3248552528735633,47.59843813,,0.05418390804597701,1.5060919540229885,-0.07967816091954023,2.76532183908046,-122.83076228,94.8634993,0.0,0.0,76.7,19.1,18.2,0.536,100,True
,110,11000.0,2025-09-30 18:08:14.925000+00:00,2025-09-30 11:08:14.925,65294925,,,,,,,,,,,,,,0.5186000000000001,501.6,0.016666666666666666,-0.12066666666666667,-5.930666666666667,-0.020666666666666667,-5.9206666666666665,0.004988893666666666,0.13963696666666667,0.37966663333333334,-0.022393008,0.03609428,0.9539208666666668,10.465916333333334,0.5571726666666668,-6.855907333333334,47.59843813,,0.0553,1.1869333333333334,-0.028366666666666665,2.8168666666666664,-122.83076228,94.8634993,0.0,0.0,76.67666666666666,19.1,18.2,0.536,100,True
,111,11100.0,2025-09-30 18:08:15.025000+00:00,2025-09-30 11:08:15.025,65295025,,,,,,,,,,,,,,0.41100000000000003,382.6666666666667,0.007666666666666666,-0.07666666666666666,-5.913333333333334,0.006666666666666667,-5.906666666666666,-0.0037226509999999996,0.139672,0.3924533333333333,0.00792332,0.039710166666666664,0.9640483333333334,-0.3357999999999999,5.57617,-7.1096900000000005,47.59843813,,0.057666666666666665,0.795,0.009333333333333334,2.8553333333333333,-122.83076228,94.8634993,0.0,0.0,76.6,19.133333333333333,18.2,0.536,100,True
,112,11200.0,2025-09-30 18:08:15.125000+00:00,2025-09-30 11:08:15.125,65295125,,,,,,,,,,,,,,0.20210112359550564,218.98876404494382,0.0028651685393258426,-0.032921348314606746,-4.42,0.07258426966292135,-5.86314606741573,0.0032264080561797753,0.14405885393258427,0.40059608988764045,0.0016770516853932584,-0.02099787078651685,0.973501606741573,-3.6146425393258426,3.410233820224719,-1.2454124719101123,47.59843813,,0.04308988764044944,0.3657191011235955,0.031842696629213484,2.8778426966292137,-122.83076228,94.8634993,0.0,0.0,76.6,19.2,18.2,0.536,100,True
,113,11300.0,2025-09-30 18:08:15.225000+00:00,2025-09-30 11:08:15.225,65295225,,,,,,,,,,,,,,0.006466666666666666,55.12222222222222,0.0,-0.004555555555555556,-0.21855555555555561,-0.2492222222222222,-3.4624444444444444,0.005774821777777778,0.1409314111111111,0.39946975555555553,-0.003964921111111113,-0.02403290755555556,0.9794636333333333,3.2544661444444443,-0.8947816666666666,2.4383185555555555,47.59843813,,0.04475555555555555,-0.028744444444444447,0.042444444444444444,2.888444444444444,-122.83076228,94.8634993,0.0,0.0,76.6,19.2,18.2,0.536,100,True
,114,11400.0,2025-09-30 18:08:15.325000+00:00,2025-09-30 11:08:15.325,65295325,,,,,,,,,,,,,,0.0003516483516483517,0.0,0.0,0.0,-0.8867032967032966,-0.5027472527472527,0.845934065934066,-0.004251274945054945,0.12886424175824177,0.39543258241758245,-0.0321091,0.03420178307692307,0.9820962637362637,6.7405094505494505,-5.241291758241758,2.137500769230769,47.59843813,,0.07235164835164834,-0.14659340659340658,0.047,2.893,-122.83076228,94.8634993,0.0,0.0,76.6,19.2,18.2,0.536,100,True
,115,11500.0,2025-09-30 18:08:15.425000+00:00,2025-09-30 11:08:15.425,65295425,,,,,,,,,,,,,,-0.0893932584269663,-1.5280898876404494,-0.0022921348314606745,-0.015280898876404495,-4.713146067415731,-0.1596629213483146,4.737752808988764,-0.012856082471910113,0.11858312359550562,0.3951369775280899,-0.036982794382022476,-0.017416998876404494,0.9846518651685393,2.033699685393258,-4.557324157303371,-0.06606896629213477,47.59843813,,0.10485393258426967,-0.11056179775280899,0.039359550561797754,2.899876404494382,-122.83076228,94.8634993,0.0,0.0,76.6,19.2,18.2,0.536,100,True
,116,11600.0,2025-09-30 18:08:15.525000+00:00,2025-09-30 11:08:15.525,65295525,,,,,,,,,,,,,,-0.13264356435643565,-126.36633663366337,-0.006910891089108911,-0.02782178217821782,-5.933663366336633,0.031683168316831684,5.946732673267326,-0.01331149405940594,0.1185779405940594,0.39705365346534655,-0.0010438876237623788,0.007870784158415835,0.9899096534653465,-3.1134162574257425,7.836282178217823,-3.329101603960396,47.5984376450495,,-0.09384158415841586,-0.29689108910891093,0.022138613861386137,2.916861386138614,-122.8307563119802,95.0010623050495,0.0,0.0,76.6,19.2,18.2,0.536,100,True
