ride_id,sample_idx,_elapsed_ms,ts_utc,ts_pst,ms_today,cf_accel,cf_brake,cf_cruise,cf_turn_left,cf_turn_right,cf_carve_left,cf_carve_right,cf_ascent,cf_descent,cf_traction_loss,cf_idle,cf_forward,cf_reverse,speed_meters_per_sec,erpm,duty_cycle,current_in,current_motor,d_axis_current,q_axis_current,roll,pitch,yaw,accX,accY,accZ,gyroX,gyroY,gyroZ,gnss_lat,fault_code,d_axis_voltage,q_axis_voltage,tacho_meters,tacho_abs_meters,gnss_lon,gnss_alt,gnss_gVel,gnss_vVel,input_voltage,temp_mos_max,temp_motor,battery_level,dt_ms,_on_grid
ride_102,0,0.0,2025-09-30 18:08:03.925000+00:00,2025-09-30 11:08:03.925,65283925,,,,,,,,,,,,,,0.0,0.0,0.001,0.0,0.0,0.0,0.0,0.0310937,0.345221,0.261759,-0.336152,-0.0224539,0.928431,-0.0192589,0.0461802,-0.240998,47.59843303,0.0,-0.008,0.075,-0.103,0.744,-122.83079051,92.69771484,0.0,0.0,76.6,19.0,18.1,0.537,100,True
,1,100.0,2025-09-30 18:08:04.025000+00:00,2025-09-30 11:08:04.025,65284025,0.0,0.0,0.0,0.0,0.0,0.0,0.0,0.0,0.0,0.0,1.0,0.0,0.0,0.0,0.0,0.001,0.0,0.0,0.0,0.0,0.0304007623655913,0.3495237419354838,0.406487688172043,-0.3386284086021505,-0.0259531956989247,0.9293206451612904,-0.0722162870967742,0.1061534537634408,-0.0442831344086021,47.59842896720431,,-0.008,0.075,-0.103,0.744,-122.83078592419356,93.6957611376344,0.0,0.0,76.6,19.0,18.1,0.537,100,True
,2,200.0,2025-09-30 18:08:04.125000+00:00,2025-09-30 11:08:04.125,65284125,0.0,0.0,0.0,0.0,0.0,0.0,0.0,0.0,0.0,0.0,1.0,0.0,0.0,0.0,0.0,0.001,0.0,0.0,0.0,0.0,0.0304330321428571,0.3495220714285714,0.4069839285714285,-0.3395943571428571,-0.0234944714285714,0.92926625,-0.0776312214285714,-0.0363915642857142,-0.2475808928571428,47.5983858,,-0.0081785714285714,0.0748214285714285,-0.103,0.744,-122.8307372,104.30000305,0.0,0.0,76.6,19.0,18.1,0.537,100,True
,3,300.0,2025-09-30 18:08:04.225000+00:00,2025-09-30 11:08:04.225,65284225,0.0,0.0,0.0,0.0,0.0,0.0,0.0,0.0,0.0,0.0,1.0,0.0,0.0,0.0,0.0,0.001,0.0,0.0,0.0,0.0,0.0304648597938144,0.3495394639175258,0.4073812268041237,-0.3386994329896907,-0.0262178298969072,0.9291493195876288,-0.0214663216494845,-0.1164399402061855,-0.2644964432989691,47.5983858,,-0.008680412371134,0.0743195876288659,-0.103,0.744,-122.8307372,104.30000305,0.0,0.0,76.6,19.0,18.1,0.537,100,True
,4,400.0,2025-09-30 18:08:04.325000+00:00,2025-09-30 11:08:04.325,65284325,0.0,0.0,0.0,0.0,0.0,0.0,0.0,0.0,0.0,0.0,1.0,0.0,0.0,0.0,0.0,0.001,0.0,0.0,0.0,0.0,0.0304625953488372,0.3495750930232558,0.4077441162790697,-0.3396738837209302,-0.0223633069767441,0.9290824186046512,0.0095901744186046,-0.0806652023255814,-0.2275231162790697,47.5983858,,-0.0083953488372093,0.0746046511627906,-0.103,0.744,-122.8307372,104.30000305,0.0,0.0,76.6,19.0,18.1,0.537,100,True
,5,500.0,2025-09-30 18:08:04.425000+00:00,2025-09-30 11:08:04.425,65284425,0.0,0.0,0.0,0.0,0.0,0.0,0.0,0.0,0.0,0.0,1.0,0.0,0.0,0.0,0.0,0.001,0.0,0.0,0.0,0.0,0.0304788,0.349589,0.407963,-0.340339,-0.0244372,0.92908,0.0443555,0.0454039,-0.316844,47.59840234808511,,-0.0086595744680851,0.0743404255319148,-0.103,0.744,-122.8307544493617,100.35835952659576,0.0,0.0,76.6,19.0,18.1,0.537,100,True
,6,600.0,2025-09-30 18:08:04.525000+00:00,2025-09-30 11:08:04.525,65284525,0.0,0.0,0.0,0.0,0.0,0.0,0.0,0.0,0.0,0.0,1.0,0.0,0.0,0.0,0.0,0.001,0.0,0.0,0.0,0.0,0.0304766496,0.349584856,0.408001248,-0.340177552,-0.0242945343999999,0.929091256,0.0368881016,0.0493706655999999,-0.312294168,47.59843441,,-0.008056,0.075,-0.103,0.744,-122.83078787,92.7214252,0.0,0.0,76.6,19.0,18.1,0.537,100,True
,7,700.0,2025-09-30 18:08:04.625000+00:00,2025-09-30 11:08:04.625,65284625,0.0,0.0,0.0,0.0,0.0,0.0,0.0,0.0,0.0,0.0,1.0,0.0,0.0,0.0,0.0,0.001,0.0,0.0,0.0,0.0,0.0304459296,0.349525656,0.408547648,-0.337871152,-0.0222564544,0.929252056,-0.0697890184,0.1060387456,-0.247296568,47.59843441,,-0.008856,0.075,-0.103,0.744,-122.83078787,92.7214252,0.0,0.0,76.6,19.0,18.1,0.537,100,True
,8,800.0,2025-09-30 18:08:04.725000+00:00,2025-09-30 11:08:04.725,65284725,0.0,0.0,0.0,0.0,0.0,0.0,0.0,0.0,0.0,0.0,1.0,0.0,0.0,0.0,0.0,0.001,0.0,0.0,0.0,0.0,0.0304643622222222,0.3495159111111111,0.4091334444444444,-0.3395005333333333,-0.0219197577777777,0.9293475111111112,0.0325024866666666,0.0517003533333333,-0.3096220444444444,47.59843441,,-0.0080888888888888,0.0740888888888888,-0.103,0.744,-122.83078787,92.7214252,0.0,0.0,76.6,19.0,18.1,0.537,100,True
,9,900.0,2025-09-30 18:08:04.825000+00:00,2025-09-30 11:08:04.825,65284825,0.0,0.0,0.0,0.0,0.0,0.0,0.0,0.0,0.0,0.0,1.0,0.0,0.0,0.0,0.0,0.001,0.0,0.0,0.0,0.0,0.0304891588235294,0.349513294117647,0.4094069411764706,-0.3371666176470588,-0.0215676882352941,0.9293100294117648,-0.0458494176470588,0.0933217617647058,-0.2618827941176471,47.59843441,,-0.008,0.074,-0.103,0.744,-122.83078787,92.7214252,0.0,0.0,76.6,19.0,18.1,0.537,100,True
,10,1000.0,2025-09-30 18:08:04.925000+00:00,2025-09-30 11:08:04.925,65284925,0.0,0.0,0.0,0.0,0.0,0.0,0.0,0.0,0.0,0.0,1.0,0.0,0.0,0.0,0.0,0.001,0.0,0.0,0.0,0.0,0.030499504040404,0.3495414141414141,0.4097859494949495,-0.3372243333333333,-0.0214166232323232,0.9291306161616162,-0.0066414292929292,0.0373841555555555,-0.2022651212121212,47.59843441,,-0.0085656565656565,0.074,-0.103,0.744,-122.83078787,92.7214252,0.0,0.0,76.6,19.0,18.1,0.537,100,True
,11,1100.0,2025-09-30 18:08:05.025000+00:00,2025-09-30 11:08:05.025,65285025,0.0,0.0,0.0,0.0,0.0,0.0,0.0,0.0,0.0,0.0,1.0,0.0,0.0,0.0,0.0,0.001,0.0,0.0,0.0,0.0,0.030528224137931,0.3495567931034483,0.4102121724137931,-0.3369076551724138,-0.0204336310344827,0.9288275172413794,0.0109045862068965,0.0227355586206896,-0.1731324137931034,47.59843441,,-0.0083448275862068,0.0746551724137931,-0.103,0.744,-122.83078787,92.7214252,0.0,0.0,76.6,19.0,18.1,0.537,100,True
,12,1200.0,2025-09-30 18:08:05.125000+00:00,2025-09-30 11:08:05.125,65285125,0.0,0.0,0.0,0.0,0.0,0.0,0.0,0.0,0.0,0.0,1.0,0.0,0.0,0.0,0.0,0.001,0.0,0.0,0.0,0.0,0.0305409680851063,0.3495284255319149,0.4105682765957447,-0.3372698085106383,-0.0239423382978723,0.9286083829787234,-0.1215531276595744,0.0985807574468085,-0.2146178723404255,47.59843441,,-0.0087446808510638,0.0742553191489361,-0.103,0.744,-122.83078787,92.7214252,0.0,0.0,76.6,19.0,18.1,0.537,100,True
,13,1300.0,2025-09-30 18:08:05.225000+00:00,2025-09-30 11:08:05.225,65285225,0.0,0.0,0.0,0.0,0.0,0.0,0.0,0.0,0.0,0.0,1.0,0.0,0.0,0.0,0.0,0.001,0.0,0.0,0.0,0.0,0.0305327714285714,0.3494675238095238,0.4109559047619048,-0.3395179523809524,-0.0213137666666666,0.928573238095238,-0.0325411952380952,-0.0104716095238095,-0.2392532380952381,47.59843441,,-0.008095238095238,0.0749047619047619,-0.103,0.744,-122.83078787,92.7214252,0.0,0.0,76.6,19.0,18.1,0.537,100,True
,14,1400.0,2025-09-30 18:08:05.325000+00:00,2025-09-30 11:08:05.325,65285325,0.0,0.0,0.0,0.0,0.0,0.0,0.0,0.0,0.0,0.0,1.0,0.0,0.0,0.0,0.0,0.001,0.0,0.0,0.0,0.0,0.0305918872093023,0.3494766976744186,0.4113937093023256,-0.3356843023255814,-0.021155738372093,0.9286369534883722,-0.0912099965116279,-0.091281088372093,-0.2308272209302325,47.59843441,,-0.008,0.075,-0.103,0.744,-122.83078787,92.7214252,0.0,0.0,76.6,19.0,18.1,0.536,100,True
,15,1500.0,2025-09-30 18:08:05.425000+00:00,2025-09-30 11:08:05.425,65285425,0.0,0.0,0.0,0.0,0.0,0.0,0.0,0.0,0.0,0.0,1.0,0.0,0.0,0.0,0.0,0.001,0.0,0.0,0.0,0.0,0.0305470802083333,0.3494869687499999,0.411747375,-0.33894346875,-0.0275943333333333,0.9288984375,-0.1166432177083333,0.0016534510416666,-0.1741702604166666,47.5984344365625,,-0.008,0.075,-0.103,0.744,-122.83078781510416,92.76023093531248,0.0,0.0,76.6,19.0,18.1,0.536,100,True
,16,1600.0,2025-09-30 18:08:05.525000+00:00,2025-09-30 11:08:05.525,65285525,0.0,0.0,0.0,0.0,0.0,0.0,0.0,0.0,0.0,0.0,1.0,0.0,0.0,0.0,0.0,0.001,0.0,0.0,0.0,0.0,0.0305346676056338,0.3494333169014084,0.4120684225352112,-0.3342960633802816,-0.0200095514084507,0.929122352112676,0.0307530577464788,0.1265895985915492,-0.2358165985915493,47.59843456,,-0.008,0.0747042253521126,-0.103,0.744,-122.83078756,92.94056347,0.0,0.0,76.6,19.0,18.1,0.536,100,True
,17,1700.0,2025-09-30 18:08:05.625000+00:00,2025-09-30 11:08:05.625,65285625,0.0,0.0,0.0,0.0,0.0,0.0,0.0,0.0,0.0,0.0,1.0,0.0,0.0,0.0,0.0,0.001,0.0,0.0,0.0,0.0,0.0306021323943661,0.3493776830985916,0.4123275774647887,-0.3351249366197183,-0.0223507485915492,0.929271647887324,-0.0631528577464788,0.1764734014084507,-0.1786004014084507,47.59843456,,-0.008,0.0732957746478873,-0.103,0.744,-122.83078756,92.94056347,0.0,0.0,76.6,19.0,18.1,0.536,100,True
,18,1800.0,2025-09-30 18:08:05.725000+00:00,2025-09-30 11:08:05.725,65285725,0.0,0.0,0.0,0.0,0.0,0.0,0.0,0.0,0.0,0.0,1.0,0.0,0.0,0.0,0.0,0.001,0.0,0.0,0.0,0.0,0.030615671590909,0.3493767727272727,0.4128048295454545,-0.3381932727272727,-0.0199083579545454,0.92959925,-0.0257648977272727,0.0605770090909091,-0.2333875795454545,47.59843456,,-0.008,0.0738977272727272,-0.103,0.744,-122.83078756,92.94056347,0.0,0.0,76.6,19.0,18.1,0.536,100,True
,19,1900.0,2025-09-30 18:08:05.825000+00:00,2025-09-30 11:08:05.825,65285825,0.0,0.0,0.0,0.0,0.0,0.0,0.0,0.0,0.0,0.0,1.0,0.0,0.0,0.0,0.0,0.001,0.0,0.0,0.0,0.0,0.0306550044444444,0.3494508222222222,0.4132532444444444,-0.3373749333333333,-0.0261563111111111,0.9298713777777776,-0.0069425999999999,0.4466456,-0.1759052444444444,47.59843456,,-0.008,0.0740888888888888,-0.103,0.744,-122.83078756,92.94056347,0.0,0.0,76.6,19.0,18.1,0.536,100,True
,20,2000.0,2025-09-30 18:08:05.925000+00:00,2025-09-30 11:08:05.925,65285925,0.0,0.0,0.0,0.0,0.0,0.0,0.0,0.0,0.0,0.0,1.0,0.0,0.0,0.0,0.0,0.001,0.0,0.0,0.0,0.0,0.0304569454545454,0.3495393986013986,0.4134957972027971,-0.3321403286713287,-0.0231329783216783,0.9301021538461538,0.0470434601398601,0.7892981538461539,-0.1929945804195804,47.59843456,,-0.0081258741258741,0.0748741258741258,-0.103,0.744,-122.83078756,92.94056347,0.0,0.0,76.6,19.0,18.1,0.536,100,True
,21,2100.0,2025-09-30 18:08:06.025000+00:00,2025-09-30 11:08:06.025,65286025,0.0,0.0,0.0,0.0,0.0,0.0,0.0,0.0,0.0,0.0,1.0,0.0,0.0,0.0,0.0,0.001,0.0,0.0,0.0,0.0,0.030233309090909,0.3493582797202797,0.4136335594405594,-0.3325032657342657,-0.0228556356643356,0.9298252307692308,-0.0059984279720279,-0.1411787692307692,-0.227958916083916,47.59843456,,-0.0088251748251748,0.0741748251748251,-0.103,0.744,-122.83078756,92.94056347,0.0,0.0,76.6,19.0,18.1,0.536,100,True
,22,2200.0,2025-09-30 18:08:06.125000+00:00,2025-09-30 11:08:06.125,65286125,0.0,0.0,0.0,0.0,0.0,0.0,0.0,0.0,0.0,0.0,1.0,0.0,0.0,0.0,0.0,0.001,0.0,0.0,0.0,0.0,0.0302199187969924,0.3492802932330827,0.4139837894736842,-0.3320176842105263,-0.0235916195488721,0.9297385187969924,-0.0158090691729323,0.5344508721804513,-0.2066712406015037,47.59843456,,-0.0084360902255639,0.074,-0.103,0.744,-122.83078756,92.94056347,0.0,0.0,76.6,19.0,18.1,0.536,100,True
,23,2300.0,2025-09-30 18:08:06.225000+00:00,2025-09-30 11:08:06.225,65286225,0.0,0.0,0.0,0.0,0.0,0.0,0.0,0.0,0.0,0.0,1.0,0.0,0.0,0.0,0.0,0.001,0.0,0.0,0.0,0.0,0.0303962222222222,0.3493281111111111,0.4145567407407407,-0.3359016296296296,-0.0305846592592592,0.9298354444444444,-0.0588153185185185,1.1268677777777778,-0.2876292222222222,47.59843456,,-0.008,0.074,-0.103,0.744,-122.83078756,92.94056347,0.0,0.0,76.6,19.0,18.1,0.536,100,True
,24,2400.0,2025-09-30 18:08:06.325000+00:00,2025-09-30 11:08:06.325,65286325,0.0,0.0,0.0,0.0,0.0,0.0,0.0,0.0,0.0,0.0,1.0,0.0,0.0,0.0,0.0,0.001,0.0,0.0,0.0,0.0,0.030476208,0.3490873399999999,0.4149955899999999,-0.33658103,-0.026147834,0.92964886,-0.0900311819999999,0.94067272,-0.25589041,47.59843456,,-0.008,0.074,-0.103,0.744,-122.83078756,92.94056347,0.0,0.0,76.6,19.0,18.161,0.536,100,True
,25,2500.0,2025-09-30 18:08:06.425000+00:00,2025-09-30 11:08:06.425,65286425,0.0,0.0,0.0,0.0,0.0,0.0,0.0,0.0,0.0,0.0,1.0,0.0,0.0,0.0,0.0,0.0002823529411764,0.0,0.0,0.0,0.0,0.0305192035294117,0.3489617647058823,0.4153034705882353,-0.3236788588235293,-0.0214818023529411,0.9293814705882352,-0.1829589858823529,0.0330469176470588,-0.1562283647058823,47.59843456,,-0.0036941176470588,0.0539058823529411,-0.103,0.744,-122.83078756,92.94056347,0.0,0.0,76.6,19.0,18.2,0.536,100,True
,26,2600.0,2025-09-30 18:08:06.525000+00:00,2025-09-30 11:08:06.525,65286525,0.0,0.0,0.0,0.0,0.0,0.0,0.0,0.0,0.0,0.0,1.0,0.0,0.0,0.0,0.0,-0.0008837209302325,0.0,0.0,0.0,0.0,0.0303118674418604,0.3461735813953489,0.4162305348837209,-0.3353296511627907,0.0070852046511627,0.928110023255814,-3.0408615116279067,-2.1904041860465115,-3.2361943023255817,47.59843889023256,,-0.0046511627906976,-0.0176279069767441,-0.103,0.744,-122.83078406930233,92.91412875232558,0.0,0.0,76.6,19.0,18.111627906976747,0.536,100,True
ride_102,27,2700.0,2025-09-30 18:08:06.625000+00:00,2025-09-30 11:08:06.625,65286625,,,,,,,,,,,,,,0.0,-102.0,0.0,0.0,-2.08,-0.06,2.11,0.0380956,0.342808,0.421698,-0.314072,-0.105805,0.928975,-0.889069,-3.58853,0.294153,47.59843946,0.0,-0.099,-0.136,-0.103,0.744,-122.83078361,92.9106505,0.0,0.0,76.6,19.0,18.1,0.536,100,True
,28,2800.0,2025-09-30 18:08:06.725000+00:00,2025-09-30 11:08:06.725,65286725,,,,,,,,,,,,,,-0.0792765957446808,-99.95744680851064,0.0,-0.0186170212765957,-5.457553191489362,0.1935106382978723,5.315851063829787,0.0347383255319148,0.3002247553191489,0.4157626170212766,-0.369863914893617,-0.0488766053191489,0.9189659361702128,1.9496361702127656,-35.00320744680851,2.1697835106382977,47.59843946,,-0.0406063829787234,-0.1517234042553191,-0.1142446808510638,0.7543829787234042,-122.83078361,92.9106505,0.0,0.0,76.6,19.0,18.2,0.536,100,True
,29,2900.0,2025-09-30 18:08:06.825000+00:00,2025-09-30 11:08:06.825,65286825,,,,0.85,0.0,,0.0,,,,0.0,,,0.0,-1.7078651685393258,0.0,-0.0078651685393258,-3.3373033707865165,-0.5233707865168539,3.2985393258426967,0.0259527573033707,0.1989387078651685,0.410244404494382,-0.1511006483146067,-0.0286772752808988,0.9017901460674156,4.238194382022472,-45.35140561797753,-1.3753301123595507,47.59843946,,0.0855280898876404,-0.1324943820224719,-0.122,0.763,-122.83078361,92.9106505,0.0,0.0,76.6,19.0,18.2,0.536,100,True
,30,3000.0,2025-09-30 18:08:06.925000+00:00,2025-09-30 11:08:06.925,65286925,,,,0.85,0.0,,0.0,,,,0.0,0.0,0.9,-0.0016483516483516,-14.593406593406591,0.0,-0.0032967032967032,-2.300879120879121,-0.4595604395604395,2.7245054945054945,0.0141251923076923,0.1441732417582417,0.4057285494505494,-0.0277468824175824,-0.0040020164835164,0.9091004065934066,7.756740659340659,-14.555307252747252,4.046428351648352,47.59843946,,0.1365714285714285,-0.0511868131868131,-0.1249670329670329,0.765967032967033,-122.83078361,92.9106505,0.0,0.0,76.6,19.0,18.2,0.536,100,True
,31,3100.0,2025-09-30 18:08:07.025000+00:00,2025-09-30 11:08:07.025,65287025,,,,0.85,0.0,,0.0,,,,0.0,0.0,0.9,-0.0227272727272727,-67.0,-0.0004431818181818,-0.01,-3.3555681818181817,0.07,5.097840909090909,0.0015654421590909,0.1338248522727272,0.3960153636363636,-0.0369691318181818,0.0136561585227272,0.9318383863636364,3.728296704545455,1.354260590909091,6.082322272727273,47.59843946,,0.0866363636363636,-0.0666363636363636,-0.131,0.772,-122.83078361,92.9106505,0.0,0.0,76.6,19.0,18.2,0.536,100,True
,32,3200.0,2025-09-30 18:08:07.125000+00:00,2025-09-30 11:08:07.125,65287125,,,,0.0,0.85,0.0,,,,,0.0,0.0,0.9,-0.0782359550561797,-160.69662921348316,-0.0055842696629213,-0.027191011235955,-4.902921348314607,0.0585393258426966,6.05,-0.0021170348314606,0.1320443483146067,0.3833811910112359,-0.0368734123595505,-0.013368608988764,0.9531962696629214,-1.817423483146068,-1.2473614606741572,8.092677752808989,47.59843946,,-0.1349550561797753,-0.2997640449438202,-0.1418876404494382,0.7828876404494383,-122.83078361,92.9106505,0.0,0.0,76.6,18.942696629213483,18.14269662921348,0.536,100,True
,33,3300.0,2025-09-30 18:08:07.225000+00:00,2025-09-30 11:08:07.225,65287225,,,,0.0,0.85,0.0,,,,,0.0,0.0,0.9,-0.2392708333333333,-292.8125,-0.0115833333333333,-0.059375,-6.047083333333333,-0.0210416666666666,6.043541666666667,0.0013877439583333,0.1235601458333333,0.3669810416666667,-0.0494917166666666,0.001491575,0.9677700625,-5.564400208333334,-4.546445416666667,10.722169999999998,47.59843946,,-0.1046041666666666,-0.6368958333333333,-0.1803541666666666,0.8213541666666666,-122.83078361,92.9106505,0.0,0.0,76.66458333333334,18.964583333333334,18.1,0.536,100,True
,34,3400.0,2025-09-30 18:08:07.325000+00:00,2025-09-30 11:08:07.325,65287325,,,,0.0,0.85,0.0,,,,,0.0,0.0,0.9,-0.314,-377.6428571428572,-0.0153571428571428,-0.0857142857142857,-6.024285714285714,-0.0364285714285714,6.024285714285714,0.011500215,0.1151577142857142,0.3465212857142857,-0.0656629142857142,0.0010636771428571,0.9797366428571428,-9.10474,-2.8854721428571426,11.337821428571427,47.59843946,,0.0324285714285714,-0.8777142857142858,-0.197,0.838,-122.83078361,92.9106505,0.0,0.0,76.7,19.0,18.1,0.536,100,True
,35,3500.0,2025-09-30 18:08:07.425000+00:00,2025-09-30 11:08:07.425,65287425,,,,0.0,0.85,0.0,,,,,0.0,0.0,0.9,-0.3440863309352518,-397.2086330935252,-0.014820143884892,-0.0958992805755395,-6.00820143884892,-0.0064028776978417,6.00820143884892,0.02031905323741,0.1124291223021582,0.3316429928057554,-0.1138306597122302,-0.0236949002877697,0.98623254676259,-7.26745726618705,-2.070543597122302,12.15966618705036,47.59844056906475,,0.0830359712230215,-0.9344172661870505,-0.2194172661870503,0.8604172661870504,-122.8307797223741,92.99887240043168,0.0,0.0,76.7,19.0,18.1,0.536,100,True
,36,3600.0,2025-09-30 18:08:07.525000+00:00,2025-09-30 11:08:07.525,65287525,,,,0.85,0.0,,0.0,,,,0.0,0.0,0.9,-0.3746117647058823,-395.3882352941176,-0.0124823529411764,-0.0898823529411764,-5.979764705882353,0.0049411764705882,5.979764705882353,0.0216523482352941,0.1019849258823529,0.3089125294117646,-0.1589731647058823,-0.0312806188235294,0.9896332,1.735307176470588,-8.200315999999999,11.663910588235296,47.59844134,,0.1277529411764705,-0.910035294117647,-0.2587764705882353,0.8997764705882353,-122.83077702,93.06019738,0.0,0.0,76.7,19.0,18.1,0.536,100,True
,37,3700.0,2025-09-30 18:08:07.625000+00:00,2025-09-30 11:08:07.625,65287625,,,,0.85,0.0,,0.0,,,,0.0,0.0,0.9,-0.3710425531914894,-347.74468085106383,-0.0066808510638297,-0.0676595744680851,-5.947659574468085,0.0,5.947659574468085,0.0061962442553191,0.0815722851063829,0.2861732765957446,-0.1591722127659574,0.042927429787234,0.9885736382978724,10.915717872340425,-12.943548936170211,7.151454255319149,47.59844134,,0.1008723404255319,-0.733404255319149,-0.3054468085106382,0.9464468085106384,-122.83077702,93.06019738,0.0,0.0,76.63829787234042,19.0,18.1,0.536,100,True
,38,3800.0,2025-09-30 18:08:07.725000+00:00,2025-09-30 11:08:07.725,65287725,,,,0.85,0.0,,0.0,,,,0.0,0.0,0.9,-0.3210444444444444,-141.95555555555555,-0.0203555555555555,-0.0173333333333333,-4.254666666666667,0.0355555555555555,4.233333333333333,-0.0128551208888888,0.0684009333333333,0.2794519555555555,-0.1646628444444444,0.0756249866666666,0.988028377777778,5.9843280000000005,-5.50203111111111,0.8959437777777781,47.59844134,,0.0802444444444444,-0.5562666666666667,-0.3399111111111111,0.9809111111111112,-122.83077702,93.06019738,0.0,0.0,76.6,19.0,18.1,0.536,100,True
,39,3900.0,2025-09-30 18:08:07.825000+00:00,2025-09-30 11:08:07.825,65287825,,,,0.0,0.85,0.0,,,,,0.0,0.0,0.9,-0.1226593406593406,-172.08791208791212,-0.0188681318681318,0.0162637362637362,0.4959340659340658,0.0256043956043956,-0.4608791208791212,-0.0155676615384615,0.0588903076923076,0.2817034505494505,-0.0566563252747252,0.0270706791208791,0.988515923076923,-5.084839340659341,-9.05553021978022,-2.8417302747252746,47.59844134,,-0.1436923076923077,-0.7117252747252747,-0.3634505494505494,1.0044505494505491,-122.83077702,93.06019738,0.0,0.0,76.6,19.0,18.1,0.536,100,True
,40,4000.0,2025-09-30 18:08:07.925000+00:00,2025-09-30 11:08:07.925,65287925,,,,0.0,0.85,0.0,,,,,0.0,0.0,0.9,-0.1852111111111111,-19.855555555555554,-0.0013222222222222,-0.0076666666666666,-3.522333333333334,0.2966666666666667,3.8213333333333335,0.0056288822222222,0.0472370377777777,0.2777131777777777,-0.1592081422222222,-0.0141642422222222,0.987695988888889,-19.050311888888885,-3.2016185555555543,8.230785777777779,47.59844134,,-0.1342111111111111,-0.2976555555555556,-0.3753,1.0163,-122.83077702,93.06019738,0.0,0.0,76.6,19.0,18.1,0.536,100,True
,41,4100.0,2025-09-30 18:08:08.025000+00:00,2025-09-30 11:08:08.025,65288025,,,,0.85,0.0,,0.0,,,,0.0,1.0,0.0,-0.0040425531914893,-1.042553191489362,0.0,-0.01,-2.742872340425532,-0.3626595744680851,2.380212765957447,0.0255869170212765,0.0512131319148936,0.2703895106382979,-0.1354095319148936,-0.0352022117021276,0.9900825212765958,-4.837909574468085,1.7393569148936172,-1.1445625531914896,47.59844134,,0.0164361702127659,-0.1511595744680851,-0.4046914893617022,1.0456914893617022,-122.83077702,93.06019738,0.0,0.0,76.6,19.0,18.198936170212765,0.536,100,True
,42,4200.0,2025-09-30 18:08:08.125000+00:00,2025-09-30 11:08:08.125,65288125,0.65,0.0,0.0,0.85,0.0,,0.0,,,0.0,0.0,1.0,0.0,0.0121685393258426,9.932584269662922,0.0,0.0,0.8212359550561797,-0.4420224719101123,-0.7283146067415731,0.0211580719101123,0.0546887674157303,0.2758869550561798,-0.0741598438202247,-0.0745423438202247,0.9914119213483146,5.2741786,0.5455444719101123,-1.2498267191011236,47.59844134,,0.0632359550561797,-0.144,-0.4035393258426966,1.047314606741573,-122.83077702,93.06019738,0.0,0.0,76.6,19.0,18.2,0.536,100,True
,43,4300.0,2025-09-30 18:08:08.225000+00:00,2025-09-30 11:08:08.225,65288225,,,,0.85,0.0,,0.0,,,,0.0,1.0,0.0,0.069090909090909,49.45454545454545,0.0,-0.0027272727272727,2.7945454545454544,-0.1736363636363636,-2.6872727272727275,0.0194720636363636,0.0590121181818181,0.274971,-0.0852387090909091,0.0435018,0.9921954545454544,-0.3004375999999999,3.5655336363636363,-2.098602363636364,47.59844134,,-0.0174545454545454,-0.1396363636363636,-0.395,1.055,-122.83077702,93.06019738,0.0,0.0,76.6,19.0,18.2,0.536,100,True
,44,4400.0,2025-09-30 18:08:08.325000+00:00,2025-09-30 11:08:08.325,65288325,,,,0.85,0.0,,0.0,,,,0.0,1.0,0.0,0.0,0.0,0.0,-0.0139560439560439,1.5369230769230766,0.219010989010989,-4.574065934065934,0.0180403021978021,0.0667970032967033,0.2819646263736264,-0.1063681868131868,-0.0185949186813186,0.9929387912087912,0.4746762637362638,3.1176933846153845,-2.889602307692308,47.59844134,,-0.1217142857142857,-0.0749890109890109,-0.3914395604395604,1.0585604395604395,-122.83077702,93.06019738,0.0,0.0,76.6,19.0,18.2,0.536,100,True
,45,4500.0,2025-09-30 18:08:08.425000+00:00,2025-09-30 11:08:08.425,65288425,0.9,0.0,0.0,0.85,0.0,,0.0,,,0.0,0.0,1.0,0.0,0.0,48.57954545454545,0.0005113636363636,-0.0097727272727272,-4.2502272727272725,0.3743181818181818,-5.681477272727273,0.012867821590909,0.0705775329545454,0.2903629318181818,-0.1149621022727272,0.0093839198863636,0.9915033522727272,4.953965568181818,0.4346968636363636,-6.505951704545455,47.598442766704544,,-0.1461704545454545,0.0965113636363636,-0.386,1.064,-122.8307751228409,93.07256096636364,0.0,0.0,76.6,19.0,18.14886363636364,0.536,100,True
,46,4600.0,2025-09-30 18:08:08.525000+00:00,2025-09-30 11:08:08.525,65288525,0.9,0.0,0.0,0.85,0.0,,0.0,,,0.0,0.0,1.0,0.0,0.0417739726027397,167.6164383561644,0.0025616438356164,-0.0156164383561643,-6.011232876712329,0.0792465753424657,-5.99904109589041,0.0056447503972602,0.0740405842465753,0.2992297945205479,-0.1396602808219178,0.0330797232876712,0.9903850753424656,5.381587876712329,3.3702364041095896,-6.065524931506849,47.59844413,,-0.1780684931506849,0.2825547945205479,-0.3785821917808219,1.071417808219178,-122.83077331,93.08437506,0.0,0.0,76.6,19.0,18.1,0.536,100,True
,47,4700.0,2025-09-30 18:08:08.625000+00:00,2025-09-30 11:08:08.625,65288625,0.9,0.0,0.0,0.0,0.85,0.0,,,,0.0,0.0,1.0,0.0,0.1308333333333333,288.61538461538464,0.0059871794871794,-0.0442307692307692,-6.05576923076923,-0.0042307692307692,-6.05576923076923,0.0013022884358974,0.0826696153846153,0.3074148974358974,-0.1568002051282051,0.0538696216666666,0.9906367948717948,1.857915128205128,8.259038076923078,-5.678211794871795,47.59844413,,-0.2177051282051282,0.483974358974359,-0.3616410256410256,1.0883589743589743,-122.83077331,93.08437506,0.0,0.0,76.61410256410257,19.0,18.1,0.536,100,True
,48,4800.0,2025-09-30 18:08:08.725000+00:00,2025-09-30 11:08:08.725,65288725,0.9,0.0,0.0,0.0,0.85,0.0,,,,0.0,0.0,1.0,0.0,0.2907065217391305,347.9130434782609,0.012,-0.0735869565217391,-6.015652173913043,-0.0192391304347826,-6.015652173913043,0.0124731863043478,0.1152481739130434,0.3256217608695652,-0.141727902173913,-0.0208503444565217,0.9930783152173912,-6.026763043478261,8.36349152173913,-5.091629130434782,47.59844413,,-0.0184891304347826,0.7883913043478261,-0.3189565217391304,1.1310434782608696,-122.83077331,93.08437506,0.0,0.0,76.7,19.0,18.1,0.536,100,True
,49,4900.0,2025-09-30 18:08:08.825000+00:00,2025-09-30 11:08:08.825,65288825,0.9,0.0,0.0,0.0,0.85,0.0,,,,0.0,0.0,1.0,0.0,0.3327021276595744,376.2340425531915,0.0128723404255319,-0.0843617021276595,-6.003085106382978,0.0,-6.003085106382978,0.022218494680851,0.1269856170212766,0.3327675,-0.1323117234042553,-0.0488555553191489,0.9904207021276596,-2.939854723404255,5.510898617021277,-3.227613085106383,47.59844413,,-0.0074574468085106,0.8607872340425532,-0.2804999999999999,1.1695,-122.83077331,93.08437506,0.0,0.0,76.7,19.0,18.1,0.536,100,True
,50,5000.0,2025-09-30 18:08:08.925000+00:00,2025-09-30 11:08:08.925,65288925,,,,0.85,0.0,,0.0,,,,0.0,1.0,0.0,0.3612637362637362,377.8351648351649,0.0119340659340659,-0.0848351648351648,-5.994175824175824,0.0103296703296703,-5.994175824175824,0.0244205054945054,0.1325640329670329,0.3373651208791209,-0.1249286483516483,-0.0322828263736263,0.9865305934065934,1.278921032967033,1.8884368351648355,-2.8108929670329674,47.59844413,,-0.001065934065934,0.8783736263736264,-0.2343736263736263,1.2156263736263735,-122.83077331,93.08437506,0.0,0.0,76.7,19.0,18.1,0.536,100,True
,51,5100.0,2025-09-30 18:08:09.025000+00:00,2025-09-30 11:08:09.025,65289025,,,,0.85,0.0,,0.0,,,,0.0,1.0,0.0,0.3597764705882352,369.0470588235294,0.0113176470588235,-0.0865882352941176,-5.99635294117647,0.0068235294117647,-5.99635294117647,0.0200831435294117,0.1336103176470588,0.3426709882352941,-0.1120257058823529,-0.0149301835294117,0.9827375058823528,3.12215494117647,1.6513127529411764,-3.6217287058823526,47.59844413,,-0.0049764705882352,0.8494588235294117,-0.1975529411764706,1.2524470588235297,-122.83077331,93.08437506,0.0,0.0,76.7,19.0,18.1,0.536,100,True
,52,5200.0,2025-09-30 18:08:09.125000+00:00,2025-09-30 11:08:09.125,65289125,,,,0.85,0.0,,0.0,,,,0.0,1.0,0.0,0.3479,348.85555555555555,0.0104222222222222,-0.0742222222222222,-5.9863333333333335,0.0078888888888888,-5.9863333333333335,0.0147410911111111,0.1341649888888889,0.3482468111111111,-0.0968483055555555,0.0018426494444444,0.9805780222222222,2.4483665555555554,0.5184079044444445,-3.195933,47.59844413,,-0.0052111111111111,0.7856222222222222,-0.1659111111111111,1.2848777777777778,-122.83077331,93.08437506,0.0,0.0,76.6211111111111,19.0,18.1,0.536,100,True
,53,5300.0,2025-09-30 18:08:09.225000+00:00,2025-09-30 11:08:09.225,65289225,,,,0.85,0.0,,0.0,,,,0.0,1.0,0.0,0.3280947368421053,325.2421052631579,0.0091473684210526,-0.07,-5.98,-0.015578947368421,-5.98,0.0116251947368421,0.1335127052631579,0.3519855052631579,-0.0901413336842105,9.564712631578936e-05,0.979324694736842,1.8059627368421047,0.15446368,-1.3246639999999998,47.59844413,,0.0231368421052631,0.6932631578947369,-0.1352736842105263,1.3148736842105262,-122.83077331,93.08437506,0.0,0.0,76.6,19.0,18.1,0.536,100,True
,54,5400.0,2025-09-30 18:08:09.325000+00:00,2025-09-30 11:08:09.325,65289325,,,,,,,,,,,0.0,1.0,0.0,0.2943563218390804,275.54022988505744,0.0040574712643678,-0.0403448275862068,-5.950344827586207,0.0096551724137931,-5.950344827586207,0.0090170696551724,0.1290878275862069,0.3523146781609195,-0.0624259252873563,0.003352579045977,0.978434459770115,1.6238655172413794,-2.0088995172413795,1.6430788505747131,47.59844413,,0.0200919540229885,0.5425977011494253,-0.1033218390804597,1.3466781609195402,-122.83077331,93.08437506,0.0,0.0,76.6,19.0,18.1,0.536,100,True
,55,5500.0,2025-09-30 18:08:09.425000+00:00,2025-09-30 11:08:09.425,65289425,0.0,0.7,0.0,0.0,0.8,0.0,,,,0.0,0.0,1.0,0.0,0.2475411764705882,245.8470588235294,0.0019058823529411,-0.0290588235294117,-5.968117647058823,-0.0352941176470588,-5.968588235294117,0.0084263630588235,0.1294689529411764,0.3506093294117647,-0.0544374832941176,0.0031346745882352,0.9798456352941176,-1.5272743529411763,5.924197176470589,1.0638120470588237,47.59844425235294,,0.0369529411764705,0.4240588235294117,-0.0831058823529411,1.3668941176470588,-122.83077337541177,93.1015894444706,0.0,0.0,76.6,19.0,18.1,0.536,100,True
,56,5600.0,2025-09-30 18:08:09.525000+00:00,2025-09-30 11:08:09.525,65289525,0.0,0.7,0.0,0.0,0.8,0.0,,,,0.0,0.0,1.0,0.0,0.0664827586206896,15.632183908045976,0.0,-0.01,-3.916436781609196,-0.0360919540229885,-5.573103448275862,0.0145280931034482,0.1408429540229885,0.3519828390804597,-0.0155372983908045,-0.0205096229885057,0.9848689770114942,-4.952832183908046,11.1771091954023,-1.701491172413793,47.59844673,,-0.1168275862068965,0.1017241379310344,-0.0630344827586207,1.3869655172413793,-122.8307747,93.45018073,0.0,0.0,76.6,19.02183908045977,18.12183908045977,0.536,100,True
,57,5700.0,2025-09-30 18:08:09.625000+00:00,2025-09-30 11:08:09.625,65289625,,,,0.0,0.8,0.0,,,,,0.0,1.0,0.0,0.07072,0.0,0.0,-0.0068,2.3684000000000003,-0.3,-3.0312,0.02288278,0.1623838,0.35755252,-0.075073568,-0.040467648,0.9912142,-3.76688512,16.37598,-3.5901380800000005,47.59844673,,-0.0872,-0.11944,-0.056,1.394,-122.8307747,93.45018073,0.0,0.0,76.6,19.1,18.2,0.536,100,True
,58,5800.0,2025-09-30 18:08:09.725000+00:00,2025-09-30 11:08:09.725,65289725,,,,0.9,0.0,,0.0,,,,0.0,,,0.0,0.0,0.0,0.0,-0.3587804878048781,-0.2978048780487805,0.3136585365853658,0.0270505,0.178323,0.360841,-0.143694,-0.0407185,0.994621,0.183819,17.2644,-0.505314,47.59844673,,-0.0932195121951219,-0.1325609756097561,-0.056,1.394,-122.8307747,93.45018073,0.0,0.0,76.6,19.1,18.2,0.536,100,True
,59,5900.0,2025-09-30 18:08:09.825000+00:00,2025-09-30 11:08:09.825,65289825,,,,0.9,0.0,,0.0,,,,0.0,,,0.0,0.0,0.0,0.0,-1.8473563218390805,-0.4622988505747126,1.78183908045977,0.0229200977011494,0.1850149540229885,0.3561277816091954,-0.1807692873563218,-0.0222469367816091,0.9911187011494254,4.3103080804597695,3.31307816091954,4.323740022988506,47.59844673,,-0.0925747126436781,-0.1361494252873563,-0.056,1.394,-122.8307747,93.45018073,0.0,0.0,76.6,19.1,18.2,0.536,100,True
,60,6000.0,2025-09-30 18:08:09.925000+00:00,2025-09-30 11:08:09.925,65289925,,,,0.9,0.0,,0.0,,,,0.0,,,0.0,0.0,0.0,0.0,-2.2938144329896906,-0.0652577319587628,2.273298969072165,0.0086692858762886,0.1771961855670103,0.3460029175257731,-0.1952763608247422,0.0458836235051546,0.9811332680412372,8.65344206185567,-14.63357525773196,4.986737422680412,47.59844673,,-0.0942989690721649,-0.137,-0.056,1.394,-122.8307747,93.45018073,0.0,0.0,76.6,19.1,18.2,0.536,100,True
,61,6100.0,2025-09-30 18:08:10.025000+00:00,2025-09-30 11:08:10.025,65290025,,,,0.0,1.0,0.0,,,,,0.0,,,-0.0526516853932584,-10.382022471910112,0.0,0.0,-2.2865168539325844,-0.2682022471910112,2.1059550561797757,-0.004808376741573,0.1420878876404494,0.3434985056179775,-0.1513189775280898,0.0587253213483146,0.9678585056179776,2.585972157303371,-27.52732808988764,-2.310540786516854,47.59844673,,-0.0334494382022471,-0.1451573033707865,-0.056,1.394,-122.8307747,93.45018073,0.0,0.0,76.6,19.1,18.2,0.536,100,True
,62,6200.0,2025-09-30 18:08:10.125000+00:00,2025-09-30 11:08:10.125,65290125,,,,0.0,1.0,0.0,,,,,0.0,,,-0.0074302325581395,-1.4651162790697665,0.0,0.0,-2.0340697674418604,-0.9461627906976744,1.749302325581395,-0.0016856489534883,0.0893703872093023,0.3509338255813953,-0.0808088709302325,-0.0003532305813953,0.9565272558139536,-6.443817174418604,-27.955301162790697,-4.3768109302325575,47.59844673,,0.0641046511627907,-0.1488953488372092,-0.0640581395348837,1.4029534883720929,-122.8307747,93.45018073,0.0,0.0,76.6,19.1,18.2,0.536,100,True
ride_102,63,6300.0,2025-09-30 18:08:10.225000+00:00,2025-09-30 11:08:10.225,65290225,,,,0.0,1.0,0.0,,,,,0.0,,,0.0,0.0,0.0,0.0,-1.28,-0.64,1.1,0.012911,0.043317,0.355172,-0.000401562,-0.0775823,0.954043,-6.65605,-18.9183,0.394852,47.59844673,0.0,0.071,-0.148,-0.065,1.404,-122.8307747,93.45018073,0.0,0.0,76.6,19.1,18.2,0.536,100,True
,64,6400.0,2025-09-30 18:08:10.325000+00:00,2025-09-30 11:08:10.325,65290325,,,,1.0,0.0,,0.0,,,,0.0,,,-0.0031363636363636,-31.81818181818182,-0.0002727272727272,-0.0006818181818181,-2.145909090909091,-0.1229545454545454,2.162272727272727,0.0175181636363636,0.0324747431818181,0.3504943636363636,0.0439920477272727,-0.015072025,0.9644471363636364,1.1128235227272727,5.043811590909091,3.055073863636364,47.59844673,,0.07575,-0.1407727272727272,-0.0656818181818181,1.4046136363636363,-122.8307747,93.45018073,0.0,0.0,76.6,19.1,18.2,0.536,100,True
,65,6500.0,2025-09-30 18:08:10.425000+00:00,2025-09-30 11:08:10.425,65290425,,,,1.0,0.0,,0.0,,,,0.0,0.0,1.0,-0.0379848484848484,-107.57575757575758,-0.0033030303030303,-0.0082575757575757,-3.767121212121212,-0.2668939393939394,4.298636363636364,0.0139066484848484,0.042926334090909,0.3490428484848484,0.0356759113636363,-0.0133478583333333,0.9752819848484848,3.1155848863636364,11.161607045454543,-0.2709943181818182,47.59844673,,0.1174166666666666,-0.0604696969696969,-0.0732575757575757,1.4114318181818182,-122.8307747,93.45018073,0.0,0.0,76.6,19.1,18.2,0.536,100,True
,66,6600.0,2025-09-30 18:08:10.525000+00:00,2025-09-30 11:08:10.525,65290525,,,,1.0,0.0,,0.0,,,,0.0,0.0,1.0,-0.0670736842105263,-132.29473684210527,-0.004,-0.0181052631578947,-5.696210526315789,-0.0244210526315789,5.811263157894737,0.0060088427368421,0.07305328,0.3519948736842105,-0.0234335347368421,-0.0082039095789473,0.991788,2.620342,14.15870947368421,-0.9114364210526316,47.59844825378947,,-0.0594210526315789,-0.2227473684210526,-0.0822947368421052,1.4211052631578949,-122.83077597252633,93.87548618547368,0.0,0.0,76.6,19.1,18.2,0.536,100,True
,67,6700.0,2025-09-30 18:08:10.625000+00:00,2025-09-30 11:08:10.625,65290625,,,,,,,,,,,0.0,0.0,1.0,-0.1745,-288.195652173913,-0.0102391304347826,-0.0467391304347826,-6.077826086956522,-0.0313043478260869,6.067826086956522,0.0038892997826086,0.0890934173913043,0.3533423478260869,-0.0233266978260869,0.0305855206521739,0.9981185,-1.2243102173913043,4.3624534782608695,-0.6484390652173914,47.59844861,,-0.2652173913043478,-0.5528913043478261,-0.1009347826086956,1.4390434782608696,-122.83077627,93.97490824,0.0,0.0,76.6,19.01086956521739,18.2,0.536,100,True
,68,6800.0,2025-09-30 18:08:10.725000+00:00,2025-09-30 11:08:10.725,65290725,,,,,,,,,,,0.0,0.0,1.0,-0.3226744186046512,-386.1162790697674,-0.0111627906976744,-0.0904651162790697,-6.058837209302325,-0.0097674418604651,6.058837209302325,0.0070397739534883,0.0867791860465116,0.3563692558139534,-0.0169498023255813,-0.0185090553488372,0.996766046511628,-1.578634488372093,-0.8077066046511627,-2.2297653488372093,47.59844861,,0.0979302325581395,-0.9046976744186048,-0.1418837209302325,1.479883720930233,-122.83077627,93.97490824,0.0,0.0,76.60232558139535,19.09767441860465,18.102325581395352,0.536,100,True
,69,6900.0,2025-09-30 18:08:10.825000+00:00,2025-09-30 11:08:10.825,65290825,,,,,,,,,,,0.0,0.0,1.0,-0.3985652173913043,-437.8695652173913,-0.018,-0.1117391304347826,-6.004782608695652,-0.0069565217391304,6.004782608695652,0.0082246260869565,0.0807770956521739,0.3607355652173913,-0.0447522217391304,-0.0015743226086956,0.9940754782608696,-0.849223347826087,-3.3857117391304348,-3.084504782608696,47.59844861,,0.0948260869565217,-1.1049565217391306,-0.1854347826086956,1.5236086956521735,-122.83077627,93.97490824,0.0,0.0,76.7,19.017391304347825,18.18260869565217,0.536,100,True
,70,7000.0,2025-09-30 18:08:10.925000+00:00,2025-09-30 11:08:10.925,65290925,,,,1.0,0.0,,0.0,,,,0.0,0.0,1.0,-0.4228426966292135,-453.7191011235955,-0.0177303370786516,-0.1146067415730337,-5.982696629213484,-0.0238202247191011,5.982696629213484,0.0105987269662921,0.075454008988764,0.3646796629213483,-0.0898306853932584,-0.0343844707865168,0.9916779662921348,-0.4803647191011235,-2.349409438202247,-0.5226478651685393,47.59844861,,0.1115280898876404,-1.0909550561797752,-0.2262471910112359,1.5649775280898877,-122.83077627,93.97490824,0.0,0.0,76.7,19.1,18.1,0.536,100,True
,71,7100.0,2025-09-30 18:08:11.025000+00:00,2025-09-30 11:08:11.025,65291025,,,,1.0,0.0,,0.0,,,,0.0,0.0,1.0,-0.4122272727272727,-426.04545454545456,-0.0154090909090909,-0.1,-5.978068181818182,0.0160227272727272,5.978068181818182,0.0097221988636363,0.0733409840909091,0.3616430681818182,-0.1272350681818181,-0.0009943670454545,0.9901206022727272,1.3912770454545451,-1.4722747727272727,2.882525909090909,47.59844861,,0.1399090909090909,-1.0018749999999998,-0.2691136363636363,1.6071136363636365,-122.83077627,93.97490824,0.0,0.0,76.7,19.060227272727275,18.139772727272728,0.536,100,True
,72,7200.0,2025-09-30 18:08:11.125000+00:00,2025-09-30 11:08:11.125,65291125,,,,1.0,0.0,,0.0,,,,0.0,0.0,1.0,-0.3918602150537634,-395.8064516129032,-0.0114838709677419,-0.0949462365591397,-5.975161290322581,0.0049462365591397,5.970107526881721,0.0063316602150537,0.0704621021505376,0.3561518709677419,-0.1257404623655914,0.0218265050537634,0.9879301612903226,1.217893182795699,-4.181270752688173,2.320251612903226,47.59844861,,0.0988709677419354,-0.9178172043010752,-0.3061505376344086,1.6441505376344083,-122.83077627,93.97490824,0.0,0.0,76.64946236559139,19.0,18.2,0.536,100,True
,73,7300.0,2025-09-30 18:08:11.225000+00:00,2025-09-30 11:08:11.225,65291225,,,,,,,,,,,0.0,0.0,1.0,-0.3366129032258064,-137.03225806451616,-0.0041935483870967,-0.0493548387096774,-4.497741935483871,-0.3193548387096774,5.759354838709678,0.0035184451612903,0.0627723193548387,0.3538372903225806,-0.2147175806451612,-0.0042866422580645,0.984910741935484,0.5843554838709677,-6.093156774193549,1.1471241935483871,47.59844861,,0.1247419354838709,-0.5414516129032257,-0.336258064516129,1.674838709677419,-122.83077627,93.97490824,0.0,0.0,76.6,19.058064516129036,18.2,0.536,100,True
,74,7400.0,2025-09-30 18:08:11.325000+00:00,2025-09-30 11:08:11.325,65291325,,,,,,,,,,,0.0,0.0,1.0,-0.1699999999999999,2.0,0.0,-0.015,-1.35,-0.005,5.105,0.01504189,0.05972785,0.3446895,-0.184742,-0.036660065,0.9828145,-8.8837315,-6.386839999999999,7.313617499999999,47.59844861,,0.1425,-0.132,-0.353,1.6915,-122.83077627,93.97490824,0.0,0.0,76.6,19.1,18.2,0.536,100,True
,75,7500.0,2025-09-30 18:08:11.425000+00:00,2025-09-30 11:08:11.425,65291425,,,,,,,,,,,0.0,1.0,0.0,-0.0269841269841269,-28.047619047619047,0.0,-0.01,1.05015873015873,0.5998412698412698,4.120952380952382,0.0284478507936507,0.0585661380952381,0.3326818095238095,-0.100710019047619,-0.063469192063492,0.9815178412698412,-11.428439682539684,-5.850184603174603,12.5213,47.59844850269841,,0.1115396825396825,0.0695714285714285,-0.3598571428571428,1.6978571428571427,-122.8307766620635,94.04448510253968,0.0,0.0,76.6,19.1,18.2,0.536,100,True
,76,7600.0,2025-09-30 18:08:11.525000+00:00,2025-09-30 11:08:11.525,65291525,,,,0.75,0.0,,0.0,,,,0.0,1.0,0.0,-0.0089947089947089,-15.349206349206352,0.0,-0.01,1.8967195767195768,0.7532804232804233,2.866984126984127,0.0298420835978836,0.054042646031746,0.3240659365079365,-0.081138273015873,-0.0613301973544973,0.9805046137566138,5.726586772486776,-4.105401534391534,9.287966666666666,47.59844822756614,,0.0565132275132275,0.1171904761904761,-0.3646190476190476,1.7026190476190477,-122.8307776673545,94.22288731417989,0.0,0.0,76.6,19.1,18.2,0.536,100,True
,77,7700.0,2025-09-30 18:08:11.625000+00:00,2025-09-30 11:08:11.625,65291625,,,,0.75,0.0,,0.0,,,,0.0,1.0,0.0,-0.0017985611510791,-5.7625899280575545,0.0,-0.0064028776978417,0.7228776978417266,0.6717266187050359,0.707625899280576,0.0181078366906474,0.049872626618705,0.3154734676258993,-0.0603812129496402,-0.0021151244604316,0.9798936834532376,7.535484892086331,-1.86229237410072,6.279458273381295,47.59844809,,0.039431654676259,0.1420791366906474,-0.3702374100719424,1.7085971223021583,-122.83077817,94.31208842,0.0,0.0,76.6,19.1,18.2,0.536,100,True
,78,7800.0,2025-09-30 18:08:11.725000+00:00,2025-09-30 11:08:11.725,65291725,1.0,0.0,0.0,,,,,,,0.0,0.0,1.0,0.0,-0.0043820224719101,12.359550561797754,0.0,-0.0024719101123595,-2.389438202247191,0.4579775280898877,-2.388314606741573,0.0009821784269662,0.0507263741573033,0.3110090674157303,-0.051580404494382,0.0786925078651685,0.981185584269663,-5.507896629213483,2.2284396629213488,1.944255505617977,47.59844809,,0.0646741573033707,0.1397977528089887,-0.3748876404494382,1.7161123595505618,-122.83077817,94.31208842,0.0,0.0,76.6,19.1,18.2,0.536,100,True
,79,7900.0,2025-09-30 18:08:11.825000+00:00,2025-09-30 11:08:11.825,65291825,1.0,0.0,0.0,,,,,,,0.0,0.0,1.0,0.0,0.021,92.25,0.0015,-0.0175,-4.4475,0.7525,-5.24,0.039142375,0.0852583,0.33632975,-0.1413907499999999,-0.1184456,0.9918675,-6.732625,12.104195,-8.8053925,47.59844809,,0.068,0.1155,-0.36475,1.7265,-122.83077817,94.31208842,0.0,0.0,76.6,19.1,18.2,0.536,100,True
,80,8000.0,2025-09-30 18:08:11.925000+00:00,2025-09-30 11:08:11.925,65291925,1.0,0.0,0.0,1.0,0.0,,0.0,,,0.0,0.0,1.0,0.0,0.0652808988764045,104.91011235955057,0.0075280898876404,-0.0176404494382022,-5.325505617977528,0.1365168539325842,-5.986741573033708,0.0341488719101123,0.1017069606741573,0.3440888988764045,-0.1895104719101123,-0.1217459505617977,0.9909697191011236,16.227262921348313,4.595078202247191,-0.1417259550561798,47.59844809,,-0.1335280898876404,0.2210112359550561,-0.3541797752808988,1.737438202247191,-122.83077817,94.31208842,0.0,0.0,76.6,19.1,18.2,0.536,100,True
,81,8100.0,2025-09-30 18:08:12.025000+00:00,2025-09-30 11:08:12.025,65292025,1.0,0.0,0.0,1.0,0.0,,0.0,,,0.0,0.0,1.0,0.0,0.0980978260869565,237.3478260869565,0.0109782608695652,-0.0446739130434782,-6.059347826086957,-0.008695652173913,-6.059347826086957,-0.0031512902173913,0.1094402717391304,0.3440218043478261,-0.2160913695652174,0.0742621,0.9863508152173912,18.24370326086957,0.3419375,-0.7846508695652172,47.59844809,,-0.2044239130434782,0.5220108695652175,-0.3343043478260869,1.756695652173913,-122.83077817,94.31208842,0.0,0.0,76.6,19.1,18.2,0.536,100,True
,82,8200.0,2025-09-30 18:08:12.125000+00:00,2025-09-30 11:08:12.125,65292125,1.0,0.0,0.0,,,,,,,0.0,0.0,1.0,0.0,0.2508953488372093,368.6162790697674,0.0169302325581395,-0.0846511627906976,-6.071511627906976,-0.0206976744186046,-6.071511627906976,-0.0194093744186046,0.1128807558139534,0.3489578139534883,-0.2139087674418604,0.0848347953488372,0.9813295465116278,-4.123147674418606,0.0428874999999999,-3.823512093023256,47.59844809,,-0.0962906976744186,0.8856744186046512,-0.3027441860465116,1.7888720930232558,-122.83077817,94.31208842,0.0,0.0,76.66162790697675,19.1,18.138372093023257,0.536,100,True
,83,8300.0,2025-09-30 18:08:12.225000+00:00,2025-09-30 11:08:12.225,65292225,1.0,0.0,0.0,,,,,,,0.0,0.0,1.0,0.0,0.3634468085106383,461.1595744680851,0.02,-0.1213829787234042,-6.024361702127659,-0.0256382978723404,-6.024361702127659,0.0036748553191489,0.1187617872340425,0.3536948723404255,-0.1978971489361702,-0.0107772319148936,0.9786718723404256,-19.560636170212767,4.6595895,-1.999859361702128,47.59844809,,-0.0182234042553191,1.163244680851064,-0.2649148936170212,1.826372340425532,-122.83077817,94.31208842,0.0,0.0,76.7,19.1,18.17127659574468,0.536,100,True
,84,8400.0,2025-09-30 18:08:12.325000+00:00,2025-09-30 11:08:12.325,65292325,1.0,0.0,0.0,,,,,,,0.0,0.0,1.0,0.0,0.4479764705882353,491.0117647058824,0.0225764705882352,-0.13,-6.01,0.0115294117647058,-6.001411764705883,0.0339964552941176,0.1305457176470588,0.3556527764705882,-0.1309401882352941,-0.0940968517647058,0.9781853647058824,-7.2958578823529425,5.380833529411765,-0.6070853294117646,47.59844809,,-0.0072941176470588,1.267941176470588,-0.2213647058823529,1.869635294117647,-122.83077817,94.31208842,0.0,0.0,76.7,19.1,18.114117647058823,0.536,100,True
,85,8500.0,2025-09-30 18:08:12.425000+00:00,2025-09-30 11:08:12.425,65292425,,,,1.0,0.0,,0.0,,,,0.0,1.0,0.0,0.4686373626373626,478.46153846153845,0.0171978021978022,-0.1203296703296703,-5.961648351648352,-0.009010989010989,-5.951648351648352,0.0310735175824175,0.1315932967032967,0.3568106153846154,-0.0888750593406593,-0.0411267824175824,0.975704,12.248088791208795,-2.575088461538461,-1.8549791538461535,47.59844809,,0.0277802197802197,1.1724945054945055,-0.1705494505494505,1.9204505494505493,-122.83077817,94.31208842,0.0,0.0,76.60329670329669,19.1,18.196703296703294,0.536,100,True
,86,8600.0,2025-09-30 18:08:12.525000+00:00,2025-09-30 11:08:12.525,65292525,,,,1.0,0.0,,0.0,,,,0.0,1.0,0.0,0.4245652173913044,418.4347826086956,0.012,-0.088695652173913,-5.968260869565218,0.0152173913043478,-5.968260869565218,-0.0047359434782608,0.1113734782608695,0.3632403043478261,-0.0197233004347826,0.0461216869565217,0.971194608695652,9.546224782608697,-5.479003913043479,-1.8241991304347829,47.59843957,,0.0180869565217391,0.9052608695652172,-0.1100869565217391,1.9814782608695647,-122.83077622,94.55947073,0.0,0.0,76.64347826086956,19.1,18.2,0.536,100,True
,87,8700.0,2025-09-30 18:08:12.625000+00:00,2025-09-30 11:08:12.625,65292625,,,,,,,,,,,0.0,1.0,0.0,0.361421052631579,360.10526315789474,0.0069473684210526,-0.0673684210526315,-5.9457894736842105,-0.0005263157894736,-5.9457894736842105,-0.0086131115789473,0.105102947368421,0.3658481578947368,-0.0237510047368421,0.0338184947368421,0.9728282105263156,-5.108577368421051,-1.853558210526316,0.6170168421052631,47.59843957,,0.0309473684210526,0.7267894736842105,-0.0756842105263158,2.015684210526316,-122.83077622,94.55947073,0.0,0.0,76.6,19.1,18.2,0.536,100,True
,88,8800.0,2025-09-30 18:08:12.725000+00:00,2025-09-30 11:08:12.725,65292725,,,,,,,,,,,0.0,1.0,0.0,0.2885882352941176,142.23529411764707,0.003235294117647,-0.0294117647058823,-5.522352941176471,0.1458823529411764,-5.514705882352941,-0.00657501,0.105513,0.366291,-0.0337843,0.0212441,0.974156,-10.3053,-0.912308,1.86592,47.59843957,,0.0221176470588235,0.4813529411764705,-0.0435882352941176,2.047411764705882,-122.83077622,94.55947073,0.0,0.0,76.6,19.1,18.2,0.536,100,True
,89,8900.0,2025-09-30 18:08:12.825000+00:00,2025-09-30 11:08:12.825,65292825,,,,,,,,,,,0.0,1.0,0.0,0.1234623655913978,17.483870967741936,0.0004193548387096,-0.0113978494623655,-5.8043010752688176,0.0709677419354838,-5.854516129032258,0.0170470201075268,0.0935653010752688,0.3583288494623656,-0.0838631817204301,0.0027332544086021,0.9768992258064516,-7.689110752688173,1.6538322150537632,5.478883440860216,47.59843957,,-0.0915268817204301,0.2641182795698925,-0.029258064516129,2.0626021505376344,-122.83077622,94.55947073,0.0,0.0,76.6,19.1,18.2,0.536,100,True
ride_102,90,9000.0,2025-09-30 18:08:12.925000+00:00,2025-09-30 11:08:12.925,65292925,,,,1.0,0.0,,0.0,,,,0.0,1.0,0.0,0.095,0.0,0.0,-0.01,-0.74,-0.26,-3.58,0.0177573,0.0913111,0.347067,0.0673569,-0.0563745,0.981315,10.1777,1.17902,7.84764,47.59843957,0.0,0.135,0.022,-0.018,2.073,-122.83077622,94.55947073,0.0,0.0,76.6,19.1,18.2,0.536,100,True
,91,9100.0,2025-09-30 18:08:13.025000+00:00,2025-09-30 11:08:13.025,65293025,,,,1.0,0.0,,0.0,,,,0.0,,,-0.008043956043956,-26.37362637362637,-0.0005274725274725,-0.0113186813186813,-2.073956043956044,0.377032967032967,2.886043956043956,-0.0063030408791208,0.0988668351648351,0.3414848461538461,0.0630941241758241,0.0597456945054945,0.9887888241758244,9.871923516483516,15.39994945054945,-2.5077109230769232,47.59843957,,0.1381098901098901,-0.030065934065934,-0.0193186813186813,2.074186813186813,-122.83077622,94.55947073,0.0,0.0,76.6,19.186813186813183,18.2,0.536,100,True
,92,9200.0,2025-09-30 18:08:13.125000+00:00,2025-09-30 11:08:13.125,65293125,,,,,,,,,,,0.0,0.0,0.8,-0.0833695652173913,-166.42391304347825,-0.0062826086956521,-0.0291304347826086,-3.625,0.1234782608695652,6.04054347826087,-0.0167478152173913,0.1271618478260869,0.3429182391304348,-0.0360111641304347,-0.0248456554347826,0.9983323369565218,2.956609782608696,18.267159347826087,2.6822073152173918,47.59843957,,-0.0781304347826087,-0.2617608695652174,-0.0323369565217391,2.086336956521739,-122.83077622,94.55947073,0.0,0.0,76.6,19.1,18.2,0.536,100,True
,93,9300.0,2025-09-30 18:08:13.225000+00:00,2025-09-30 11:08:13.225,65293225,,,,,,,,,,,0.0,0.0,0.8,-0.2190927835051546,-356.77319587628864,-0.0166907216494845,-0.0779381443298969,-6.098041237113402,-0.0149484536082474,6.098041237113402,-0.0160161938144329,0.1406946907216495,0.330934824742268,-0.0366853845360824,0.0222912690721649,0.9998169587628868,-4.437608350515464,2.721468659793814,8.995351546391753,47.59843957,,-0.1937422680412371,-0.7871030927835052,-0.058061855670103,2.112360824742268,-122.83077622,94.55947073,0.0,0.0,76.62989690721649,19.1,18.2,0.536,100,True
,94,9400.0,2025-09-30 18:08:13.325000+00:00,2025-09-30 11:08:13.325,65293325,,,,,,,,,,,0.0,0.0,0.8,-0.3874285714285714,-473.73015873015873,-0.0245238095238095,-0.1301587301587301,-6.062380952380953,-0.0373015873015873,6.062380952380953,-0.0096747542857142,0.1301515396825396,0.3175899365079365,-0.0271879698412698,0.0343743888888888,0.9946319841269842,-7.537086190476191,-9.42155015873016,7.520446031746031,47.59843957,,0.1059841269841269,-1.2093174603174603,-0.0936507936507936,2.148650793650793,-122.83077622,94.55947073,0.0,0.0,76.7,19.1,18.2,0.536,100,True
,95,9500.0,2025-09-30 18:08:13.425000+00:00,2025-09-30 11:08:13.425,65293425,,,,,,,,,,,0.0,0.0,0.8,-0.4738085106382979,-565.3404255319149,-0.029,-0.1606382978723404,-6.038085106382979,0.0019148936170212,6.037446808510638,-0.0020321570212765,0.1157669063829787,0.309590914893617,-0.0287000851063829,0.0510978617021276,0.990008829787234,-8.735177021276597,-8.011103617021277,2.7263159574468085,47.59843958531915,,0.1073404255319148,-1.4652978723404255,-0.1267872340425531,2.1817872340425533,-122.83077575531917,94.57418666,0.0,0.0,76.7,19.1,18.2,0.536,100,True
,96,9600.0,2025-09-30 18:08:13.525000+00:00,2025-09-30 11:08:13.525,65293525,,,,,,,,,,,0.0,0.0,0.8,-0.5601034482758621,-586.2413793103449,-0.0287241379310344,-0.17,-6.005862068965517,0.0258620689655172,5.997241379310345,0.0179805965517241,0.094280448275862,0.3141474137931034,-0.0842162620689655,0.0038431206896551,0.9855081724137932,-9.64363448275862,-8.982854137931035,-7.412170000000001,47.59843981,,0.1729310344827586,-1.5846551724137932,-0.2048620689655172,2.259862068965517,-122.83076894,94.7900203,0.0,0.0,76.7,19.1,18.2,0.536,100,True
,97,9700.0,2025-09-30 18:08:13.625000+00:00,2025-09-30 11:08:13.625,65293625,,,,1.0,0.0,,0.0,,,,0.0,0.0,0.8,-0.5641052631578947,-581.6315789473684,-0.0256842105263157,-0.1621052631578947,-5.96421052631579,-0.0052631578947368,5.961578947368421,0.0316553052631578,0.0836818421052631,0.3266094736842105,-0.1067355578947368,-0.101433,0.9843248421052632,-2.232539473684211,-5.367756315789474,-5.431972631578947,47.59843981,,0.1852631578947368,-1.516578947368421,-0.2663684210526316,2.3213684210526315,-122.83076894,94.7900203,0.0,0.0,76.7,19.1,18.2,0.536,100,True
,98,9800.0,2025-09-30 18:08:13.725000+00:00,2025-09-30 11:08:13.725,65293725,,,,1.0,0.0,,0.0,,,,0.0,0.0,0.8,-0.52225,-503.02272727272725,-0.0162045454545454,-0.1195454545454545,-5.896136363636363,-0.016590909090909,5.886136363636363,0.0268976068181818,0.0760139454545454,0.3270644090909091,-0.2021358181818182,-0.1031137954545454,0.9834488409090908,11.671449318181818,-5.815157727272727,4.721724318181818,47.59843981,,0.1720227272727272,-1.1931363636363637,-0.3139545454545454,2.3686136363636363,-122.83076894,94.7900203,0.0,0.0,76.6659090909091,19.1,18.2,0.536,100,True
,99,9900.0,2025-09-30 18:08:13.825000+00:00,2025-09-30 11:08:13.825,65293825,,,,1.0,0.0,,0.0,,,,0.0,0.0,0.8,-0.3559230769230769,-266.61538461538464,-0.0123846153846153,-0.043076923076923,-4.368461538461538,0.0315384615384615,4.39076923076923,-0.0013448384615384,0.0801612,0.3153706153846154,-0.2641400769230769,0.0508973999999999,0.9842705384615384,15.22613846153846,4.43881923076923,6.457789999999999,47.59843981,,0.1066923076923077,-0.6668461538461539,-0.3519230769230769,2.406384615384616,-122.83076894,94.7900203,0.0,0.0,76.6,19.1,18.2,0.536,100,True
,100,10000.0,2025-09-30 18:08:13.925000+00:00,2025-09-30 11:08:13.925,65293925,,,,,,,,,,,0.0,0.0,0.8,-0.1474606741573033,-45.87640449438202,-0.0089662921348314,0.0114606741573033,-0.0670786516853936,0.0398876404494382,0.109887640449438,-0.0190750831460674,0.1002506247191011,0.3112179101123595,-0.2024895505617977,0.1209777865168539,0.9869213707865168,-1.7319235955056185,4.673791235955056,-2.2881225842696624,47.59843981,,-0.0548988764044943,-0.5349662921348315,-0.3721573033707865,2.4271573033707865,-122.83076894,94.7900203,0.0,0.0,76.6,19.1,18.2,0.536,100,True
,101,10100.0,2025-09-30 18:08:14.025000+00:00,2025-09-30 11:08:14.025,65294025,,,,,,,,,,,,,,-0.0921149425287356,-3.735632183908045,0.0,-0.0013793103448275,0.0541379310344827,0.1810344827586207,0.0898850574712644,-0.0043297351724137,0.1105949540229885,0.3189093793103448,-0.177709816091954,0.0522454666666666,0.98571691954023,-12.204471264367816,4.369633563218391,-4.552824712643679,47.59843981,,-0.1191954022988505,-0.2499540229885057,-0.3895402298850575,2.4445402298850576,-122.83076894,94.7900203,0.0,0.0,76.6,19.171264367816093,18.2,0.536,100,True
,102,10200.0,2025-09-30 18:08:14.125000+00:00,2025-09-30 11:08:14.125,65294125,1.0,0.0,0.0,,,,,,,0.0,0.0,1.0,0.0,0.0562967032967033,0.0,0.0065934065934065,-0.01,-2.5985714285714288,0.2252747252747252,-4.167472527472528,0.0214977496703296,0.1408310219780219,0.3313578351648352,-0.2564233186813187,0.0200071791208791,0.9878716593406592,-16.013373626373625,17.485562197802196,-10.310747252747252,47.59843981,,-0.1553296703296703,-0.0033296703296703,-0.3875824175824175,2.4574175824175826,-122.83076894,94.7900203,0.0,0.0,76.6,19.11758241758242,18.2,0.536,100,True
,103,10300.0,2025-09-30 18:08:14.225000+00:00,2025-09-30 11:08:14.225,65294225,1.0,0.0,0.0,1.0,0.0,,0.0,,,0.0,0.0,1.0,0.0,0.084625,105.0,0.008,-0.01,-5.69625,0.0187499999999999,-5.9662500000000005,0.0417915249999999,0.1724005,0.350918875,-0.25875275,-0.1882509875,0.987906625,0.9270925000000004,14.663587499999998,-5.8231275,47.59843981,,-0.14225,0.2255,-0.37725,2.46775,-122.83076894,94.7900203,0.0,0.0,76.6,19.1,18.2,0.536,100,True
ride_102,104,10400.0,2025-09-30 18:08:14.325000+00:00,2025-09-30 11:08:14.325,65294325,1.0,0.0,0.0,1.0,0.0,,0.0,,,0.0,0.0,1.0,0.0,0.162,286.0,0.014,-0.05,-6.08,0.02,-6.08,0.0232717,0.191505,0.358786,-0.338028,-0.0241368,0.980235,23.1428,0.500256,-3.75356,47.59843981,0.0,-0.326,0.523,-0.358,2.488,-122.83076894,94.7900203,0.0,0.0,76.6,19.1,18.2,0.536,100,True
,105,10500.0,2025-09-30 18:08:14.425000+00:00,2025-09-30 11:08:14.425,65294425,1.0,0.0,0.0,1.0,0.0,,0.0,,,0.0,0.0,1.0,0.0,0.3538489208633094,445.453237410072,0.0221510791366906,-0.1169064748201438,-6.104244604316547,-0.0442446043165467,-6.094244604316547,-0.0124336726618705,0.1891457697841726,0.3702873381294964,-0.3335963021582734,0.0686422525179856,0.966477762589928,13.056183884892086,-7.853264820143885,-7.583855971223021,47.59843961661871,,-0.0600863309352518,1.1330719424460431,-0.314589928057554,2.530410071942446,-122.83076817338129,94.79847831438848,0.0,0.0,76.7,19.1,18.2,0.536,100,True
,106,10600.0,2025-09-30 18:08:14.525000+00:00,2025-09-30 11:08:14.525,65294525,1.0,0.0,0.0,,,,,,,0.0,0.0,1.0,0.0,0.4466546762589928,567.0359712230215,0.0293453237410071,-0.1600719424460431,-6.068273381294964,-0.008273381294964,-6.058273381294963,-0.0186647517985611,0.1828443309352518,0.3778082014388489,-0.287510690647482,0.0554157057553956,0.9585950287769784,-0.598916834532373,-7.723732446043165,-4.769330791366906,47.59843840798561,,-0.0356258992805755,1.446021582733813,-0.2807769784172662,2.564223021582734,-122.8307633820144,94.85134090431654,0.0,0.0,76.7,19.1,18.2,0.536,100,True
,107,10700.0,2025-09-30 18:08:14.625000+00:00,2025-09-30 11:08:14.625,65294625,1.0,0.0,0.0,,,,,,,0.0,0.0,1.0,0.0,0.5748941176470588,643.0117647058823,0.0328117647058823,-0.1881176470588235,-6.014705882352941,0.0,-6.013764705882353,0.0099429705882352,0.1758818,0.3803967764705882,-0.1946840588235294,-0.04304172,0.9501654352941176,-17.40728023529412,-3.820486705882353,2.575841411764705,47.59843813,,0.0044235294117647,1.7118588235294117,-0.2041529411764706,2.640847058823529,-122.83076228,94.8634993,0.0,0.0,76.7,19.1,18.2,0.536,100,True
ride_102,108,10800.0,2025-09-30 18:08:14.725000+00:00,2025-09-30 11:08:14.725,65294725,,,,0.75,0.0,,0.0,,,,0.0,1.0,0.0,0.609,636.0,0.03,-0.18,-5.98,0.01,-5.97,0.0356008,0.166491,0.37405,-0.131881,-0.0975765,0.947829,-5.14879,-7.32424,4.64139,47.59843813,0.0,0.026,1.697,-0.141,2.704,-122.83076228,94.8634993,0.0,0.0,76.7,19.1,18.2,0.536,100,True
,109,10900.0,2025-09-30 18:08:14.825000+00:00,2025-09-30 11:08:14.825,65294825,,,,0.75,0.0,,0.0,,,,0.0,1.0,0.0,0.5736896551724138,583.0229885057471,0.0226321839080459,-0.1572413793103448,-5.95816091954023,-0.0027586206896551,-5.94816091954023,0.027114376321839,0.1512383678160919,0.3708368620689655,-0.0460939747126436,0.019971748275862,0.9483910919540228,11.58475172413793,-6.551689425287356,-1.324855252873563,47.59843813,,0.054183908045977,1.5060919540229885,-0.0796781609195402,2.76532183908046,-122.83076228,94.8634993,0.0,0.0,76.7,19.1,18.2,0.536,100,True
,110,11000.0,2025-09-30 18:08:14.925000+00:00,2025-09-30 11:08:14.925,65294925,,,,0.75,0.0,,0.0,,,,0.0,1.0,0.0,0.5186000000000001,501.6,0.0166666666666666,-0.1206666666666666,-5.930666666666667,-0.0206666666666666,-5.9206666666666665,0.0049888936666666,0.1396369666666666,0.3796666333333333,-0.022393008,0.03609428,0.9539208666666668,10.465916333333334,0.5571726666666668,-6.855907333333334,47.59843813,,0.0553,1.1869333333333334,-0.0283666666666666,2.8168666666666664,-122.83076228,94.8634993,0.0,0.0,76.67666666666666,19.1,18.2,0.536,100,True
,111,11100.0,2025-09-30 18:08:15.025000+00:00,2025-09-30 11:08:15.025,65295025,,,,,,,,,,,0.0,1.0,0.0,0.411,382.6666666666667,0.0076666666666666,-0.0766666666666666,-5.913333333333334,0.0066666666666666,-5.906666666666666,-0.0037226509999999,0.139672,0.3924533333333333,0.00792332,0.0397101666666666,0.9640483333333334,-0.3357999999999999,5.57617,-7.1096900000000005,47.59843813,,0.0576666666666666,0.795,0.0093333333333333,2.8553333333333333,-122.83076228,94.8634993,0.0,0.0,76.6,19.133333333333333,18.2,0.536,100,True
,112,11200.0,2025-09-30 18:08:15.125000+00:00,2025-09-30 11:08:15.125,65295125,,,,,,,,,,,0.0,1.0,0.0,0.2021011235955056,218.98876404494385,0.0028651685393258,-0.0329213483146067,-4.42,0.0725842696629213,-5.86314606741573,0.0032264080561797,0.1440588539325842,0.4005960898876404,0.0016770516853932,-0.0209978707865168,0.973501606741573,-3.6146425393258426,3.410233820224719,-1.2454124719101125,47.59843813,,0.0430898876404494,0.3657191011235955,0.0318426966292134,2.8778426966292137,-122.83076228,94.8634993,0.0,0.0,76.6,19.2,18.2,0.536,100,True
,113,11300.0,2025-09-30 18:08:15.225000+00:00,2025-09-30 11:08:15.225,65295225,,,,1.0,0.0,,0.0,,,,0.0,,,0.0064666666666666,55.12222222222222,0.0,-0.0045555555555555,-0.2185555555555556,-0.2492222222222222,-3.4624444444444444,0.0057748217777777,0.1409314111111111,0.3994697555555555,-0.0039649211111111,-0.0240329075555555,0.9794636333333332,3.2544661444444443,-0.8947816666666666,2.4383185555555555,47.59843813,,0.0447555555555555,-0.0287444444444444,0.0424444444444444,2.888444444444444,-122.83076228,94.8634993,0.0,0.0,76.6,19.2,18.2,0.536,100,True
,114,11400.0,2025-09-30 18:08:15.325000+00:00,2025-09-30 11:08:15.325,65295325,,,,1.0,0.0,,0.0,,,,0.0,0.0,0.8,0.0003516483516483,0.0,0.0,0.0,-0.8867032967032966,-0.5027472527472527,0.845934065934066,-0.0042512749450549,0.1288642417582417,0.3954325824175824,-0.0321091,0.034201783076923,0.9820962637362636,6.7405094505494505,-5.241291758241758,2.137500769230769,47.59843813,,0.0723516483516483,-0.1465934065934065,0.047,2.893,-122.83076228,94.8634993,0.0,0.0,76.6,19.2,18.2,0.536,100,True
,115,11500.0,2025-09-30 18:08:15.425000+00:00,2025-09-30 11:08:15.425,65295425,,,,,,,,,,,0.0,0.0,0.8,-0.0893932584269663,-1.5280898876404494,-0.0022921348314606,-0.0152808988764044,-4.713146067415731,-0.1596629213483146,4.737752808988764,-0.0128560824719101,0.1185831235955056,0.3951369775280899,-0.0369827943820224,-0.0174169988764044,0.9846518651685392,2.033699685393258,-4.557324157303371,-0.0660689662921347,47.59843813,,0.1048539325842696,-0.1105617977528089,0.0393595505617977,2.899876404494382,-122.83076228,94.8634993,0.0,0.0,76.6,19.2,18.2,0.536,100,True
