ms_today;input_voltage;temp_mos_max;temp_mos_1;temp_mos_2;temp_mos_3;temp_motor;current_motor;current_in;d_axis_current;q_axis_current;erpm;duty_cycle;amp_hours_used;amp_hours_charged;watt_hours_used;watt_hours_charged;tachometer;tachometer_abs;encoder_position;fault_code;vesc_id;d_axis_voltage;q_axis_voltage;ms_today_setup;amp_hours_setup;amp_hours_charged_setup;watt_hours_setup;watt_hours_charged_setup;battery_level;battery_wh_tot;current_in_setup;current_motor_setup;speed_meters_per_sec;tacho_meters;tacho_abs_meters;num_vescs;ms_today_imu;roll;pitch;yaw;accX;accY;accZ;gyroX;gyroY;gyroZ;gnss_posTime;gnss_lat;gnss_lon;gnss_alt;gnss_gVel;gnss_vVel;gnss_hAcc;gnss_vAcc;
76231191;80.9;29.7;29.2;0;29.7;39.2;-0.02;0;-0.01;0.01;0;0.001;1.0983;0.3283;84.9803;27.2107;341778;346586;176.4;0;1;-0.067;0.024;76231148;1.0983;0.3283;84.9803;27.2107;0.85;535.165;0;0;0;3221.18;3266.5;1;76185555;-0.0364214;0.310431;2.43535;-0.309824;0.0411396;0.941202;0.00521243;0.0490348;0.0379155;76228000;47.59967103;-122.83038419;104.43475596;0.00000000;0.00000000;4.39809132;3.00000000;
76231283;80.9;29.7;29.2;0;29.6;39.2;0;0;0;0;0;0.001;1.0983;0.3283;84.9803;27.2107;341778;346586;176.4;0;1;-0.066;0.033;76231233;1.0983;0.3283;84.9803;27.2107;0.85;535.165;0;0;0;3221.18;3266.5;1;76231232;-0.0209131;0.312552;2.3191;-0.303845;0.0157195;0.941322;0.378344;-0.298405;0.289824;76228000;47.59967103;-122.83038419;104.43475596;0.00000000;0.00000000;4.39809132;3.00000000;
76231374;80.9;29.7;29.2;0;29.7;39.2;0;0;0;0;0;0.001;1.0983;0.3283;84.9803;27.2107;341778;346586;176.4;0;1;-0.066;0.033;76231322;1.0983;0.3283;84.9803;27.2107;0.85;535.165;0;0;0;3221.18;3266.5;1;76231323;-0.0212613;0.312031;2.31879;-0.306608;0.0114054;0.947461;0.232762;0.14301;0.293398;76228000;47.59967103;-122.83038419;104.43475596;0.00000000;0.00000000;4.39809132;3.00000000;
76231458;80.9;29.7;29.2;0;29.6;39.2;0;0;0;0;0;0.001;1.0983;0.3283;84.9803;27.2107;341778;346586;176.4;0;1;-0.066;0.033;76231416;1.0983;0.3283;84.9803;27.2107;0.85;535.165;0;0;0;3221.18;3266.5;1;76231416;-0.0213059;0.311867;2.31854;-0.309278;0.0108346;0.94251;-0.197866;-0.02006;0.126713;76228000;47.59967103;-122.83038419;104.43475596;0.00000000;0.00000000;4.39809132;3.00000000;
76231545;80.9;29.7;29.2;0;29.7;39.2;0;0;0;0;0;0.001;1.0983;0.3283;84.9803;27.2107;341778;346586;176.4;0;1;-0.066;0.033;76231508;1.0983;0.3283;84.9803;27.2107;0.85;535.165;0;0;0;3221.18;3266.5;1;76231508;-0.0205912;0.311597;2.3185;-0.306395;0.0026467;0.942832;-0.476795;-0.299795;0.154049;76228000;47.59967103;-122.83038419;104.43475596;0.00000000;0.00000000;4.39809132;3.00000000;
76231639;80.9;29.6;29.3;0;29.6;39.2;0;0;0;0;0;0.001;1.0983;0.3283;84.9803;27.2107;341778;346586;176.4;0;1;-0.066;0.034;76231597;1.0983;0.3283;84.9803;27.2107;0.85;535.165;0;0;0;3221.18;3266.5;1;76231598;-0.0208416;0.311924;2.31813;-0.305303;0.010841;0.943544;0.517809;0.471429;0.269709;76228000;47.59967103;-122.83038419;104.43475596;0.00000000;0.00000000;4.39809132;3.00000000;
76231729;80.9;29.7;29.2;0;29.6;39.2;0;0;0;0;0;0.001;1.0983;0.3283;84.9803;27.2107;341778;346586;176.4;0;1;-0.066;0.033;76231681;1.0983;0.3283;84.9803;27.2107;0.85;535.165;0;0;0;3221.18;3266.5;1;76231682;-0.0211288;0.312471;2.31776;-0.304732;0.00645876;0.944008;0.0113302;0.189741;0.106211;76228000;47.59967103;-122.83038419;104.43475596;0.00000000;0.00000000;4.39809132;3.00000000;
76231817;80.9;29.7;29.2;0;29.7;39.2;0;0;0;0;0;0.001;1.0983;0.3283;84.9803;27.2107;341778;346586;176.4;0;1;-0.066;0.033;76231771;1.0983;0.3283;84.9803;27.2107;0.85;535.165;0;0;0;3221.18;3266.5;1;76231773;-0.0208878;0.312741;2.3176;-0.3048;0.0054177;0.944056;-0.279834;0.328557;-0.0102086;76229000;47.59967103;-122.83038419;104.70318602;0.00000000;0.00000000;4.39826536;3.00000000;
76231956;80.9;29.6;29.2;0;29.6;39.2;0;0;0;0;0;0.001;1.0983;0.3283;84.9803;27.2107;341778;346586;176.4;0;1;-0.066;0.033;76231906;1.0983;0.3283;84.9803;27.2107;0.85;535.165;0;0;0;3221.18;3266.5;1;76231907;-0.0205302;0.312912;2.31741;-0.306327;0.0129593;0.943888;-0.191748;0.190643;0.194292;76229000;47.59967103;-122.83038419;104.70318602;0.00000000;0.00000000;4.39826536;3.00000000;
76232047;80.9;29.7;29.3;0;29.7;39.2;0;0;0;0;0;0.001;1.0983;0.3283;84.9803;27.2107;341778;346586;176.4;0;1;-0.066;0.033;76232000;1.0983;0.3283;84.9803;27.2107;0.85;535.165;0;0;0;3221.18;3266.5;1;76232000;-0.0198589;0.31325;2.31722;-0.301303;0.0216431;0.943587;-0.267598;-0.0199974;0.13283;76229000;47.59967103;-122.83038419;104.70318602;0.00000000;0.00000000;4.39826536;3.00000000;
76232133;80.9;29.6;29.2;0;29.6;39.2;0;0;0;0;0;0.001;1.0983;0.3283;84.9803;27.2107;341778;346586;176.4;0;1;-0.066;0.033;76232089;1.0983;0.3283;84.9803;27.2107;0.85;535.165;0;0;0;3221.18;3266.5;1;76232090;-0.0197497;0.313296;2.31694;-0.306949;0.0142934;0.943254;0.156912;0.0503369;0.165138;76229000;47.59967103;-122.83038419;104.70318602;0.00000000;0.00000000;4.39826536;3.00000000;
76232220;80.9;29.7;29.2;0;29.7;39.2;0;0;0;0;0;0.001;1.0983;0.3283;84.9803;27.2107;341778;346586;176.4;0;1;-0.066;0.033;76232182;1.0983;0.3283;84.9803;27.2107;0.85;535.165;0;0;0;3221.18;3266.5;1;76232183;-0.0201136;0.313214;2.31658;-0.303998;0.0217858;0.942877;-0.0584018;-0.0201853;0.114478;76229000;47.59967103;-122.83038419;104.70318602;0.00000000;0.00000000;4.39826536;3.00000000;
76232316;80.9;29.6;29.2;0;29.7;39.2;0;0;0;0;0;0.001;1.0983;0.3283;84.9803;27.2107;341778;346586;176.4;0;1;-0.066;0.033;76232269;1.0983;0.3283;84.9803;27.2107;0.85;535.165;0;0;0;3221.18;3266.5;1;76232269;-0.019885;0.31337;2.31638;-0.308237;0.0123627;0.942776;-0.0584018;0.2598;0.111612;76229000;47.59967103;-122.83038419;104.70318602;0.00000000;0.00000000;4.39826536;3.00000000;
76232404;80.9;29.7;29.3;0;29.8;39.2;0;0;0;0;0;0.001;1.0983;0.3283;84.9803;27.2107;341778;346586;176.4;0;1;-0.066;0.033;76232359;1.0983;0.3283;84.9803;27.2107;0.85;535.165;0;0;0;3221.18;3266.5;1;76232361;-0.0199502;0.313327;2.3161;-0.311299;0.0158214;0.942605;0.0810624;0.119682;0.10081;76229000;47.59967103;-122.83038419;104.70318602;0.00000000;0.00000000;4.39826536;3.00000000;
76232492;80.9;29.6;29.3;0;29.7;39.2;0;0;0;0;0;0.001;1.0983;0.3283;84.9803;27.2107;341778;346586;176.4;0;1;-0.066;0.033;76232447;1.0983;0.3283;84.9803;27.2107;0.85;535.165;0;0;0;3221.18;3266.5;1;76232451;-0.0201321;0.313422;2.31581;-0.307495;0.0182478;0.94264;-0.052284;-0.0194716;0.184206;76229000;47.59967103;-122.83038419;104.70318602;0.00000000;0.00000000;4.39826536;3.00000000;
76232582;80.9;29.7;29.2;0;29.6;39.2;0;0;0;0;0;0.001;1.0983;0.3283;84.9803;27.2107;341778;346586;176.4;0;1;-0.066;0.032;76232548;1.0983;0.3283;84.9803;27.2107;0.85;535.165;0;0;0;3221.18;3266.5;1;76232549;-0.0199677;0.313371;2.31566;-0.30445;0.0158203;0.942551;-0.052284;-0.0194716;0.184206;76229000;47.59967103;-122.83038419;104.70318602;0.00000000;0.00000000;4.39826536;3.00000000;
76232673;80.9;29.6;29.2;0;29.7;39.2;0;0;0;0;0;0.001;1.0983;0.3283;84.9803;27.2107;341778;346586;176.4;0;1;-0.066;0.033;76232633;1.0983;0.3283;84.9803;27.2107;0.85;535.165;0;0;0;3221.18;3266.5;1;76232634;-0.0198736;0.313446;2.31543;-0.306694;0.0157872;0.942632;-0.0461662;0.0512384;0.253218;76229000;47.59967103;-122.83038419;104.70318602;0.00000000;0.00000000;4.39826536;3.00000000;
76232766;80.9;29.7;29.2;0;29.6;39.2;0;0;0;0;0;0.001;1.0983;0.3283;84.9803;27.2107;341778;346586;176.4;0;1;-0.066;0.033;76232717;1.0983;0.3283;84.9803;27.2107;0.85;535.165;0;0;0;3221.18;3266.5;1;76232719;-0.0200821;0.313501;2.31511;-0.303094;0.0178161;0.942677;0.0174481;-0.0895306;0.178805;76229000;47.59967103;-122.83038419;104.70318602;0.00000000;0.00000000;4.39826536;3.00000000;
76232858;80.9;29.7;29.2;0;29.6;39.2;0;0;0;0;0;0.001;1.0983;0.3283;84.9803;27.2107;341778;346586;176.4;0;1;-0.066;0.033;76232807;1.0983;0.3283;84.9803;27.2107;0.85;535.165;0;0;0;3221.18;3266.5;1;76232807;-0.0201281;0.313555;2.31483;-0.30405;0.0158099;0.942727;0.156912;-0.0196594;0.165854;76230000;47.59967103;-122.83038419;104.76790861;0.00000000;0.00000000;4.39843845;3.00000000;
76232941;80.9;29.6;29.2;0;29.7;39.2;0;0;0;0;0;0.001;1.0983;0.3283;84.9803;27.2107;341778;346586;176.4;0;1;-0.066;0.033;76232900;1.0983;0.3283;84.9803;27.2107;0.85;535.165;0;0;0;3221.18;3266.5;1;76232901;-0.0199762;0.313517;2.31466;-0.30492;0.0177174;0.942675;0.0113302;0.189741;0.106211;76230000;47.59967103;-122.83038419;104.76790861;0.00000000;0.00000000;4.39843845;3.00000000;
76233033;80.9;29.7;29.1;0;29.6;39.2;0;0;0;0;0;0.001;1.0983;0.3283;84.9803;27.2107;341778;346586;176.4;0;1;-0.065;0.033;76232992;1.0983;0.3283;84.9803;27.2107;0.85;535.165;0;0;0;3221.18;3266.5;1;76233032;-0.0198112;0.313624;2.31445;-0.305696;0.0138946;0.942704;-0.128134;-0.090119;0.121312;76230000;47.59967103;-122.83038419;104.76790861;0.00000000;0.00000000;4.39843845;3.00000000;
76233127;80.9;29.6;29.2;0;29.6;39.2;0;0;0;0;0;0.001;1.0983;0.3283;84.9803;27.2107;341778;346586;176.4;0;1;-0.066;0.033;76233081;1.0983;0.3283;84.9803;27.2107;0.85;535.165;0;0;0;3221.18;3266.5;1;76233032;-0.0198112;0.313624;2.31445;-0.305696;0.0138946;0.942704;-0.128134;-0.090119;0.121312;76230000;47.59967103;-122.83038419;104.76790861;0.00000000;0.00000000;4.39843845;3.00000000;
76233213;80.9;29.6;29.3;0;29.6;39.2;0;0;0;0;0;0.001;1.0983;0.3283;84.9803;27.2107;341778;346586;176.4;0;1;-0.066;0.033;76233175;1.0983;0.3283;84.9803;27.2107;0.85;535.165;0;0;0;3221.18;3266.5;1;76233128;-0.0201254;0.313764;2.31397;-0.310079;0.0128072;0.942662;0.232762;0.050988;0.228748;76230000;47.59967103;-122.83038419;104.76790861;0.00000000;0.00000000;4.39843845;3.00000000;
76233300;80.9;29.6;29.1;0;29.6;39.2;0;0;0;0;0;0.001;1.0983;0.3283;84.9803;27.2107;341778;346586;176.4;0;1;-0.066;0.033;76233260;1.0983;0.3283;84.9803;27.2107;0.85;535.165;0;0;0;3221.18;3266.5;1;76233214;-0.0205963;0.313724;2.31358;-0.301764;0.0221916;0.94257;0.0871803;-0.229586;0.174121;76230000;47.59967103;-122.83038419;104.76790861;0.00000000;0.00000000;4.39843845;3.00000000;
76233391;80.9;29.6;29.2;0;29.6;39.2;0;0;0;0;0;0.001;1.0983;0.3283;84.9803;27.2107;341778;346586;176.4;0;1;-0.066;0.033;76233347;1.0983;0.3283;84.9803;27.2107;0.85;535.165;0;0;0;3221.18;3266.5;1;76233301;-0.0209787;0.31384;2.31321;-0.305482;0.0207511;0.942681;0.0994159;0.191819;0.309279;76230000;47.59967103;-122.83038419;104.76790861;0.00000000;0.00000000;4.39843845;3.00000000;
76233482;80.9;29.6;29.2;0;29.6;39.2;0;0;0;0;0;0.001;1.0983;0.3283;84.9803;27.2107;341778;346586;176.4;0;1;-0.067;0.033;76233435;1.0983;0.3283;84.9803;27.2107;0.85;535.165;0;0;0;3221.18;3266.5;1;76233392;-0.0211471;0.314008;2.31291;-0.306583;0.020249;0.942779;0.0871803;-0.0895932;0.172688;76230000;47.59967103;-122.83038419;104.76790861;0.00000000;0.00000000;4.39843845;3.00000000;
76233575;80.9;29.6;29.2;0;29.6;39.2;0;0;0;0;0;0.001;1.0983;0.3283;84.9803;27.2107;341778;346586;176.4;0;1;-0.065;0.033;76233527;1.0983;0.3283;84.9803;27.2107;0.85;535.165;0;0;0;3221.18;3266.5;1;76233482;-0.020998;0.314206;2.31273;-0.308792;0.0186417;0.942871;0.0932981;-0.0188832;0.2417;76230000;47.59967103;-122.83038419;104.76790861;0.00000000;0.00000000;4.39843845;3.00000000;
76233661;80.9;29.6;29.2;0;29.7;39.2;0;0;0;0;0;0.001;1.0983;0.3283;84.9803;27.2107;341778;346586;176.4;0;1;-0.066;0.033;76233615;1.0983;0.3283;84.9803;27.2107;0.85;535.165;0;0;0;3221.18;3266.5;1;76233575;-0.0211237;0.313938;2.31245;-0.307171;0.014927;0.942551;0.232762;-0.0190084;0.229465;76230000;47.59967103;-122.83038419;104.76790861;0.00000000;0.00000000;4.39843845;3.00000000;
76233797;80.9;29.6;29.2;0;29.7;39.2;0;0;0;0;0;0.001;1.0983;0.3283;84.9803;27.2107;341778;346586;176.4;0;1;-0.066;0.033;76233750;1.0983;0.3283;84.9803;27.2107;0.85;535.165;0;0;0;3221.18;3266.5;1;76233670;-0.0214791;0.313919;2.3121;-0.301679;0.0256174;0.942483;0.0749446;-0.231013;0.0346636;76231000;47.59967103;-122.83038419;104.72301353;0.00000000;0.00000000;4.39861155;3.00000000;
76233891;80.9;29.6;29.3;0;29.6;39.2;0;0;0;0;0;0.001;1.0983;0.3283;84.9803;27.2107;341778;346586;176.4;0;1;-0.066;0.033;76233842;1.0983;0.3283;84.9803;27.2107;0.85;535.165;0;0;0;3221.18;3266.5;1;76233798;-0.021374;0.314055;2.31176;-0.304809;0.0197394;0.94253;-0.0645196;0.119094;0.0433166;76231000;47.59967103;-122.83038419;104.72301353;0.00000000;0.00000000;4.39861155;3.00000000;
76233975;80.9;29.6;29.2;0;29.6;39.2;0;0;0;0;0;0.001;1.0983;0.3283;84.9803;27.2107;341778;346586;176.4;0;1;-0.066;0.033;76233931;1.0983;0.3283;84.9803;27.2107;0.85;535.165;0;0;0;3221.18;3266.5;1;76233892;-0.0212314;0.314185;2.31155;-0.30631;0.0226636;0.942583;-0.052284;0.120521;0.182774;76231000;47.59967103;-122.83038419;104.72301353;0.00000000;0.00000000;4.39861155;3.00000000;
76234066;80.9;29.6;29.3;0;29.6;39.2;0;0;0;0;0;0.001;1.0983;0.3283;84.9803;27.2107;341778;346586;176.4;0;1;-0.066;0.033;76234021;1.0983;0.3283;84.9803;27.2107;0.85;535.165;0;0;0;3221.18;3266.5;1;76233976;-0.0212065;0.314264;2.3113;-0.30961;0.0162778;0.942617;0.0932981;0.191106;0.239551;76231000;47.59967103;-122.83038419;104.72301353;0.00000000;0.00000000;4.39861155;3.00000000;
76234157;80.9;29.6;29.2;0;29.6;39.2;0;0;0;0;0;0.001;1.0983;0.3283;84.9803;27.2107;341778;346586;176.4;0;1;-0.066;0.033;76234115;1.0983;0.3283;84.9803;27.2107;0.85;535.165;0;0;0;3221.18;3266.5;1;76234067;-0.0213051;0.314365;2.311;-0.303794;0.0143758;0.942624;0.0174481;0.120458;0.176656;76231000;47.59967103;-122.83038419;104.72301353;0.00000000;0.00000000;4.39861155;3.00000000;
76234248;80.9;29.6;29.2;0;29.6;39.2;0;0;0;0;0;0.001;1.0983;0.3283;84.9803;27.2107;341778;346586;176.4;0;1;-0.066;0.033;76234206;1.0983;0.3283;84.9803;27.2107;0.85;535.165;0;0;0;3221.18;3266.5;1;76234158;-0.0212122;0.314447;2.3108;-0.308126;0.0207284;0.942599;-0.134252;-0.0908327;0.0515833;76231000;47.59967103;-122.83038419;104.72301353;0.00000000;0.00000000;4.39861155;3.00000000;
76234343;80.9;29.6;29.2;0;29.7;39.2;0;0;0;0;0;0.001;1.0983;0.3283;84.9803;27.2107;341778;346586;176.4;0;1;-0.066;0.033;76234291;1.0983;0.3283;84.9803;27.2107;0.85;535.165;0;0;0;3221.18;3266.5;1;76234249;-0.020791;0.314545;2.3107;-0.308425;0.0206936;0.942566;0.0932981;-0.0888795;0.242416;76231000;47.59967103;-122.83038419;104.72301353;0.00000000;0.00000000;4.39861155;3.00000000;
76234429;80.9;29.6;29.2;0;29.6;39.2;0;0;0;0;0;0.001;1.0983;0.3283;84.9803;27.2107;341778;346586;176.4;0;1;-0.066;0.032;76234383;1.0983;0.3283;84.9803;27.2107;0.85;535.165;0;0;0;3221.18;3266.5;1;76234344;-0.0208413;0.314424;2.31042;-0.305039;0.01489;0.942299;0.0932981;-0.228872;0.243849;76231000;47.59967103;-122.83038419;104.72301353;0.00000000;0.00000000;4.39861155;3.00000000;
76234518;80.9;29.6;29.2;0;29.6;39.2;0;0;0;0;0;0.001;1.0983;0.3283;84.9803;27.2107;341778;346586;176.4;0;1;-0.066;0.033;76234472;1.0983;0.3283;84.9803;27.2107;0.85;535.165;0;0;0;3221.18;3266.5;1;76234430;-0.0209683;0.314315;2.31015;-0.308178;0.0191442;0.942151;0.0932981;-0.0188832;0.2417;76231000;47.59967103;-122.83038419;104.72301353;0.00000000;0.00000000;4.39861155;3.00000000;
76234608;80.9;29.6;29.2;0;29.6;39.2;0;0;0;0;0;0.001;1.0983;0.3283;84.9803;27.2107;341778;346586;176.4;0;1;-0.066;0.033;76234560;1.0983;0.3283;84.9803;27.2107;0.85;535.165;0;0;0;3221.18;3266.5;1;76234519;-0.0209119;0.314334;2.30989;-0.302736;0.0231684;0.942168;-0.052284;0.0505247;0.18349;76231000;47.59967103;-122.83038419;104.72301353;0.00000000;0.00000000;4.39861155;3.00000000;
76234695;80.9;29.6;29.2;0;29.6;39.2;0;0;0;0;0;0.001;1.0983;0.3283;84.9803;27.2107;341778;346586;176.4;0;1;-0.066;0.033;76234651;1.0983;0.3283;84.9803;27.2107;0.85;535.165;0;0;0;3221.18;3266.5;1;76234609;-0.0209068;0.314374;2.30964;-0.30677;0.0144286;0.942205;0.0871803;0.120396;0.170539;76231000;47.59967103;-122.83038419;104.72301353;0.00000000;0.00000000;4.39861155;3.00000000;
76234876;80.9;29.6;29.2;0;29.6;39.2;0;0;0;0;0;0.001;1.0983;0.3283;84.9803;27.2107;341778;346586;176.4;0;1;-0.066;0.033;76234789;1.0983;0.3283;84.9803;27.2107;0.85;535.165;0;0;0;3221.18;3266.5;1;76234700;-0.0210346;0.314387;2.30936;-0.306105;0.0191574;0.942198;0.0113302;-0.230237;0.11051;76232000;47.59967103;-122.83038419;104.65903673;0.00000000;0.00000000;4.39878511;3.00000000;
76234969;80.9;29.6;29.3;0;29.6;39.2;0;0;0;0;0;0.001;1.0983;0.3283;84.9803;27.2107;341778;346586;176.4;0;1;-0.066;0.033;76234926;1.0983;0.3283;84.9803;27.2107;0.85;535.165;0;0;0;3221.18;3266.5;1;76234877;-0.0215197;0.314378;2.30884;-0.306881;0.0207022;0.942268;0.232762;-0.298994;0.232331;76232000;47.59967103;-122.83038419;104.65903673;0.00000000;0.00000000;4.39878511;3.00000000;
76235061;80.9;29.6;29.1;0;29.6;39.2;0;0;0;0;0;0.001;1.0983;0.3283;84.9803;27.2107;341778;346586;176.4;0;1;-0.065;0.032;76235012;1.0983;0.3283;84.9803;27.2107;0.85;535.165;0;0;0;3221.18;3266.5;1;76234971;-0.0214456;0.314379;2.3085;-0.309781;0.014794;0.942306;-0.128134;-0.0201226;0.120595;76232000;47.59967103;-122.83038419;104.65903673;0.00000000;0.00000000;4.39878511;3.00000000;
76235150;80.9;29.7;29.2;0;29.5;39.2;0;0;0;0;0;0.001;1.0983;0.3283;84.9803;27.2107;341778;346586;176.4;0;1;-0.066;0.034;76235101;1.0983;0.3283;84.9803;27.2107;0.85;535.164;0;0;0;3221.18;3266.5;1;76235062;-0.0213422;0.314464;2.30829;-0.307043;0.0173818;0.942389;0.169148;0.191757;0.303162;76232000;47.59967103;-122.83038419;104.65903673;0.00000000;0.00000000;4.39878511;3.00000000;
76235239;80.9;29.6;29.2;0;29.6;39.2;0;0;0;0;0;0.001;1.0983;0.3283;84.9803;27.2107;341778;346586;176.4;0;1;-0.066;0.034;76235198;1.0983;0.3283;84.9803;27.2107;0.85;535.163;0;0;0;3221.18;3266.5;1;76235151;-0.021622;0.314955;2.30795;-0.305926;0.0178286;0.942666;0.308612;0.261628;0.29021;76232000;47.59967103;-122.83038419;104.65903673;0.00000000;0.00000000;4.39878511;3.00000000;
76235326;80.9;29.6;29.2;0;29.6;39.2;0;0;0;0;0;0.001;1.0983;0.3283;84.9803;27.2107;341778;346586;176.4;0;1;-0.066;0.033;76235286;1.0983;0.3283;84.9803;27.2107;0.85;535.163;0;0;0;3221.18;3266.5;1;76235240;-0.02186;0.315337;2.30764;-0.307009;0.0187354;0.94272;0.232762;0.260977;0.226599;76232000;47.59967103;-122.83038419;104.65903673;0.00000000;0.00000000;4.39878511;3.00000000;
76235425;80.9;29.6;29.2;0;29.6;39.2;0;0;0;0;0;0.001;1.0983;0.3283;84.9803;27.2107;341778;346586;176.4;0;1;-0.067;0.034;76235371;1.0983;0.3283;84.9803;27.2107;0.85;535.163;0;0;0;3221.18;3266.5;1;76235327;-0.0219313;0.315532;2.30732;-0.308638;0.0196927;0.942645;-0.0461662;0.191231;0.251786;76232000;47.59967103;-122.83038419;104.65903673;0.00000000;0.00000000;4.39878511;3.00000000;
76235550;80.9;29.6;29.2;0;29.6;39.2;0;0;0;0;0;0.001;1.0983;0.3283;84.9803;27.2107;341778;346586;176.4;0;1;-0.066;0.033;76235465;1.0983;0.3283;84.9803;27.2107;0.85;535.163;0;0;0;3221.18;3266.5;1;76235426;-0.021995;0.315735;2.30705;-0.305534;0.016727;0.942531;-0.122016;-0.019409;0.190324;76232000;47.59967103;-122.83038419;104.65903673;0.00000000;0.00000000;4.39878511;3.00000000;
76235641;80.9;29.6;29.2;0;29.6;39.2;0;0;0;0;0;0.001;1.0983;0.3283;84.9803;27.2107;341778;346586;176.4;0;1;-0.066;0.033;76235640;1.0983;0.3283;84.9803;27.2107;0.85;535.163;0;0;0;3221.18;3266.5;1;76235551;-0.0212423;0.316096;2.30688;-0.312954;0.0176946;0.942384;-0.115898;0.121297;0.25862;76232000;47.59967103;-122.83038419;104.65903673;0.00000000;0.00000000;4.39878511;3.00000000;
76235775;80.9;29.6;29.2;0;29.6;39.2;0;0;0;0;0;0.001;1.0983;0.3283;84.9803;27.2107;341778;346586;176.4;0;1;-0.066;0.033;76235731;1.0983;0.3283;84.9803;27.2107;0.85;535.163;0;0;0;3221.18;3266.5;1;76235643;-0.0208752;0.316354;2.30674;-0.305133;0.0108609;0.942297;0.0810624;0.0496858;0.101527;76232000;47.59967103;-122.83038419;104.65903673;0.00000000;0.00000000;4.39878511;3.00000000;
76235915;80.9;29.6;29.2;0;29.6;39.2;0;0;0;0;0;0.001;1.0983;0.3283;84.9803;27.2107;341778;346586;176.4;0;1;-0.066;0.034;76235867;1.0983;0.3283;84.9803;27.2107;0.85;535.163;0;0;0;3221.18;3266.5;1;76235778;-0.0209989;0.316454;2.3063;-0.309508;0.0181845;0.941943;-0.115898;0.191294;0.257903;76233000;47.59967103;-122.83038419;104.73874066;0.00000000;0.00000000;4.39895678;3.00000000;
76236050;80.9;29.6;29.1;0;29.6;39.2;0;0;0;0;0;0.001;1.0983;0.3283;84.9803;27.2107;341778;346586;176.4;0;1;-0.066;0.033;76235999;1.0983;0.3283;84.9803;27.2107;0.85;535.163;0;0;0;3221.18;3266.5;1;76235915;-0.0210035;0.316486;2.30595;-0.310421;0.0166712;0.941644;0.0871803;-0.0195968;0.171971;76233000;47.59967103;-122.83038419;104.73874066;0.00000000;0.00000000;4.39895678;3.00000000;
76236134;80.9;29.6;29.2;0;29.6;39.2;0;0;0;0;0;0.001;1.0983;0.3283;84.9803;27.2107;341778;346586;176.4;0;1;-0.066;0.033;76236091;1.0983;0.3283;84.9803;27.2107;0.85;535.163;0;0;0;3221.18;3266.5;1;76236052;-0.0214414;0.316709;2.30545;-0.312826;0.0167335;0.941569;0.517809;0.121448;0.273291;76233000;47.59967103;-122.83038419;104.73874066;0.00000000;0.00000000;4.39895678;3.00000000;
76236225;80.9;29.6;29.2;0;29.6;39.2;0;0;0;0;0;0.001;1.0983;0.3283;84.9803;27.2107;341778;346586;176.4;0;1;-0.066;0.033;76236183;1.0983;0.3283;84.9803;27.2107;0.85;535.163;0;0;0;3221.18;3266.5;1;76236148;-0.0220537;0.316578;2.30505;-0.307623;0.0133532;0.941307;0.675627;-0.296515;0.47454;76233000;47.59967103;-122.83038419;104.73874066;0.00000000;0.00000000;4.39895678;3.00000000;
76236322;80.9;29.6;29.2;0;29.6;39.2;0;0;0;0;0;0.001;1.0983;0.3283;84.9803;27.2107;341778;346586;176.4;0;1;-0.066;0.033;76236271;1.0983;0.3283;84.9803;27.2107;0.85;535.163;0;0;0;3221.18;3266.5;1;76236226;-0.0231598;0.315978;2.30456;-0.309542;0.0217106;0.94092;0.378344;-0.368402;0.29054;76233000;47.59967103;-122.83038419;104.73874066;0.00000000;0.00000000;4.39895678;3.00000000;
76236408;80.9;29.6;29.2;0;29.6;39.2;0;0;0;0;0;0.001;1.0983;0.3283;84.9803;27.2107;341778;346586;176.4;0;1;-0.066;0.033;76236361;1.0983;0.3283;84.9803;27.2107;0.85;535.163;0;0;0;3221.18;3266.5;1;76236323;-0.0229898;0.316059;2.30436;-0.30474;0.0222444;0.941283;-0.849927;0.537619;-0.102875;76233000;47.59967103;-122.83038419;104.73874066;0.00000000;0.00000000;4.39895678;3.00000000;
76236542;80.9;29.6;29.2;0;29.6;39.2;0;0;0;0;0;0.001;1.0983;0.3283;84.9803;27.2107;341778;346586;176.4;0;1;-0.066;0.033;76236496;1.0983;0.3283;84.9803;27.2107;0.85;535.163;0;0;0;3221.18;3266.5;1;76236409;-0.0220847;0.316662;2.3043;-0.312629;0.0221813;0.941799;-0.419298;0.188689;0.00345923;76233000;47.59967103;-122.83038419;104.73874066;0.00000000;0.00000000;4.39895678;3.00000000;
76236634;80.9;29.6;29.1;0;29.6;39.2;0;0;0;0;0;0.001;1.0983;0.3283;84.9803;27.2107;341778;346586;176.4;0;1;-0.067;0.033;76236585;1.0983;0.3283;84.9803;27.2107;0.85;535.163;0;0;0;3221.18;3266.5;1;76236543;-0.0214657;0.317331;2.30412;-0.307214;0.0183378;0.942043;0.0113302;0.0497485;0.107644;76233000;47.59967103;-122.83038419;104.73874066;0.00000000;0.00000000;4.39895678;3.00000000;
76236773;80.9;29.6;29.2;0;29.6;39.2;0;0;0;0;0;0.001;1.0983;0.3283;84.9803;27.2107;341778;346586;176.4;0;1;-0.066;0.033;76236682;1.0983;0.3283;84.9803;27.2107;0.85;535.163;0;0;0;3221.18;3266.5;1;76236634;-0.0216198;0.317596;2.30383;-0.308851;0.0201558;0.941993;0.232762;0.120984;0.228032;76233000;47.59967103;-122.83038419;104.73874066;0.00000000;0.00000000;4.39895678;3.00000000;
76236860;80.9;29.6;29.2;0;29.6;39.2;0;0;0;0;0;0.001;1.0983;0.3283;84.9803;27.2107;341778;346586;176.4;0;1;-0.067;0.033;76236775;1.0983;0.3283;84.9803;27.2107;0.85;535.163;0;0;0;3221.18;3266.5;1;76236774;-0.0218416;0.318257;2.30343;-0.310787;0.0180352;0.941971;0.296377;-0.0197846;0.153619;76234000;47.59967103;-122.83038419;104.80180130;0.00000000;0.00000000;4.39913034;3.00000000;
76236949;80.9;29.6;29.2;0;29.6;39.2;0;0;0;0;0;0.001;1.0983;0.3283;84.9803;27.2107;341778;346586;176.4;0;1;-0.066;0.033;76236948;1.0983;0.3283;84.9803;27.2107;0.85;535.162;0;0;0;3221.18;3266.5;1;76236861;-0.0219291;0.318174;2.30316;-0.310676;0.0159512;0.941475;0.0932981;0.191106;0.239551;76234000;47.59967103;-122.83038419;104.80180130;0.00000000;0.00000000;4.39913034;3.00000000;
76237170;80.9;29.6;29.2;0;29.6;39.2;0;0;0;0;0;0.001;1.0983;0.3283;84.9803;27.2107;341778;346586;176.4;0;1;-0.066;0.033;76237083;1.0983;0.3283;84.9803;27.2107;0.85;535.162;0;0;0;3221.18;3266.5;1;76236949;-0.0222956;0.318376;2.30284;-0.314028;0.0196926;0.941241;0.150795;-0.160366;0.0975582;76234000;47.59967103;-122.83038419;104.80180130;0.00000000;0.00000000;4.39913034;3.00000000;
76237261;80.9;29.6;29.2;0;29.6;39.2;0;0;0;0;0;0.001;1.0983;0.3283;84.9803;27.2107;341778;346586;176.4;0;1;-0.066;0.032;76237216;1.0983;0.3283;84.9803;27.2107;0.85;535.162;0;0;0;3221.18;3266.5;1;76237171;-0.0222595;0.318549;2.30248;-0.310156;0.0192562;0.940997;-0.197866;-0.02006;0.126713;76234000;47.59967103;-122.83038419;104.80180130;0.00000000;0.00000000;4.39913034;3.00000000;
76237402;80.9;29.6;29.2;0;29.6;39.2;0;0;0;0;0;0.001;1.0983;0.3283;84.9803;27.2107;341778;346586;176.4;0;1;-0.066;0.033;76237356;1.0983;0.3283;84.9803;27.2107;0.85;535.162;0;0;0;3221.18;3266.5;1;76237262;-0.0201635;0.318929;2.30253;-0.315052;0.0132295;0.940937;-0.052284;-0.369453;0.187788;76234000;47.59967103;-122.83038419;104.80180130;0.00000000;0.00000000;4.39913034;3.00000000;
76237491;80.9;29.6;29.2;0;29.6;39.2;0;0;0;0;0;0.001;1.0983;0.3283;84.9803;27.2107;341778;346586;176.4;0;1;-0.066;0.033;76237356;1.0983;0.3283;84.9803;27.2107;0.85;535.162;0;0;0;3221.18;3266.5;1;76237404;-0.0200171;0.318103;2.30223;-0.309841;0.0197239;0.940237;-0.0706375;-0.301598;-0.0221135;76234000;47.59967103;-122.83038419;104.80180130;0.00000000;0.00000000;4.39913034;3.00000000;
76237578;80.9;29.6;29.2;0;29.6;39.1;0;0;0;0;0;0.001;1.0983;0.3283;84.9803;27.2107;341778;346586;176.4;0;1;-0.066;0.033;76237492;1.0983;0.3283;84.9803;27.2107;0.85;535.162;0;0;0;3221.18;3266.5;1;76237498;-0.0197799;0.317629;2.30203;-0.310804;0.0188641;0.940116;0.23888;0.0517016;0.298477;76234000;47.59967103;-122.83038419;104.80180130;0.00000000;0.00000000;4.39913034;3.00000000;
76237677;80.9;29.6;29.2;0;29.6;39.2;0;0;0;0;0;0.001;1.0983;0.3283;84.9803;27.2107;341778;346586;176.4;0;1;-0.065;0.033;76237677;1.0983;0.3283;84.9803;27.2107;0.85;535.162;0;0;0;3221.18;3266.5;1;76237579;-0.0201346;0.318036;2.30167;-0.310421;0.020087;0.940668;0.302494;-0.019071;0.223347;76234000;47.59967103;-122.83038419;104.80180130;0.00000000;0.00000000;4.39913034;3.00000000;
76237761;80.9;29.6;29.2;0;29.6;39.2;0;0;0;0;0;0.001;1.0983;0.3283;84.9803;27.2107;341778;346586;176.4;0;1;-0.066;0.033;76237677;1.0983;0.3283;84.9803;27.2107;0.85;535.162;0;0;0;3221.18;3266.5;1;76237678;-0.0204649;0.318074;2.30138;-0.305312;0.0119874;0.940857;0.226645;0.0502743;0.15902;76234000;47.59967103;-122.83038419;104.80180130;0.00000000;0.00000000;4.39913034;3.00000000;
76237896;80.9;29.6;29.2;0;29.6;39.2;0;0;0;0;0;0.001;1.0983;0.3283;84.9803;27.2107;341778;346586;176.4;0;1;-0.066;0.033;76237895;1.0983;0.3283;84.9803;27.2107;0.85;535.162;0;0;0;3221.18;3266.5;1;76237863;-0.0202657;0.31617;2.3008;-0.310557;0.0400473;0.939415;-0.971038;-3.5899;0.160813;76235000;47.59967103;-122.83038419;104.82255467;0.00000000;0.00000000;4.39930344;3.00000000;
76237987;80.9;29.6;29.2;0;29.6;39.1;0;0;0;0;0;0.001;1.0983;0.3283;84.9803;27.2107;341778;346586;176.4;0;1;-0.066;0.033;76237895;1.0983;0.3283;84.9803;27.2107;0.85;535.162;0;0;0;3221.18;3266.5;1;76237939;-0.0189405;0.318746;2.30084;-0.31321;-0.00262801;0.942963;0.0235658;2.50105;0.222027;76235000;47.59967103;-122.83038419;104.82255467;0.00000000;0.00000000;4.39930344;3.00000000;
76238074;80.9;29.6;29.2;0;29.5;39.1;0;0;0;0;0;0.001;1.0983;0.3283;84.9803;27.2107;341778;346586;176.4;0;1;-0.066;0.033;76237989;1.0983;0.3283;84.9803;27.2107;0.85;535.162;0;0;0;3221.18;3266.5;1;76238028;-0.0187628;0.319528;2.30062;-0.311887;0.0197708;0.942862;0.505573;-1.3499;0.148878;76235000;47.59967103;-122.83038419;104.82255467;0.00000000;0.00000000;4.39930344;3.00000000;
76238163;80.9;29.6;29.2;0;29.6;39.1;0;0;0;0;0;0.001;1.0983;0.3283;84.9803;27.2107;341778;346586;176.4;0;1;-0.066;0.033;76238163;1.0983;0.3283;84.9803;27.2107;0.85;535.162;0;0;0;3221.18;3266.5;1;76238116;-0.0198803;0.319308;2.30019;-0.310412;0.0150368;0.942363;0.505573;0.470002;0.130252;76235000;47.59967103;-122.83038419;104.82255467;0.00000000;0.00000000;4.39930344;3.00000000;
76238250;80.9;29.6;29.2;0;29.7;39.2;0;0;0;0;0;0.001;1.0983;0.3283;84.9803;27.2107;341778;346586;176.4;0;1;-0.066;0.032;76238163;1.0983;0.3283;84.9803;27.2107;0.85;535.162;0;0;0;3221.18;3266.5;1;76238209;-0.0197916;0.318596;2.30001;-0.309593;0.0150445;0.941397;-0.26148;-0.509258;0.207574;76235000;47.59967103;-122.83038419;104.82255467;0.00000000;0.00000000;4.39930344;3.00000000;
76238343;80.9;29.6;29.1;0;29.5;39.2;0;0;0;0;0;0.001;1.0983;0.3283;84.9803;27.2107;341778;346586;176.4;0;1;-0.066;0.033;76238251;1.0983;0.3283;84.9803;27.2107;0.85;535.162;0;0;0;3221.18;3266.5;1;76238304;-0.0193002;0.318577;2.29989;-0.307717;0.0115618;0.941276;0.169148;-0.0882284;0.306027;76235000;47.59967103;-122.83038419;104.82255467;0.00000000;0.00000000;4.39930344;3.00000000;
76238439;80.9;29.6;29.2;0;29.6;39.1;0;0;0;0;0;0.001;1.0983;0.3283;84.9803;27.2107;341778;346586;176.4;0;1;-0.066;0.033;76238345;1.0983;0.3283;84.9803;27.2107;0.85;535.162;0;0;0;3221.18;3266.5;1;76238389;-0.0191397;0.319007;2.29969;-0.308911;0.0138623;0.941407;0.0174481;-0.0195342;0.178089;76235000;47.59967103;-122.83038419;104.82255467;0.00000000;0.00000000;4.39930344;3.00000000;
76238531;80.9;29.6;29.2;0;29.6;39.1;0;0;0;0;0;0.001;1.0983;0.3283;84.9803;27.2107;341778;346586;176.4;0;1;-0.065;0.033;76238440;1.0983;0.3283;84.9803;27.2107;0.85;535.162;0;0;0;3221.18;3266.5;1;76238480;-0.0193192;0.319008;2.2994;-0.313303;0.0116838;0.941161;0.302494;-0.22906;0.225497;76235000;47.59967103;-122.83038419;104.82255467;0.00000000;0.00000000;4.39930344;3.00000000;
76238613;80.9;29.6;29.1;0;29.6;39.1;0;0;0;0;0;0.001;1.0983;0.3283;84.9803;27.2107;341778;346586;176.4;0;1;-0.066;0.033;76238613;1.0983;0.3283;84.9803;27.2107;0.85;535.162;0;0;0;3221.18;3266.5;1;76238567;-0.0199508;0.318495;2.29901;-0.314045;0.013404;0.940591;0.169148;-0.368214;0.308893;76235000;47.59967103;-122.83038419;104.82255467;0.00000000;0.00000000;4.39930344;3.00000000;
76238709;80.9;29.6;29.2;0;29.5;39.1;0;0;0;0;0;0.001;1.0983;0.3283;84.9803;27.2107;341778;346586;176.4;0;1;-0.066;0.033;76238709;1.0983;0.3283;84.9803;27.2107;0.85;535.162;0;0;0;3221.18;3266.5;1;76238659;-0.0204291;0.318168;2.29866;-0.315171;0.0201615;0.940501;0.308612;-0.15835;0.294509;76235000;47.59967103;-122.83038419;104.82255467;0.00000000;0.00000000;4.39930344;3.00000000;
76238843;80.9;29.6;29.1;0;29.6;39.1;0;0;0;0;0;0.001;1.0983;0.3283;84.9803;27.2107;341778;346586;176.4;0;1;-0.066;0.033;76238843;1.0983;0.3283;84.9803;27.2107;0.85;535.162;0;0;0;3221.18;3266.5;1;76238759;-0.0206237;0.317777;2.29837;-0.309585;0.013898;0.940401;0.156912;-0.299645;0.16872;76236000;47.59967103;-122.83038419;104.83918523;0.00000000;0.00000000;4.75907040;3.00000000;
76239021;80.9;29.6;29.2;0;29.7;39.1;0;0;0;0;0;0.001;1.0983;0.3283;84.9803;27.2107;341778;346586;176.4;0;1;-0.067;0.033;76239019;1.0983;0.3283;84.9803;27.2107;0.85;535.162;0;0;0;3221.18;3266.5;1;76238844;-0.0212459;0.317444;2.29794;-0.311913;0.0158069;0.94054;0.0235659;-0.158813;0.24925;76236000;47.59967103;-122.83038419;104.83918523;0.00000000;0.00000000;4.75907040;3.00000000;
76239155;80.9;29.6;29.1;0;29.6;39.1;0;0;0;0;0;0.001;1.0983;0.3283;84.9803;27.2107;341778;346586;176.4;0;1;-0.066;0.032;76239019;1.0983;0.3283;84.9803;27.2107;0.85;535.162;0;0;0;3221.18;3266.5;1;76239023;-0.021335;0.317065;2.29767;-0.307444;0.0193441;0.940674;-0.179513;-0.017919;0.335898;76236000;47.59967103;-122.83038419;104.83918523;0.00000000;0.00000000;4.75907040;3.00000000;
76239243;80.9;29.6;29.1;0;29.6;39.1;0;0;0;0;0;0.001;1.0983;0.3283;84.9803;27.2107;341778;346586;176.4;0;1;-0.066;0.033;76239243;1.0983;0.3283;84.9803;27.2107;0.85;535.162;0;0;0;3221.18;3266.5;1;76239156;-0.0209627;0.31693;2.29714;-0.308126;0.0104809;0.941395;-0.33733;-0.369916;0.14253;76236000;47.59967103;-122.83038419;104.83918523;0.00000000;0.00000000;4.75907040;3.00000000;
76239344;80.9;29.6;29.1;0;29.6;39.1;0;0;0;0;0;0.001;1.0983;0.3283;84.9803;27.2107;341778;346586;176.4;0;1;-0.066;0.033;76239343;1.0983;0.3283;84.9803;27.2107;0.85;535.162;0;0;0;3221.18;3266.5;1;76239251;-0.0203728;0.317074;2.29703;-0.308792;0.0181537;0.941774;-0.197866;0.189929;0.124564;76236000;47.59967103;-122.83038419;104.83918523;0.00000000;0.00000000;4.75907040;3.00000000;
76239424;80.9;29.6;29.2;0;29.6;39.1;0;0;0;0;0;0.001;1.0983;0.3283;84.9803;27.2107;341778;346586;176.4;0;1;-0.066;0.033;76239343;1.0983;0.3283;84.9803;27.2107;0.85;535.162;0;0;0;3221.18;3266.5;1;76239384;-0.0190803;0.317261;2.29702;-0.306924;0.0187453;0.941946;0.460312;-0.0870516;0.421014;76236000;47.59967103;-122.83038419;104.83918523;0.00000000;0.00000000;4.75907040;3.00000000;
76239513;80.9;29.6;29.2;0;29.6;39.1;0;0;0;0;0;0.001;1.0983;0.3283;84.9803;27.2107;341778;346586;176.4;0;1;-0.066;0.033;76239425;1.0983;0.3283;84.9803;27.2107;0.85;535.162;0;0;0;3221.18;3266.5;1;76239470;-0.0193978;0.317094;2.29667;-0.304689;0.0181751;0.941748;0.530044;-0.437096;0.418479;76236000;47.59967103;-122.83038419;104.83918523;0.00000000;0.00000000;4.75907040;3.00000000;
76239607;80.9;29.6;29.2;0;29.6;39.1;0;0;0;0;0;0.001;1.0983;0.3283;84.9803;27.2107;341778;346586;176.4;0;1;-0.066;0.033;76239514;1.0983;0.3283;84.9803;27.2107;0.85;535.162;0;0;0;3221.18;3266.5;1;76239563;-0.0201902;0.315021;2.29624;-0.306258;0.0396608;0.940311;1.02429;-1.62676;0.457564;76236000;47.59967103;-122.83038419;104.83918523;0.00000000;0.00000000;4.75907040;3.00000000;
76239703;80.9;29.6;29.2;0;29.6;39.1;0;0;0;0;0;0.001;1.0983;0.3283;84.9803;27.2107;341778;346586;176.4;0;1;-0.066;0.033;76239702;1.0983;0.3283;84.9803;27.2107;0.85;535.162;0;0;0;3221.18;3266.5;1;76239656;-0.021053;0.314193;2.29586;-0.304467;0.0368583;0.940595;0.0174481;-0.229523;0.180238;76236000;47.59967103;-122.83038419;104.83918523;0.00000000;0.00000000;4.75907040;3.00000000;
76239782;80.9;29.6;29.1;0;29.6;39.1;0;0;0;0;0;0.001;1.0983;0.3283;84.9803;27.2107;341778;346586;176.4;0;1;-0.065;0.034;76239702;1.0983;0.3283;84.9803;27.2107;0.85;535.162;0;0;0;3221.18;3266.5;1;76239782;-0.0199925;0.315697;2.29578;-0.311026;-0.00225897;0.942405;-0.558763;0.398804;0.013545;76236000;47.59967103;-122.83038419;104.83918523;0.00000000;0.00000000;4.75907040;3.00000000;
76239872;80.9;29.6;29.2;0;29.6;39.1;0;0;0;0;0;0.001;1.0983;0.3283;84.9803;27.2107;341778;346586;176.4;0;1;-0.066;0.033;76239871;1.0983;0.3283;84.9803;27.2107;0.85;535.163;0;0;0;3221.18;3266.5;1;76239782;-0.0199925;0.315697;2.29578;-0.311026;-0.00225897;0.942405;-0.558763;0.398804;0.013545;76237000;47.59967103;-122.83038419;104.89763349;0.00000000;0.00000000;4.18308449;3.00000000;
76239962;80.9;29.6;29.2;0;29.6;39.1;0;0;0;0;0;0.001;1.0983;0.3283;84.9803;27.2107;341778;346586;176.4;0;1;-0.066;0.033;76239871;1.0983;0.3283;84.9803;27.2107;0.85;535.163;0;0;0;3221.18;3266.5;1;76239872;-0.020632;0.316611;2.29525;-0.311205;0.0195647;0.943051;0.575305;0.609932;0.122701;76237000;47.59967103;-122.83038419;104.89763349;0.00000000;0.00000000;4.18308449;3.00000000;
76240106;80.9;29.6;29.2;0;29.6;39.1;0;0;0;0;0;0.001;1.0983;0.3283;84.9803;27.2107;341778;346586;176.4;0;1;-0.066;0.034;76240054;1.0983;0.3283;84.9803;27.2107;0.85;535.163;0;0;0;3221.18;3266.5;1;76239963;-0.0212634;0.316574;2.29482;-0.308655;0.0197479;0.942673;0.0174481;-0.229523;0.180238;76237000;47.59967103;-122.83038419;104.89763349;0.00000000;0.00000000;4.18308449;3.00000000;
76240186;80.9;29.6;29.2;0;29.6;39.1;0;0;0;0;0;0.001;1.0983;0.3283;84.9803;27.2107;341778;346586;176.4;0;1;-0.066;0.033;76240141;1.0983;0.3283;84.9803;27.2107;0.85;535.163;0;0;0;3221.18;3266.5;1;76240106;-0.0208585;0.3174;2.2946;-0.311162;0.0301029;0.943168;-0.849927;2.14754;-0.119352;76237000;47.59967103;-122.83038419;104.89763349;0.00000000;0.00000000;4.18308449;3.00000000;
76240282;80.9;29.6;29.2;0;29.6;39.1;0;0;0;0;0;0.001;1.0983;0.3283;84.9803;27.2107;341778;346586;176.4;0;1;-0.066;0.034;76240233;1.0983;0.3283;84.9803;27.2107;0.85;535.163;0;0;0;3221.18;3266.5;1;76240194;-0.0186585;0.317871;2.29486;-0.310113;0.0136913;0.942431;0.751477;-1.20582;0.547464;76237000;47.59967103;-122.83038419;104.89763349;0.00000000;0.00000000;4.18308449;3.00000000;
76240365;80.9;29.6;29.2;0;29.6;39.1;0;0;0;0;0;0.001;1.0983;0.3283;84.9803;27.2107;341778;346586;176.4;0;1;-0.066;0.033;76240324;1.0983;0.3283;84.9803;27.2107;0.85;535.163;0;0;0;3221.18;3266.5;1;76240283;-0.0190547;0.319315;2.29452;-0.312255;0.0140174;0.94317;0.23888;1.73161;0.281283;76237000;47.59967103;-122.83038419;104.89763349;0.00000000;0.00000000;4.18308449;3.00000000;
76240456;80.9;29.6;29.2;0;29.5;39.1;0;0;0;0;0;0.001;1.0983;0.3283;84.9803;27.2107;341778;346586;176.4;0;1;-0.065;0.032;76240416;1.0983;0.3283;84.9803;27.2107;0.85;535.163;0;0;0;3221.18;3266.5;1;76240367;-0.0193414;0.319683;2.29416;-0.307623;0.0240886;0.942419;0.0296837;-0.648074;0.323994;76237000;47.59967103;-122.83038419;104.89763349;0.00000000;0.00000000;4.18308449;3.00000000;
76240550;80.9;29.6;29.2;0;29.6;39.1;0;0;0;0;0;0.001;1.0983;0.3283;84.9803;27.2107;341778;346586;176.4;0;1;-0.066;0.033;76240501;1.0983;0.3283;84.9803;27.2107;0.85;535.163;0;0;0;3221.18;3266.5;1;76240457;-0.0195743;0.318846;2.29385;-0.309286;0.0251563;0.941218;-0.122016;-0.299394;0.19319;76237000;47.59967103;-122.83038419;104.89763349;0.00000000;0.00000000;4.18308449;3.00000000;
76240635;80.9;29.6;29.1;0;29.6;39.1;0;0;0;0;0;0.001;1.0983;0.3283;84.9803;27.2107;341778;346586;176.4;0;1;-0.066;0.033;76240594;1.0983;0.3283;84.9803;27.2107;0.85;535.163;0;0;0;3221.18;3266.5;1;76240550;-0.019305;0.318687;2.29368;-0.314471;0.0136401;0.940867;0.16303;0.191043;0.233433;76237000;47.59967103;-122.83038419;104.89763349;0.00000000;0.00000000;4.18308449;3.00000000;
76240726;80.9;29.6;29.2;0;29.6;39.1;0;0;0;0;0;0.001;1.0983;0.3283;84.9803;27.2107;341778;346586;176.4;0;1;-0.065;0.032;76240682;1.0983;0.3283;84.9803;27.2107;0.85;535.163;0;0;0;3221.18;3266.5;1;76240635;-0.0195971;0.320703;2.29322;-0.316041;0.0193434;0.942207;-0.337331;1.86997;0.119605;76237000;47.59967103;-122.83038419;104.89763349;0.00000000;0.00000000;4.18308449;3.00000000;
76240816;80.9;29.6;29.2;0;29.6;39.1;0;0;0;0;0;0.001;1.0983;0.3283;84.9803;27.2107;341778;346586;176.4;0;1;-0.066;0.032;76240774;1.0983;0.3283;84.9803;27.2107;0.85;535.163;0;0;0;3221.18;3266.5;1;76240726;-0.01902;0.319775;2.29314;-0.310728;0.00948725;0.940538;-0.437652;-2.54331;-0.177787;76238000;47.59967103;-122.83038419;104.89128664;0.00000000;0.00000000;4.39981985;3.00000000;
76240907;80.9;29.6;29.2;0;29.5;39.1;0;0;0;0;0;0.001;1.0983;0.3283;84.9803;27.2107;341778;346586;176.4;0;1;-0.067;0.032;76240865;1.0983;0.3283;84.9803;27.2107;0.85;535.163;0;0;0;3221.18;3266.5;1;76240820;-0.0190584;0.315886;2.2929;-0.317356;0.0158051;0.937776;0.384462;-4.28748;0.400387;76238000;47.59967103;-122.83038419;104.89128664;0.00000000;0.00000000;4.39981985;3.00000000;
76241001;80.9;29.6;29.1;0;29.6;39.1;0;0;0;0;0;0.001;1.0983;0.3283;84.9803;27.2107;341778;346586;176.4;0;1;-0.068;0.026;76240950;1.0983;0.3283;84.9803;27.2107;0.85;535.163;0;0;0;3221.18;3266.5;1;76240907;-0.0181906;0.309416;2.29272;-0.30463;-0.0119273;0.935051;-0.470677;-3.16893;0.25315;76238000;47.59967103;-122.83038419;104.89128664;0.00000000;0.00000000;4.39981985;3.00000000;
76241091;80.9;29.6;29.2;0;29.6;39.1;0;0;0;0;0;0.004;1.0983;0.3283;84.9803;27.2107;341778;346586;176.4;0;1;-0.059;0.058;76241048;1.0983;0.3283;84.9803;27.2107;0.85;535.163;0;0;0;3221.18;3266.5;1;76241002;-0.0150257;0.298805;2.2926;-0.30186;0.0984276;0.930998;-7.87089;-12.3656;-2.30626;76238000;47.59967103;-122.83038419;104.89128664;0.00000000;0.00000000;4.39981985;3.00000000;
76241182;80.9;29.6;29.2;0;29.5;39.1;0.3;0;0.06;-0.32;67;0;1.0983;0.3283;84.9803;27.2107;341779;346587;206.951;0;1;-0.108;0.27;76241135;1.0983;0.3283;84.9803;27.2107;0.85;535.163;0;0;0;3221.18;3266.5;1;76241091;0.00638887;0.272109;2.29868;-0.504825;0.0829963;0.91969;-21.8431;-27.9527;-6.82373;76238000;47.59967103;-122.83038419;104.89128664;0.00000000;0.00000000;4.39981985;3.00000000;
76241267;80.9;29.6;29.2;0;29.6;39.1;-0.04;0;0.02;-0.74;0;0;1.0983;0.3283;84.9803;27.2107;341779;346587;235.8;0;1;-0.172;0.024;76241228;1.0983;0.3283;84.9803;27.2107;0.85;535.163;0;-1.15;0.016;3221.19;3266.51;1;76241221;0.0366865;0.197352;2.30718;-0.0328547;-0.202742;0.901357;-3.53039;-60.8913;-3.59588;76238000;47.59967103;-122.83038419;104.89128664;0.00000000;0.00000000;4.39981985;3.00000000;
76241358;80.8;29.5;29.1;0;29.5;39.1;7.53;0.15;0.86;9.3;-42;0.043;1.0983;0.3283;84.9806;27.2107;341778;346588;176.4;0;1;-0.124;0.324;76241310;1.0983;0.3283;84.9803;27.2107;0.85;535.167;-0.02;-5.68;-0.024;3221.19;3266.51;1;76241311;-0.00268282;0.0406779;2.30105;0.099867;0.061367;0.894651;28.3067;-59.9726;-2.74442;76238000;47.59967103;-122.83038419;104.89128664;0.00000000;0.00000000;4.39981985;3.00000000;
76241449;80;29.5;29.1;0;29.5;39.1;41.16;2.56;0.14;41.35;108;0.109;1.0984;0.3283;84.9858;27.2107;341779;346589;228.068;0;1;-0.126;2.752;76241402;1.0983;0.3283;84.9819;27.2107;0.85;534.972;2.52;42.86;0;3221.18;3266.51;1;76241403;-0.0372397;-0.0391996;2.30968;-0.372526;0.118697;0.903398;6.75326;-42.1459;-5.11164;76238000;47.59967103;-122.83038419;104.89128664;0.00000000;0.00000000;4.39981985;3.00000000;
76241541;80.1;29.5;29.2;0;29.5;39.1;52.8;4.97;0.05;52.73;477;0.12;1.0985;0.3283;84.9948;27.2107;341784;346594;169.953;0;1;-0.521;4.74;76241493;1.0984;0.3283;84.9902;27.2107;0.848;533.902;5.55;56.61;0.258;3221.21;3266.54;1;76241495;-0.0371448;-0.0787386;2.30951;-0.353313;0.0548504;0.921584;-11.388;-24.2534;5.7837;76238000;47.59967103;-122.83038419;104.89128664;0.00000000;0.00000000;4.39981985;3.00000000;
76241626;80.1;29.5;29.2;0;29.5;39.1;39.54;3.83;-0.05;39.48;767;0.117;1.0986;0.3283;85.0026;27.2107;341792;346602;266.629;0;1;-0.464;4.965;76241584;1.0986;0.3283;84.9993;27.2107;0.846;532.723;3.71;37.72;0.592;3221.28;3266.61;1;76241584;-0.018584;-0.0939011;2.30061;-0.0747021;0.000336429;0.950231;-3.84348;-11.3339;2.74082;76238000;47.59967103;-122.83038419;104.89128664;0.00000000;0.00000000;4.39981985;3.00000000;
76241717;79.9;29.5;29.1;0;29.6;39.1;38.68;4.08;0.04;38.69;941;0.138;1.0987;0.3283;85.0117;27.2107;341801;346611;97.9932;0;1;-0.561;5.401;76241674;1.0987;0.3283;85.007;27.2107;0.845;531.774;3.84;36.68;0.801;3221.35;3266.68;1;76241675;-0.00352255;-0.0987606;2.30806;0.00346592;0.0649445;0.976609;-18.1436;-7.08844;-6.51859;76238000;47.59967103;-122.83038419;104.89128664;0.00000000;0.00000000;4.39981985;3.00000000;
76241809;80.1;29.5;29.2;0;29.5;39.1;37.66;4.19;0.06;37.59;1081;0.137;1.0988;0.3283;85.0202;27.2107;341811;346621;345.676;0;1;-0.635;5.766;76241766;1.0988;0.3283;85.0158;27.2107;0.843;530.674;3.9;36.36;0.94;3221.45;3266.78;1;76241767;0.0302285;-0.100055;2.32279;-0.0679427;-0.187963;0.997401;-18.0262;2.86915;-11.6904;76239000;47.59967694;-122.83037055;105.03692162;0.62001181;0.00000000;4.73421240;3.00000000;
76241941;80.4;29.6;29.1;0;29.6;39.1;28.51;3.13;-0.1;28.4;1232;0.124;1.0989;0.3283;85.0266;27.2107;341823;346633;316.156;0;1;-0.514;5.694;76241858;1.0989;0.3283;85.0237;27.2107;0.842;529.725;3.52;31.11;1.094;3221.54;3266.87;1;76241859;0.0453116;-0.0991102;2.33819;-0.0101993;-0.0250878;1.00766;-13.7138;6.10021;-10.6261;76239000;47.59967694;-122.83037055;105.03692162;0.62001181;0.00000000;4.73421240;3.00000000;
76242033;79.6;29.6;29.2;0;29.6;39.1;35.51;4.38;0.06;35.63;1304;0.165;1.0991;0.3283;85.039;27.2107;341841;346651;304.864;0;1;-0.679;6.291;76241990;1.099;0.3283;85.0331;27.2107;0.84;528.576;5.07;40.59;1.211;3221.71;3267.04;1;76241990;0.0718301;-0.0888524;2.34297;-0.0209351;-0.152105;1.01761;6.85856;-0.638384;1.27074;76239000;47.59967694;-122.83037055;105.03692162;0.62001181;0.00000000;4.73421240;3.00000000;
76242122;78.1;29.6;29.2;0;29.6;39.1;70.32;12.56;0.36;70.48;1480;0.237;1.0993;0.3283;85.0598;27.2107;341853;346663;355.095;0;1;-1.741;8.998;76242119;1.0992;0.3283;85.047;27.2107;0.837;526.886;13.64;74.65;1.286;3221.82;3267.16;1;76242120;0.0178529;-0.112254;2.3686;-0.574945;-0.26736;1.0087;64.7836;-41.026;-32.4909;76239000;47.59967694;-122.83037055;105.03692162;0.62001181;0.00000000;4.73421240;3.00000000;
76242215;78.5;29.6;29.1;0;29.6;39.1;65.9;12.73;0.08;65.76;1848;0.239;1.0997;0.3283;85.0856;27.2107;341871;346681;334.593;0;1;-2.526;10.014;76242119;1.0992;0.3283;85.047;27.2107;0.837;526.886;13.64;74.65;1.286;3221.82;3267.16;1;76242120;0.0178529;-0.112254;2.3686;-0.574945;-0.26736;1.0087;64.7836;-41.026;-32.4909;76239000;47.59967694;-122.83037055;105.03692162;0.62001181;0.00000000;4.73421240;3.00000000;
76242308;79.1;29.6;29.2;0;29.7;39.1;54.68;10.69;-0.04;54.54;2148;0.244;1.0999;0.3283;85.1076;27.2107;341891;346701;96.3889;0;1;-2.889;10.197;76242216;1.0997;0.3283;85.0883;27.2107;0.829;521.584;11.41;61.57;1.748;3222.07;3267.4;1;76242217;-0.101306;-0.143171;2.39689;0.0372367;0.301617;1.0098;-22.9903;-12.2156;19.187;76239000;47.59967694;-122.83037055;105.03692162;0.62001181;0.00000000;4.73421240;3.00000000;
76242390;79;29.6;29.3;0;29.7;39.1;44.76;8.61;0.01;44.78;2304;0.235;1.1001;0.3283;85.1245;27.2107;341913;346723;309.473;0;1;-2.565;10.097;76242308;1.1;0.3283;85.1095;27.2107;0.825;518.933;8.21;45.04;2.032;3222.26;3267.59;1;76242308;-0.016121;-0.139589;2.35719;0.0586492;0.0983263;1.01968;-59.2216;15.3535;24.8243;76239000;47.59967694;-122.83037055;105.03692162;0.62001181;0.00000000;4.73421240;3.00000000;
76242483;78.8;29.7;29.2;0;29.7;39.1;49.18;10.09;0.15;49.18;2456;0.256;1.1004;0.3283;85.1467;27.2107;341936;346746;246.73;0;1;-3.015;10.769;76242392;1.1002;0.3283;85.1266;27.2107;0.821;516.879;8.93;47.69;2.173;3222.45;3267.79;1;76242393;0.0459471;-0.12943;2.34196;0.0257987;-0.184795;1.024;-28.24;-4.76398;1.72207;76239000;47.59967694;-122.83037055;105.03692162;0.62001181;0.00000000;4.73421240;3.00000000;
76242574;78.9;29.7;29.3;0;29.7;39.1;44.92;9.45;-0.09;44.88;2624;0.258;1.1007;0.3283;85.1655;27.2107;341961;346773;302.287;0;1;-2.917;11.075;76242574;1.1006;0.3283;85.1634;27.2107;0.814;512.451;9.28;43.51;2.457;3222.88;3268.23;1;76242484;0.071324;-0.127013;2.35659;-0.128034;-0.231206;1.02404;-13.7665;5.62491;-16.0276;76239000;47.59967694;-122.83037055;105.03692162;0.62001181;0.00000000;4.73421240;3.00000000;
76242710;78.7;29.7;29.3;0;29.7;39.1;45.14;9.9;0.08;45.13;2795;0.279;1.101;0.3283;85.1938;27.2107;341998;346812;15.1924;0;1;-3.147;11.549;76242706;1.101;0.3283;85.1938;27.2107;0.809;509.101;11.57;46.89;2.627;3223.24;3268.61;1;76242581;0.0647769;-0.121543;2.37398;-0.114554;-0.294486;1.02006;16.6931;3.84166;-12.4276;76239000;47.59967694;-122.83037055;105.03692162;0.62001181;0.00000000;4.73421240;3.00000000;
76242800;78.7;29.8;29.4;0;29.8;39.1;45.72;10.61;-0.02;45.68;2954;0.283;1.1013;0.3283;85.2125;27.2107;342023;346839;84.0511;0;1;-3.405;12.216;76242706;1.101;0.3283;85.1938;27.2107;0.809;509.101;11.57;46.89;2.627;3223.24;3268.61;1;76242711;0.0119988;-0.114654;2.40899;0.00273064;0.31686;1.0144;25.1674;-5.43016;-8.64903;76239000;47.59967694;-122.83037055;105.03692162;0.62001181;0.00000000;4.73421240;3.00000000;
76242930;78.2;29.8;29.5;0;29.8;39.1;48.57;12.12;0.13;48.59;3209;0.338;1.1017;0.3283;85.2493;27.2107;342066;346882;166.028;0;1;-3.902;13.043;76242801;1.1013;0.3283;85.2148;27.2107;0.805;506.638;9.52;43.11;2.786;3223.5;3268.89;1;76242801;-0.0241217;-0.111361;2.42647;0.0495048;-0.367033;1.01151;35.4915;6.88856;-8.83765;76240000;47.59968277;-122.83034831;105.07547929;1.98005497;0.00000000;4.73465919;3.00000000;
76243073;79.6;29.8;29.4;0;29.8;39.1;46.11;12.25;-0.47;45.84;3497;0.278;1.1021;0.3283;85.2751;27.2107;342100;346916;58.7827;0;1;-4.128;13.905;76243073;1.1021;0.3283;85.2751;27.2107;0.794;499.725;5.59;25.69;3.288;3224.2;3269.59;1;76242938;-0.064969;-0.116667;2.34853;-0.020079;0.12501;1.00687;5.96619;0.0822867;51.1649;76240000;47.59968277;-122.83034831;105.07547929;1.98005497;0.00000000;4.73465919;3.00000000;
76243155;78.2;29.9;29.5;0;29.9;39.1;39.53;10.6;0.34;39.66;3650;0.34;1.1024;0.3283;85.3039;27.2107;342147;346963;346.428;0;1;-3.682;14.074;76243073;1.1021;0.3283;85.2751;27.2107;0.794;499.725;5.59;25.69;3.288;3224.2;3269.59;1;76243074;-0.0579915;-0.109195;2.31541;0.650868;-0.0784612;1.01039;-4.56013;22.9412;20.6535;76240000;47.59968277;-122.83034831;105.07547929;1.98005497;0.00000000;4.73465919;3.00000000;
76243247;78.7;29.9;29.5;0;29.9;39.1;39.22;10.61;-0.1;39.14;3737;0.314;1.1027;0.3283;85.3253;27.2107;342181;346997;219.229;0;1;-3.78;14.311;76243161;1.1025;0.3283;85.3066;27.2107;0.789;496.526;12.29;43.51;3.444;3224.68;3270.07;1;76243161;0.0212548;-0.0902842;2.22624;0.0885482;0.186287;1.01632;-40.8171;9.4151;32.8274;76240000;47.59968277;-122.83034831;105.07547929;1.98005497;0.00000000;4.73465919;3.00000000;
76243341;78.9;29.9;29.6;0;29.9;39.1;40.34;11.16;-0.08;40.28;3821;0.333;1.103;0.3283;85.3498;27.2107;342218;347034;260.273;0;1;-3.98;14.606;76243247;1.1027;0.3283;85.3276;27.2107;0.785;494.392;9.88;36.67;3.525;3225;3270.39;1;76243252;0.0461858;-0.0774572;2.20132;0.164011;0.0537274;1.01482;1.23722;5.00233;5.21984;76240000;47.59968277;-122.83034831;105.07547929;1.98005497;0.00000000;4.73465919;3.00000000;
76243427;78;30;29.7;0;29.9;39.1;39.76;11.33;0.32;39.87;3916;0.366;1.1033;0.3283;85.3719;27.2107;342254;347070;269.108;0;1;-4.051;15.006;76243427;1.1033;0.3283;85.369;27.2107;0.779;490.101;14.06;46.62;3.679;3225.64;3271.03;1;76243342;0.0467343;-0.0725576;2.20559;0.158053;-0.0492266;1.01276;6.42901;-2.91576;-9.20915;76240000;47.59968277;-122.83034831;105.07547929;1.98005497;0.00000000;4.73465919;3.00000000;
76243516;77.7;30;29.6;0;30;39.1;47.96;14.46;0.08;47.97;4039;0.372;1.1036;0.3283;85.3971;27.2107;342288;347106;132.95;0;1;-4.981;15.741;76243427;1.1033;0.3283;85.369;27.2107;0.779;490.101;14.06;46.62;3.679;3225.64;3271.03;1;76243428;0.0396392;-0.0786142;2.21965;-0.151752;-0.184385;1.00777;-3.39461;-7.84288;-4.99401;76240000;47.59968277;-122.83034831;105.07547929;1.98005497;0.00000000;4.73465919;3.00000000;
76243609;77.5;30;29.6;0;30;39.1;51.35;16.39;0.08;51.31;4264;0.401;1.104;0.3283;85.429;27.2107;342329;347149;63.0756;0;1;-5.675;16.584;76243517;1.1036;0.3283;85.3971;27.2107;0.774;486.902;14.33;47.54;3.818;3226;3271.41;1;76243518;0.0437438;-0.0857165;2.23072;0.136332;0.122028;1.00228;-0.577281;-5.18603;-12.1551;76240000;47.59968277;-122.83034831;105.07547929;1.98005497;0.00000000;4.73465919;3.00000000;
76243700;77.4;30.1;29.8;0;30.2;39.1;49.01;16.16;0.06;49.01;4456;0.417;1.1044;0.3283;85.4604;27.2107;342370;347192;16.6504;0;1;-5.681;17.095;76243699;1.1044;0.3283;85.4604;27.2107;0.763;480.093;16.99;49.71;4.191;3226.73;3272.18;1;76243613;0.0336302;-0.0909217;2.24053;-0.0561865;0.235903;0.998464;9.84962;-1.95925;-4.67025;76240000;47.59968277;-122.83034831;105.07547929;1.98005497;0.00000000;4.73465919;3.00000000;
76243835;77.6;30.1;29.7;0;30.1;39.1;45.61;15.6;-0.09;45.58;4781;0.417;1.105;0.3283;85.5081;27.2107;342435;347257;329.042;0;1;-5.662;17.72;76243835;1.105;0.3283;85.5049;27.2107;0.755;475.28;15.49;43.96;4.494;3227.34;3272.78;1;76243701;0.0221292;-0.0921219;2.24606;0.132099;-0.253885;0.995337;3.11138;-4.20267;1.84681;76241000;47.59969546;-122.83030622;105.05314648;3.57980299;0.00000000;4.18389845;3.00000000;
76243921;77.7;30.1;29.8;0;30.1;39.1;44.56;15.64;0.04;44.51;4919;0.43;1.1054;0.3283;85.5388;27.2107;342479;347301;93.779;0;1;-5.819;18.189;76243921;1.1054;0.3283;85.5354;27.2107;0.75;472.141;15.32;42.39;4.628;3227.76;3273.21;1;76243836;0.013967;-0.0894092;2.23246;0.052899;-0.133899;0.995956;0.397943;5.45997;2.05625;76241000;47.59969546;-122.83030622;105.05314648;3.57980299;0.00000000;4.18389845;3.00000000;
76244016;77.2;30.1;29.8;0;30.1;39.1;45.97;16.76;0.15;46.01;5074;0.447;1.1059;0.3283;85.5712;27.2107;342525;347347;321.798;0;1;-6.168;18.801;76244016;1.1058;0.3283;85.5676;27.2107;0.745;468.857;17.59;46.52;4.775;3228.19;3273.64;1;76243935;0.003216;-0.0845029;2.22404;-0.0368404;-0.253174;0.996364;8.17254;-1.28343;6.64332;76241000;47.59969546;-122.83030622;105.05314648;3.57980299;0.00000000;4.18389845;3.00000000;
76244109;77;30.2;29.8;0;30.2;39.1;48.27;18.23;0.03;48.25;5247;0.471;1.1063;0.3283;85.6066;27.2107;342573;347395;343.756;0;1;-6.661;19.388;76244109;1.1063;0.3283;85.6027;27.2107;0.739;465.194;16.62;47.13;4.93;3228.64;3274.08;1;76244017;0.0015016;-0.0853475;2.20016;0.0204948;-0.535929;0.995241;16.6886;-5.19409;21.2556;76241000;47.59969546;-122.83030622;105.05314648;3.57980299;0.00000000;4.18389845;3.00000000;
76244199;77.3;30.2;29.8;0;30.2;39.1;44.23;16.94;-0.09;44.16;5415;0.469;1.1067;0.3283;85.6397;27.2107;342622;347444;17.3749;0;1;-6.375;19.703;76244191;1.1067;0.3283;85.636;27.2107;0.734;461.825;16.31;45.56;5.095;3229.1;3274.55;1;76244110;0.00137294;-0.0819077;2.16847;-0.00743165;0.0596417;0.999037;8.36598;-1.94066;17.6659;76241000;47.59969546;-122.83030622;105.05314648;3.57980299;0.00000000;4.18389845;3.00000000;
76244283;78.1;30.2;29.9;0;30.2;39.1;37.74;14.49;-0.24;37.65;5584;0.455;1.1071;0.3283;85.6682;27.2107;342672;347494;166.808;0;1;-5.726;19.834;76244282;1.1071;0.3283;85.6655;27.2107;0.73;459.17;12.81;32.98;5.254;3229.58;3275.03;1;76244199;0.0221607;-0.0794208;2.14227;0.030595;-0.167279;1.00032;-15.6354;0.372791;17.9912;76241000;47.59969546;-122.83030622;105.05314648;3.57980299;0.00000000;4.18389845;3.00000000;
76244374;77.4;30.2;30;0;30.3;39.1;35.55;13.83;0.29;35.6;5685;0.497;1.1075;0.3283;85.6952;27.2107;342724;347546;52.6156;0;1;-5.561;20.125;76244374;1.1074;0.3283;85.6917;27.2107;0.726;457.113;15.87;41.23;5.352;3230.06;3275.51;1;76244290;0.0492823;-0.0709629;2.11485;0.308993;0.491399;0.997251;-24.6945;8.81021;14.7644;76241000;47.59969546;-122.83030622;105.05314648;3.57980299;0.00000000;4.18389845;3.00000000;
76244465;77.3;30.3;29.9;0;30.3;39.1;43.31;17.61;0.05;43.28;5822;0.525;1.1079;0.3283;85.7256;27.2107;342773;347595;66.9854;0;1;-6.806;20.843;76244374;1.1074;0.3283;85.6917;27.2107;0.726;457.113;15.87;41.23;5.352;3230.06;3275.51;1;76244375;0.0677075;-0.0652821;2.10126;-0.0355125;-0.457586;0.994602;-8.16433;-3.13637;10.2741;76241000;47.59969546;-122.83030622;105.05314648;3.57980299;0.00000000;4.18389845;3.00000000;
76244557;77.2;30.3;29.9;0;30.3;39.1;41.7;17.32;-0.03;41.69;5976;0.507;1.1083;0.3283;85.7593;27.2107;342827;347649;86.5084;0;1;-6.762;21.262;76244466;1.1079;0.3283;85.7256;27.2107;0.721;453.771;17.02;42.17;5.491;3230.58;3276.02;1;76244466;0.074228;-0.0684085;2.09113;0.0483095;0.00733675;0.986626;-1.29155;-3.50811;1.31246;76241000;47.59969546;-122.83030622;105.05314648;3.57980299;0.00000000;4.18389845;3.00000000;
76244648;77.4;30.3;30;0;30.3;39.1;36.36;15.21;-0.01;36.33;6148;0.513;1.1087;0.3283;85.7891;27.2107;342883;347705;191.744;0;1;-6.229;21.536;76244558;1.1083;0.3283;85.7593;27.2107;0.716;450.666;18.52;39.95;5.635;3231.09;3276.53;1;76244558;0.0722649;-0.0663774;2.09145;-0.162226;0.0957789;0.986142;7.7124;2.52531;-4.24754;76241000;47.59969546;-122.83030622;105.05314648;3.57980299;0.00000000;4.18389845;3.00000000;
76244741;77.5;30.3;30;0;30.3;39.1;36.67;15.63;-0.04;36.64;6289;0.512;1.1091;0.3283;85.8197;27.2107;342942;347764;143.594;0;1;-6.404;21.908;76244649;1.1087;0.3283;85.7891;27.2107;0.712;448.175;15.69;38.54;5.804;3231.61;3277.06;1;76244649;0.0599756;-0.0610653;2.10229;-0.0704629;-0.124749;0.988265;4.85338;4.20779;-4.01392;76241000;47.59969546;-122.83030622;105.05314648;3.57980299;0.00000000;4.18389845;3.00000000;
76244832;77.5;30.4;30;0;30.3;39.1;34.46;14.92;0.04;34.44;6424;0.536;1.1094;0.3283;85.8488;27.2107;343000;347822;41.7827;0;1;-6.299;22.272;76244742;1.1091;0.3283;85.8197;27.2107;0.708;445.625;14.39;32.77;5.937;3232.17;3277.62;1;76244742;0.0543044;-0.056239;2.1052;-0.121159;-0.0397778;0.9881;-18.2255;4.26159;1.24296;76242000;47.59971758;-122.83024752;104.84587270;5.33429241;0.00000000;4.58157825;3.00000000;
76244965;77.2;30.4;30.1;0;30.4;39.1;34.92;15.51;0;34.92;6614;0.543;1.11;0.3283;85.8923;27.2107;343090;347912;11.2581;0;1;-6.477;22.784;76244832;1.1094;0.3283;85.8488;27.2107;0.704;443.376;17.99;35.77;6.059;3232.73;3278.17;1;76244911;0.0552434;-0.0509417;2.10202;-0.128152;-0.321214;0.98916;0.881196;3.72545;3.5776;76242000;47.59971758;-122.83024752;104.84587270;5.33429241;0.00000000;4.58157825;3.00000000;
76245050;77.1;30.4;30.1;0;30.4;39.1;37.02;16.92;0.14;37.01;6750;0.571;1.1104;0.3283;85.9251;27.2107;343150;347972;26.6848;0;1;-7.048;23.365;76244966;1.1101;0.3283;85.8959;27.2107;0.699;439.876;17.44;37.75;6.234;3233.57;3279.01;1;76245046;0.0447896;-0.047002;2.08685;0.143368;0.107151;0.98894;3.19584;-5.91814;5.23004;76242000;47.59971758;-122.83024752;104.84587270;5.33429241;0.00000000;4.58157825;3.00000000;
76245140;76.6;30.4;30;0;30.4;39.1;43.51;20.85;0.11;43.49;6942;0.588;1.111;0.3283;85.965;27.2107;343213;348035;229.627;0;1;-8.291;24.224;76245050;1.1105;0.3283;85.9289;27.2107;0.695;437.209;19.23;40.83;6.371;3234.14;3279.59;1;76245046;0.0447896;-0.047002;2.08685;0.143368;0.107151;0.98894;3.19584;-5.91814;5.23004;76242000;47.59971758;-122.83024752;104.84587270;5.33429241;0.00000000;4.58157825;3.00000000;
76245276;78;30.4;30.1;0;30.5;39.1;34.59;16.71;-0.33;34.5;7254;0.56;1.1116;0.3283;86.013;27.2107;343309;348131;185.538;0;1;-7.146;24.613;76245226;1.1114;0.3283;85.9996;27.2107;0.685;430.895;17.06;35.52;6.74;3235.3;3280.75;1;76245181;0.0360879;-0.057316;2.06169;0.0702073;0.0372138;0.985906;-5.44591;1.68638;16.381;76242000;47.59971758;-122.83024752;104.84587270;5.33429241;0.00000000;4.58157825;3.00000000;
76245364;78.3;30.4;30.1;0;30.4;39.1;21.89;10.33;-0.05;21.85;7369;0.569;1.1119;0.3283;86.0358;27.2107;343379;348201;61.7955;0;1;-5.048;24.495;76245324;1.1117;0.3283;86.0238;27.2107;0.683;429.718;10.64;21.5;6.904;3235.92;3281.37;1;76245277;0.0466344;-0.0498024;2.03138;-0.00844158;-0.113782;0.990932;-25.4065;8.74732;15.46;76242000;47.59971758;-122.83024752;104.84587270;5.33429241;0.00000000;4.58157825;3.00000000;
76245451;78.3;30.5;30.2;0;30.5;39.1;18.96;8.88;-0.04;18.94;7405;0.563;1.1121;0.3283;86.0513;27.2107;343442;348264;295.471;0;1;-4.56;24.388;76245407;1.112;0.3283;86.0436;27.2107;0.682;429.288;6.36;14.18;6.968;3236.57;3282.02;1;76245406;0.0705854;-0.0240447;2.01351;0.425119;-0.0197366;0.998112;2.10329;13.4872;-0.21343;76242000;47.59971758;-122.83024752;104.84587270;5.33429241;0.00000000;4.58157825;3.00000000;
76245550;78.7;30.5;30.2;0;30.5;39.1;19.11;8.99;-0.12;19.04;7470;0.548;1.1123;0.3283;86.0713;27.2107;343514;348336;265.667;0;1;-4.636;24.539;76245496;1.1122;0.3283;86.0627;27.2107;0.682;428.995;9.41;18.87;6.995;3237.19;3282.64;1;76245549;0.0613072;-0.0104237;2.02427;0.199993;0.211343;0.995807;-5.90865;6.63999;-5.76493;76242000;47.59971758;-122.83024752;104.84587270;5.33429241;0.00000000;4.58157825;3.00000000;
76245632;78.9;30.5;30.2;0;30.5;39.1;18.59;8.8;-0.08;18.54;7526;0.542;1.1125;0.3283;86.0869;27.2107;343577;348399;114.257;0;1;-4.629;24.701;76245588;1.1124;0.3283;86.0792;27.2107;0.682;429.117;9.42;19.46;7.054;3237.83;3283.27;1;76245549;0.0613072;-0.0104237;2.02427;0.199993;0.211343;0.995807;-5.90865;6.63999;-5.76493;76245566;47.59966320;-122.83017560;101.40000153;0.00000000;0.00000000;29.07500076;1.00000000;
76245730;78.3;30.5;30.3;0;30.5;39.1;16.04;7.66;0.25;16.05;7598;0.566;1.1127;0.3283;86.1018;27.2107;343646;348468;261.428;0;1;-4.195;24.91;76245684;1.1126;0.3283;86.0919;27.2107;0.682;429.529;7.69;16.99;7.134;3238.47;3283.91;1;76245632;0.0539415;-0.00169522;2.02762;0.149227;-0.231419;0.992467;-3.94748;4.61313;1.39209;76245566;47.59966320;-122.83017560;101.40000153;0.00000000;0.00000000;29.07500076;1.00000000;
76245815;78.8;30.5;30.3;0;30.5;39.1;14.28;6.83;-0.21;14.24;7698;0.564;1.1129;0.3283;86.1156;27.2107;343716;348538;153.544;0;1;-3.936;25.061;76245766;1.1128;0.3283;86.1088;27.2107;0.682;429.596;5.79;12;7.217;3239.11;3284.55;1;76245730;0.0513221;0.000759498;2.01822;0.00311567;-0.16826;0.988078;1.78046;4.55933;9.8147;76243000;47.59975141;-122.83017777;104.46622410;6.67783260;0.00000000;5.33496428;3.00000000;
76245901;79.7;30.5;30.2;0;30.5;39.1;11.22;5.33;-0.33;11.11;7786;0.558;1.113;0.3283;86.1266;27.2107;343785;348607;347.279;0;1;-3.458;25.069;76245859;1.113;0.3283;86.1223;27.2107;0.683;430.17;4.7;10.01;7.293;3239.77;3285.21;1;76245815;0.0456321;0.00398508;1.99574;0.1961;-0.436786;0.985984;9.02909;1.65732;20.3818;76243000;47.59975141;-122.83017777;104.46622410;6.67783260;0.00000000;5.33496428;3.00000000;
76246136;80.3;30.5;30.2;0;30.5;39.1;5.32;2.42;-0.27;5.12;7814;0.517;1.1131;0.3283;86.1316;27.2107;343856;348678;250.87;0;1;-2.324;24.747;76245950;1.1131;0.3283;86.1311;27.2107;0.686;431.546;1.46;3.41;7.348;3240.45;3285.9;1;76245903;0.0582295;0.0115236;1.96559;0.100358;0.17347;0.988704;-12.6992;8.85697;19.3333;76243000;47.59975141;-122.83017777;104.46622410;6.67783260;0.00000000;5.33496428;3.00000000;
