ms_today;input_voltage;temp_mos_max;temp_mos_1;temp_mos_2;temp_mos_3;temp_motor;current_motor;current_in;d_axis_current;q_axis_current;erpm;duty_cycle;amp_hours_used;amp_hours_charged;watt_hours_used;watt_hours_charged;tachometer;tachometer_abs;encoder_position;fault_code;vesc_id;d_axis_voltage;q_axis_voltage;ms_today_setup;amp_hours_setup;amp_hours_charged_setup;watt_hours_setup;watt_hours_charged_setup;battery_level;battery_wh_tot;current_in_setup;current_motor_setup;speed_meters_per_sec;tacho_meters;tacho_abs_meters;num_vescs;ms_today_imu;roll;pitch;yaw;accX;accY;accZ;gyroX;gyroY;gyroZ;gnss_posTime;gnss_lat;gnss_lon;gnss_alt;gnss_gVel;gnss_vVel;gnss_hAcc;gnss_vAcc;
78942217;78.4;33.9;33.6;0;33.9;52;0;0;-0.03;-0.01;0;-0.001;1.0118;0.1678;77.9025;13.4571;289234;291316;54;0;1;-0.019;-0.04;78942134;1.0118;0.1678;77.9025;13.4571;0.664;417.916;0;0;0;2725.97;2745.59;1;78819002;0.0542392;0.345024;-1.73789;-0.342463;-0.0491715;0.930782;-0.191748;-0.0893427;0.197158;78938999;47.61232372;-122.75085938;88.17595444;0.03679051;0.00000000;3.23370934;3.00000000;
78942351;78.4;33.9;33.6;0;34;52;0;0;0;0;0;-0.001;1.0118;0.1678;77.9025;13.4571;289234;291316;54;0;1;0.005;-0.075;78942218;1.0118;0.1678;77.9025;13.4571;0.664;417.929;0;0;0;2725.97;2745.59;1;78942228;0.061038;0.344075;-1.89117;-0.336595;-0.0634384;0.933092;0.0113302;0.539723;0.102629;78938999;47.61232372;-122.75085938;88.17595444;0.03679051;0.00000000;3.23370934;3.00000000;
78942444;78.4;33.9;33.6;0;33.9;52;0;0;0;0;0;-0.001;1.0118;0.1678;77.9025;13.4571;289234;291316;54;0;1;0.004;-0.075;78942353;1.0118;0.1678;77.9025;13.4571;0.664;417.946;0;0;0;2725.97;2745.59;1;78942354;0.0613588;0.344566;-1.89142;-0.335128;-0.0643003;0.933278;0.0174481;0.190455;0.17594;78938999;47.61232372;-122.75085938;88.17595444;0.03679051;0.00000000;3.23370934;3.00000000;
78942533;78.4;33.9;33.6;0;33.9;52;0;0;0;0;0;-0.001;1.0118;0.1678;77.9025;13.4571;289234;291316;54;0;1;0.005;-0.074;78942445;1.0118;0.1678;77.9025;13.4571;0.664;417.949;0;0;0;2725.97;2745.59;1;78942445;0.0614587;0.344782;-1.89195;-0.332442;-0.0652486;0.933025;0.23888;-0.0182947;0.299193;78938999;47.61232372;-122.75085938;88.17595444;0.03679051;0.00000000;3.23370934;3.00000000;
78942625;78.4;33.9;33.6;0;33.9;52;0;0;0;0;0;-0.001;1.0118;0.1678;77.9025;13.4571;289234;291316;54;0;1;0.004;-0.074;78942533;1.0118;0.1678;77.9025;13.4571;0.664;417.957;0;0;0;2725.97;2745.59;1;78942534;0.0614034;0.344878;-1.89232;-0.337789;-0.0652438;0.932944;-0.0400484;0.121948;0.322231;78938999;47.61232372;-122.75085938;88.17595444;0.03679051;0.00000000;3.23370934;3.00000000;
78942724;78.4;33.9;33.6;0;33.9;52;0;0;0;0;0;-0.001;1.0118;0.1678;77.9025;13.4571;289234;291316;54;0;1;0.004;-0.075;78942626;1.0118;0.1678;77.9025;13.4571;0.664;417.965;0;0;0;2725.97;2745.59;1;78942627;0.0613949;0.345036;-1.89266;-0.338548;-0.0622902;0.93293;-0.052284;0.0505247;0.18349;78938999;47.61232372;-122.75085938;88.17595444;0.03679051;0.00000000;3.23370934;3.00000000;
78942813;78.4;33.9;33.6;0;33.9;52;0;0;0;0;0;-0.001;1.0118;0.1678;77.9025;13.4571;289234;291316;54;0;1;0.004;-0.076;78942760;1.0118;0.1678;77.9025;13.4571;0.664;417.976;0;0;0;2725.97;2745.59;1;78942760;0.061418;0.345242;-1.893;-0.334096;-0.0653273;0.932903;-0.0461662;0.191231;0.251786;78938999;47.61232372;-122.75085938;88.17595444;0.03679051;0.00000000;3.23370934;3.00000000;
78942893;78.4;33.9;33.7;0;33.9;52;0;0;0;0;0;-0.001;1.0118;0.1678;77.9025;13.4571;289234;291316;54;0;1;0.005;-0.075;78942859;1.0118;0.1678;77.9025;13.4571;0.664;417.995;0;0;0;2725.97;2745.59;1;78942859;0.0616737;0.345473;-1.89342;-0.3401;-0.065342;0.93274;0.0932981;-0.0188832;0.2417;78939999;47.61232408;-122.75085868;88.32701828;0.03358901;0.00000000;3.15487671;3.00000000;
78942988;78.4;33.9;33.7;0;33.9;52;0;0;0;0;0;-0.001;1.0118;0.1678;77.9025;13.4571;289234;291316;54;0;1;0.004;-0.075;78942937;1.0118;0.1678;77.9025;13.4571;0.664;418.004;0;0;0;2725.97;2745.59;1;78942939;0.0616774;0.345761;-1.89376;-0.334241;-0.0682149;0.932648;0.16303;0.0510506;0.234866;78939999;47.61232408;-122.75085868;88.32701828;0.03358901;0.00000000;3.15487671;3.00000000;
78943073;78.4;33.9;33.5;0;33.9;52;0;0;0;0;0;-0.001;1.0118;0.1678;77.9025;13.4571;289234;291316;54;0;1;0.005;-0.075;78943031;1.0118;0.1678;77.9025;13.4571;0.664;418.004;0;0;0;2725.97;2745.59;1;78943031;0.0616551;0.345875;-1.89412;-0.335998;-0.0638567;0.932433;0.169148;-0.0882284;0.306027;78939999;47.61232408;-122.75085868;88.32701828;0.03358901;0.00000000;3.15487671;3.00000000;
78943170;78.4;33.9;33.7;0;33.9;52;0;0;0;0;0;-0.001;1.0118;0.1678;77.9025;13.4571;289234;291316;54;0;1;0.004;-0.075;78943119;1.0118;0.1678;77.9025;13.4571;0.664;418.006;0;0;0;2725.97;2745.59;1;78943170;0.0617148;0.345893;-1.89445;-0.341704;-0.0672523;0.932178;0.0994159;-0.0181695;0.311428;78939999;47.61232408;-122.75085868;88.32701828;0.03358901;0.00000000;3.15487671;3.00000000;
78943308;78.4;33.9;33.6;0;34;52;0;0;0;0;0;-0.001;1.0118;0.1678;77.9025;13.4571;289234;291316;54;0;1;0.005;-0.075;78943214;1.0118;0.1678;77.9025;13.4571;0.664;418.011;0;0;0;2725.97;2745.59;1;78943170;0.0617148;0.345893;-1.89445;-0.341704;-0.0672523;0.932178;0.0994159;-0.0181695;0.311428;78939999;47.61232408;-122.75085868;88.32701828;0.03358901;0.00000000;3.15487671;3.00000000;
78943392;78.4;33.9;33.6;0;33.9;52;0;0;0;0;0;-0.001;1.0118;0.1678;77.9025;13.4571;289234;291316;54;0;1;0.004;-0.074;78943309;1.0118;0.1678;77.9025;13.4571;0.664;418.011;0;0;0;2725.97;2745.59;1;78943309;0.0617499;0.345871;-1.89516;-0.337115;-0.0638156;0.931978;-0.0461662;-0.0187579;0.253935;78939999;47.61232408;-122.75085868;88.32701828;0.03358901;0.00000000;3.15487671;3.00000000;
78943531;78.4;33.9;33.7;0;33.9;52;0;0;0;0;0;-0.001;1.0118;0.1678;77.9025;13.4571;289234;291316;54;0;1;0.004;-0.075;78943392;1.0118;0.1678;77.9025;13.4571;0.664;418.011;0;0;0;2725.97;2745.59;1;78943393;0.0619542;0.345829;-1.89549;-0.336902;-0.0593989;0.932047;-0.179513;0.0520773;0.335182;78939999;47.61232408;-122.75085868;88.32701828;0.03358901;0.00000000;3.15487671;3.00000000;
78943619;78.4;33.9;33.6;0;33.9;52;0;0;0;0;0;-0.001;1.0118;0.1678;77.9025;13.4571;289234;291316;54;0;1;0.004;-0.074;78943532;1.0118;0.1678;77.9025;13.4571;0.664;418.011;0;0;0;2725.97;2745.59;1;78943534;0.062372;0.345835;-1.89594;-0.335913;-0.0667746;0.932123;0.0235659;0.0511758;0.247101;78939999;47.61232408;-122.75085868;88.32701828;0.03358901;0.00000000;3.15487671;3.00000000;
78943704;78.4;33.9;33.6;0;34;52;0;0;0;0;0;-0.001;1.0118;0.1678;77.9025;13.4571;289234;291316;54;0;1;0.005;-0.075;78943620;1.0118;0.1678;77.9025;13.4571;0.664;418.011;0;0;0;2725.97;2745.59;1;78943621;0.0624218;0.345769;-1.89627;-0.336126;-0.0643596;0.932096;0.0296837;-0.298092;0.320412;78939999;47.61232408;-122.75085868;88.32701828;0.03358901;0.00000000;3.15487671;3.00000000;
78943793;78.4;33.9;33.6;0;33.9;52;0;0;0;0;0;-0.001;1.0118;0.1678;77.9025;13.4571;289234;291316;54;0;1;0.005;-0.075;78943704;1.0118;0.1678;77.9025;13.4571;0.664;418.018;0;0;0;2725.97;2745.59;1;78943705;0.0624317;0.345582;-1.89664;-0.335887;-0.0613467;0.932008;0.0994159;0.0518268;0.310712;78939999;47.61232408;-122.75085868;88.32701828;0.03358901;0.00000000;3.15487671;3.00000000;
78943883;78.4;33.9;33.6;0;33.9;52;0;0;0;0;0;-0.001;1.0118;0.1678;77.9025;13.4571;289234;291316;54;0;1;0.005;-0.075;78943882;1.0118;0.1678;77.9025;13.4571;0.664;418.03;0;0;0;2725.97;2745.59;1;78943795;0.062227;0.34551;-1.89706;-0.337516;-0.0638052;0.931936;0.105534;-0.0874522;0.381873;78940999;47.61232449;-122.75085862;88.30015150;0.02522300;0.00000000;3.11208344;3.00000000;
78943973;78.4;33.9;33.6;0;33.9;52;0;0;0;0;0;-0.001;1.0118;0.1678;77.9025;13.4571;289234;291316;54;0;1;0.005;-0.076;78943882;1.0118;0.1678;77.9025;13.4571;0.664;418.03;0;0;0;2725.97;2745.59;1;78943886;0.0620713;0.345486;-1.89747;-0.338582;-0.0653935;0.931922;0.0235659;-0.0888169;0.248534;78940999;47.61232449;-122.75085862;88.30015150;0.02522300;0.00000000;3.11208344;3.00000000;
78944070;78.4;33.9;33.6;0;33.8;52;0;0;0;0;0;-0.001;1.0118;0.1678;77.9025;13.4571;289234;291316;54;0;1;0.004;-0.074;78944070;1.0118;0.1678;77.9025;13.4571;0.664;418.052;0;0;0;2725.97;2745.59;1;78943978;0.0621238;0.345097;-1.89785;-0.337405;-0.066175;0.931725;0.169148;0.121761;0.303878;78940999;47.61232449;-122.75085862;88.30015150;0.02522300;0.00000000;3.11208344;3.00000000;
78944159;78.4;33.9;33.5;0;33.9;52;0;0;0;0;0;-0.001;1.0118;0.1678;77.9025;13.4571;289234;291316;54;0;1;0.005;-0.075;78944070;1.0118;0.1678;77.9025;13.4571;0.664;418.052;0;0;0;2725.97;2745.59;1;78944071;0.0618158;0.345256;-1.89831;-0.337687;-0.064801;0.932065;0.0932981;-0.0188832;0.2417;78940999;47.61232449;-122.75085862;88.30015150;0.02522300;0.00000000;3.11208344;3.00000000;
78944245;78.4;33.9;33.6;0;33.9;52;0;0;0;0;0;-0.001;1.0118;0.1678;77.9025;13.4571;289234;291316;54;0;1;0.004;-0.073;78944160;1.0118;0.1678;77.9025;13.4571;0.664;418.063;0;0;0;2725.97;2745.59;1;78944160;0.0617396;0.345297;-1.89867;-0.340443;-0.0582828;0.933352;0.0296837;0.121886;0.316113;78940999;47.61232449;-122.75085862;88.30015150;0.02522300;0.00000000;3.11208344;3.00000000;
78944333;78.4;33.9;33.6;0;33.9;52;0;0;0;0;0;-0.001;1.0118;0.1678;77.9025;13.4571;289234;291316;54;0;1;0.004;-0.073;78944246;1.0118;0.1678;77.9025;13.4571;0.664;418.086;0;0;0;2725.97;2745.59;1;78944246;0.0614434;0.345429;-1.89909;-0.335068;-0.0672784;0.932439;0.378344;-0.158413;0.288391;78940999;47.61232449;-122.75085862;88.30015150;0.02522300;0.00000000;3.11208344;3.00000000;
78944425;78.4;33.9;33.6;0;33.8;52;0;0;0;0;0;-0.001;1.0118;0.1678;77.9025;13.4571;289234;291316;54;0;1;0.004;-0.075;78944337;1.0118;0.1678;77.9025;13.4571;0.664;418.104;0;0;0;2725.97;2745.59;1;78944340;0.0611026;0.345388;-1.89951;-0.33587;-0.0667696;0.93243;0.169148;-0.0182321;0.305311;78940999;47.61232449;-122.75085862;88.30015150;0.02522300;0.00000000;3.11208344;3.00000000;
78944522;78.4;33.9;33.6;0;33.9;52;0;0;0;0;0;-0.001;1.0118;0.1678;77.9025;13.4571;289234;291316;54;0;1;0.005;-0.075;78944476;1.0118;0.1678;77.9025;13.4571;0.664;418.108;0;0;0;2725.97;2745.59;1;78944478;0.0610119;0.345656;-1.90001;-0.33767;-0.0590005;0.932656;0.0358015;0.192596;0.385125;78940999;47.61232449;-122.75085862;88.30015150;0.02522300;0.00000000;3.11208344;3.00000000;
78944657;78.4;33.9;33.6;0;33.9;52;0;0;0;0;0;-0.001;1.0118;0.1678;77.9025;13.4571;289234;291316;54;0;1;0.004;-0.075;78944608;1.0118;0.1678;77.9025;13.4571;0.664;418.119;0;0;0;2725.97;2745.59;1;78944608;0.0608555;0.345883;-1.90039;-0.338002;-0.0623408;0.932741;0.175266;0.0524779;0.374323;78940999;47.61232449;-122.75085862;88.30015150;0.02522300;0.00000000;3.11208344;3.00000000;
78944739;78.4;33.9;33.6;0;33.9;52;0;0;0;0;0;-0.001;1.0118;0.1678;77.9025;13.4571;289234;291316;54;0;1;0.005;-0.075;78944699;1.0118;0.1678;77.9025;13.4571;0.664;418.13;0;0;0;2725.97;2745.59;1;78944699;0.060551;0.346175;-1.90096;-0.336442;-0.0653152;0.932818;0.0994159;-0.0181695;0.311428;78940999;47.61232449;-122.75085862;88.30015150;0.02522300;0.00000000;3.11208344;3.00000000;
78944838;78.4;33.9;33.6;0;33.9;51.9;0;0;0;0;0;-0.001;1.0118;0.1678;77.9025;13.4571;289234;291316;54;0;1;0.004;-0.075;78944786;1.0118;0.1678;77.9025;13.4571;0.664;418.143;0;0;0;2725.97;2745.59;1;78944786;0.0605966;0.346284;-1.9013;-0.33338;-0.0638941;0.93278;0.0296837;0.191882;0.315397;78940999;47.61232449;-122.75085862;88.30015150;0.02522300;0.00000000;3.11208344;3.00000000;
78944920;78.4;33.9;33.6;0;33.8;51.9;0;0;0;0;0;-0.001;1.0118;0.1678;77.9025;13.4571;289234;291316;54;0;1;0.004;-0.075;78944871;1.0118;0.1678;77.9025;13.4571;0.664;418.148;0;0;0;2725.97;2745.59;1;78944877;0.0606249;0.346258;-1.90163;-0.341891;-0.069657;0.932611;-0.052284;0.260514;0.181341;78941999;47.61232523;-122.75085830;88.33305941;0.05265576;0.00000000;3.07963181;3.00000000;
78945012;78.4;33.9;33.6;0;33.9;51.9;0;0;0;0;0;-0.001;1.0118;0.1678;77.9025;13.4571;289234;291316;54;0;1;0.004;-0.075;78944962;1.0118;0.1678;77.9025;13.4571;0.664;418.148;0;0;0;2725.97;2745.59;1;78944963;0.060782;0.346293;-1.90195;-0.339478;-0.0598445;0.932523;-0.267598;-0.15999;0.134263;78941999;47.61232523;-122.75085830;88.33305941;0.05265576;0.00000000;3.07963181;3.00000000;
78945098;78.4;33.9;33.6;0;33.9;51.9;0;0;0;0;0;-0.001;1.0118;0.1678;77.9025;13.4571;289234;291316;54;0;1;0.005;-0.076;78945056;1.0118;0.1678;77.9025;13.4571;0.664;418.161;0;0;0;2725.97;2745.59;1;78945056;0.0613584;0.34632;-1.90222;-0.334267;-0.0609555;0.932458;-0.18563;-0.0886291;0.266886;78941999;47.61232523;-122.75085830;88.33305941;0.05265576;0.00000000;3.07963181;3.00000000;
78945242;78.4;33.9;33.6;0;33.9;51.9;0;0;0;0;0;-0.001;1.0118;0.1678;77.9025;13.4571;289234;291316;54;0;1;0.005;-0.075;78945142;1.0118;0.1678;77.9025;13.4571;0.664;418.177;0;0;0;2725.97;2745.59;1;78945143;0.0619327;0.346051;-1.90246;-0.338011;-0.0727036;0.932124;0.0174481;-0.0895306;0.178805;78941999;47.61232523;-122.75085830;88.33305941;0.05265576;0.00000000;3.07963181;3.00000000;
78945375;78.4;33.9;33.6;0;33.8;51.9;0;0;0;0;0;-0.001;1.0118;0.1678;77.9025;13.4571;289234;291316;54;0;1;0.005;-0.075;78945324;1.0118;0.1678;77.9025;13.4571;0.664;418.218;0;0;0;2725.97;2745.59;1;78945284;0.0619992;0.345678;-1.90301;-0.337721;-0.0607869;0.931925;0.0113302;-0.0202479;0.10836;78941999;47.61232523;-122.75085830;88.33305941;0.05265576;0.00000000;3.07963181;3.00000000;
78945458;78.4;33.9;33.6;0;33.9;51.9;0;0;0;0;0;-0.001;1.0118;0.1678;77.9025;13.4571;289234;291316;54;0;1;0.005;-0.076;78945413;1.0118;0.1678;77.9025;13.4571;0.664;418.233;0;0;0;2725.97;2745.59;1;78945375;0.0622235;0.345759;-1.90333;-0.339572;-0.0619216;0.93211;-0.191748;0.120646;0.195009;78941999;47.61232523;-122.75085830;88.33305941;0.05265576;0.00000000;3.07963181;3.00000000;
78945547;78.4;33.9;33.6;0;33.8;51.9;0;0;0;0;0;-0.001;1.0118;0.1678;77.9025;13.4571;289234;291316;54;0;1;0.005;-0.076;78945505;1.0118;0.1678;77.9025;13.4571;0.664;418.261;0;0;0;2725.97;2745.59;1;78945459;0.0627354;0.345825;-1.90358;-0.335478;-0.0654314;0.932181;-0.191748;-0.0193464;0.196441;78941999;47.61232523;-122.75085830;88.33305941;0.05265576;0.00000000;3.07963181;3.00000000;
78945638;78.4;33.9;33.6;0;33.9;51.9;0;0;0;0;0;-0.001;1.0118;0.1678;77.9025;13.4571;289234;291316;54;0;1;0.005;-0.075;78945595;1.0118;0.1678;77.9025;13.4571;0.665;418.288;0;0;0;2725.97;2745.59;1;78945549;0.0632772;0.345859;-1.9038;-0.33657;-0.068746;0.93225;-0.0461662;0.121235;0.252502;78941999;47.61232523;-122.75085830;88.33305941;0.05265576;0.00000000;3.07963181;3.00000000;
78945729;78.4;33.9;33.6;0;33.9;51.9;0;0;0;0;0;-0.001;1.0118;0.1678;77.9025;13.4571;289234;291316;54;0;1;0.004;-0.073;78945686;1.0118;0.1678;77.9025;13.4571;0.665;418.313;0;0;0;2725.97;2745.59;1;78945639;0.0633967;0.345807;-1.90414;-0.335844;-0.0657335;0.932185;-0.191748;0.120646;0.195009;78941999;47.61232523;-122.75085830;88.33305941;0.05265576;0.00000000;3.07963181;3.00000000;
78945862;78.4;33.9;33.5;0;33.9;51.9;0;0;0;0;0;-0.001;1.0118;0.1678;77.9025;13.4571;289234;291316;54;0;1;0.005;-0.074;78945777;1.0118;0.1678;77.9025;13.4571;0.665;418.327;0;0;0;2725.97;2745.59;1;78945729;0.0634863;0.345883;-1.90449;-0.33784;-0.0629242;0.932196;0.0994159;-0.228158;0.313578;78942999;47.61232502;-122.75085834;88.26411703;0.03169728;0.00000000;3.05128884;3.00000000;
78945952;78.4;33.9;33.6;0;33.9;51.9;0;0;0;0;0;-0.001;1.0118;0.1678;77.9025;13.4571;289234;291316;54;0;1;0.005;-0.076;78945863;1.0118;0.1678;77.9025;13.4571;0.665;418.33;0;0;0;2725.97;2745.59;1;78945862;0.0632842;0.345472;-1.90507;-0.335051;-0.0629417;0.93196;0.0994159;-0.158162;0.312861;78942999;47.61232502;-122.75085834;88.26411703;0.03169728;0.00000000;3.05128884;3.00000000;
78946052;78.4;33.9;33.6;0;33.9;51.9;0;0;0;0;0;-0.001;1.0118;0.1678;77.9025;13.4571;289234;291316;54;0;1;0.005;-0.074;78945953;1.0118;0.1678;77.9025;13.4571;0.665;418.33;0;0;0;2725.97;2745.59;1;78945965;0.0633392;0.345329;-1.9054;-0.332783;-0.0701681;0.93199;0.0235659;-0.0188206;0.247817;78942999;47.61232502;-122.75085834;88.26411703;0.03169728;0.00000000;3.05128884;3.00000000;
78946135;78.4;33.9;33.5;0;33.9;51.9;0;0;0;0;0;-0.001;1.0118;0.1678;77.9025;13.4571;289234;291316;54;0;1;0.005;-0.074;78946053;1.0118;0.1678;77.9025;13.4571;0.665;418.331;0;0;0;2725.97;2745.59;1;78946053;0.0632415;0.345426;-1.90576;-0.337184;-0.0682725;0.932205;0.169148;-0.0182321;0.305311;78942999;47.61232502;-122.75085834;88.26411703;0.03169728;0.00000000;3.05128884;3.00000000;
78946222;78.4;33.9;33.6;0;33.9;51.9;0;0;0;0;0;-0.001;1.0118;0.1678;77.9025;13.4571;289234;291316;54;0;1;0.004;-0.075;78946136;1.0118;0.1678;77.9025;13.4571;0.665;418.332;0;0;0;2725.97;2745.59;1;78946136;0.0628649;0.345319;-1.90618;-0.336774;-0.0652397;0.932237;0.169148;-0.158225;0.306744;78942999;47.61232502;-122.75085834;88.26411703;0.03169728;0.00000000;3.05128884;3.00000000;
78946363;78.4;33.9;33.6;0;33.9;51.9;0;0;0;0;0;-0.001;1.0118;0.1678;77.9025;13.4571;289234;291316;54;0;1;0.004;-0.075;78946323;1.0118;0.1678;77.9025;13.4571;0.665;418.34;0;0;0;2725.97;2745.59;1;78946236;0.0627575;0.345248;-1.90659;-0.332467;-0.0653087;0.932297;0.302494;-0.159064;0.22478;78942999;47.61232502;-122.75085834;88.26411703;0.03169728;0.00000000;3.05128884;3.00000000;
78946494;78.4;33.9;33.6;0;33.8;51.9;0;0;0;0;0;-0.001;1.0118;0.1678;77.9025;13.4571;289234;291316;54;0;1;0.005;-0.075;78946493;1.0118;0.1678;77.9025;13.4571;0.665;418.361;0;0;0;2725.97;2745.59;1;78946364;0.0627826;0.345008;-1.90715;-0.337346;-0.0632973;0.932414;-0.115898;0.051301;0.259336;78942999;47.61232502;-122.75085834;88.26411703;0.03169728;0.00000000;3.05128884;3.00000000;
78946581;78.4;33.9;33.6;0;33.9;51.9;0;0;0;0;0;-0.001;1.0118;0.1678;77.9025;13.4571;289234;291316;54;0;1;0.005;-0.075;78946493;1.0118;0.1678;77.9025;13.4571;0.665;418.361;0;0;0;2725.97;2745.59;1;78946495;0.0638639;0.345128;-1.90746;-0.336041;-0.0677655;0.932713;-0.267598;0.0499989;0.132114;78942999;47.61232502;-122.75085834;88.26411703;0.03169728;0.00000000;3.05128884;3.00000000;
78946672;78.4;33.9;33.5;0;33.9;51.9;0;0;0;0;0;-0.001;1.0118;0.1678;77.9025;13.4571;289234;291316;54;0;1;0.004;-0.075;78946584;1.0118;0.1678;77.9025;13.4571;0.665;418.383;0;0;0;2725.97;2745.59;1;78946585;0.0642236;0.345037;-1.9077;-0.335657;-0.0691846;0.932658;0.0932981;-0.0188832;0.2417;78942999;47.61232502;-122.75085834;88.26411703;0.03169728;0.00000000;3.05128884;3.00000000;
78946767;78.4;33.9;33.6;0;33.8;51.9;0;0;0;0;0;-0.001;1.0118;0.1678;77.9025;13.4571;289234;291316;54;0;1;0.004;-0.074;78946673;1.0118;0.1678;77.9025;13.4571;0.665;418.389;0;0;0;2725.97;2745.59;1;78946674;0.0644825;0.344951;-1.908;-0.333857;-0.0667062;0.932578;-0.0461662;-0.0887543;0.254651;78942999;47.61232502;-122.75085834;88.26411703;0.03169728;0.00000000;3.05128884;3.00000000;
78946853;78.4;33.9;33.6;0;33.8;51.9;0;0;0;0;0;-0.001;1.0118;0.1678;77.9025;13.4571;289234;291316;54;0;1;0.005;-0.076;78946767;1.0118;0.1678;77.9025;13.4571;0.665;418.39;0;0;0;2725.97;2745.59;1;78946768;0.0646544;0.344917;-1.90832;-0.33454;-0.0648339;0.932574;0.16303;-0.0889421;0.236299;78943999;47.61232500;-122.75085857;88.18009580;0.02873787;0.00000000;3.04533243;3.00000000;
78946952;78.4;33.8;33.6;0;33.9;51.9;0;0;0;0;0;-0.001;1.0118;0.1678;77.9025;13.4571;289234;291316;54;0;1;0.004;-0.075;78946952;1.0118;0.1678;77.9025;13.4571;0.665;418.417;0;0;0;2725.97;2745.59;1;78946857;0.0644628;0.344876;-1.90874;-0.334514;-0.0681896;0.932545;0.169148;0.121761;0.303878;78943999;47.61232500;-122.75085857;88.18009580;0.02873787;0.00000000;3.04533243;3.00000000;
78947086;78.4;33.9;33.6;0;33.9;51.9;0;0;0;0;0;-0.001;1.0118;0.1678;77.9025;13.4571;289234;291316;54;0;1;0.005;-0.074;78946952;1.0118;0.1678;77.9025;13.4571;0.665;418.417;0;0;0;2725.97;2745.59;1;78946953;0.0641958;0.34476;-1.90915;-0.334599;-0.0730793;0.932495;0.308612;-0.15835;0.294509;78943999;47.61232500;-122.75085857;88.18009580;0.02873787;0.00000000;3.04533243;3.00000000;
78947212;78.4;33.9;33.5;0;33.9;51.9;0;0;0;0;0;-0.001;1.0118;0.1678;77.9025;13.4571;289234;291316;54;0;1;0.005;-0.074;78947087;1.0118;0.1678;77.9025;13.4571;0.665;418.428;0;0;0;2725.97;2745.59;1;78947088;0.0637462;0.344517;-1.90978;-0.337857;-0.063357;0.932412;-0.128134;-0.300108;0.123461;78943999;47.61232500;-122.75085857;88.18009580;0.02873787;0.00000000;3.04533243;3.00000000;
78947312;78.4;33.8;33.5;0;33.8;51.9;0;0;0;0;0;-0.001;1.0118;0.1678;77.9025;13.4571;289234;291316;54;0;1;0.004;-0.075;78947212;1.0118;0.1678;77.9025;13.4571;0.665;418.432;0;0;0;2725.97;2745.59;1;78947214;0.0639558;0.34484;-1.91033;-0.335649;-0.050812;0.932912;-0.26148;0.190705;0.20041;78943999;47.61232500;-122.75085857;88.18009580;0.02873787;0.00000000;3.04533243;3.00000000;
78947398;78.4;33.9;33.7;0;33.9;51.8;0;0;0;0;0;-0.001;1.0118;0.1678;77.9025;13.4571;289234;291316;54;0;1;0.004;-0.075;78947397;1.0118;0.1678;77.9025;13.4571;0.665;418.438;0;0;0;2725.97;2745.59;1;78947353;0.065455;0.345228;-1.91042;-0.335938;-0.061955;0.933034;-0.48903;0.118756;0.0102931;78943999;47.61232500;-122.75085857;88.18009580;0.02873787;0.00000000;3.04533243;3.00000000;
78947493;78.4;33.9;33.6;0;33.9;51.9;0;0;0;0;0;-0.001;1.0118;0.1678;77.9025;13.4571;289234;291316;54;0;1;0.005;-0.075;78947493;1.0118;0.1678;77.9025;13.4571;0.665;418.444;0;0;0;2725.97;2745.59;1;78947447;0.0665562;0.345322;-1.91053;-0.342301;-0.0717138;0.932866;-0.122016;0.19058;0.188175;78943999;47.61232500;-122.75085857;88.18009580;0.02873787;0.00000000;3.04533243;3.00000000;
78947574;78.4;33.8;33.6;0;33.9;51.8;0;0;0;0;0;-0.001;1.0118;0.1678;77.9025;13.4571;289234;291316;54;0;1;0.005;-0.075;78947493;1.0118;0.1678;77.9025;13.4571;0.665;418.444;0;0;0;2725.97;2745.59;1;78947572;0.0667783;0.344772;-1.91079;-0.334301;-0.082316;0.932241;0.00521243;-0.860918;0.0472288;78943999;47.61232500;-122.75085857;88.18009580;0.02873787;0.00000000;3.04533243;3.00000000;
78947665;78.4;33.8;33.6;0;33.9;51.8;0;0;0;0;0;-0.001;1.0118;0.1678;77.9025;13.4571;289234;291316;54;0;1;0.005;-0.075;78947618;1.0118;0.1678;77.9025;13.4571;0.665;418.466;0;0;0;2725.97;2745.59;1;78947572;0.0667783;0.344772;-1.91079;-0.334301;-0.082316;0.932241;0.00521243;-0.860918;0.0472288;78943999;47.61232500;-122.75085857;88.18009580;0.02873787;0.00000000;3.04533243;3.00000000;
78947802;78.4;33.9;33.5;0;33.9;51.8;0;0;0;0;0;-0.001;1.0118;0.1678;77.9025;13.4571;289234;291316;54;0;1;0.004;-0.075;78947710;1.0118;0.1678;77.9025;13.4571;0.665;418.479;0;0;0;2725.97;2745.59;1;78947666;0.0662047;0.344484;-1.91149;-0.33239;-0.0743998;0.932184;0.169148;-0.0882284;0.306027;78943999;47.61232500;-122.75085857;88.18009580;0.02873787;0.00000000;3.04533243;3.00000000;
78947895;78.4;33.9;33.5;0;33.8;51.8;0;0;0;0;0;-0.001;1.0118;0.1678;77.9025;13.4571;289234;291316;54;0;1;0.005;-0.076;78947803;1.0118;0.1678;77.9025;13.4571;0.665;418.492;0;0;0;2725.97;2745.59;1;78947803;0.06616;0.34474;-1.91203;-0.333278;-0.0619874;0.93246;-0.331213;-0.159214;0.210109;78944999;47.61232522;-122.75085873;88.15026079;0.02777722;0.00000000;3.03958511;3.00000000;
78947977;78.4;33.9;33.6;0;33.9;51.8;0;0;0;0;0;-0.001;1.0118;0.1678;77.9025;13.4571;289234;291316;54;0;1;0.004;-0.075;78947895;1.0118;0.1678;77.9025;13.4571;0.665;418.513;0;0;0;2725.97;2745.59;1;78947896;0.0666549;0.344344;-1.91223;-0.3317;-0.0783945;0.932271;0.0810624;-0.0903068;0.102959;78944999;47.61232522;-122.75085873;88.15026079;0.02777722;0.00000000;3.03958511;3.00000000;
78948068;78.4;33.9;33.6;0;33.8;51.8;0;0;0;0;0;-0.001;1.0118;0.1678;77.9025;13.4571;289234;291316;54;0;1;0.005;-0.075;78947978;1.0118;0.1678;77.9025;13.4571;0.665;418.54;0;0;0;2725.97;2745.59;1;78947979;0.0662915;0.344436;-1.91269;-0.336058;-0.0638065;0.932436;0.181384;0.0531915;0.444051;78944999;47.61232522;-122.75085873;88.15026079;0.02777722;0.00000000;3.03958511;3.00000000;
78948164;78.4;33.9;33.5;0;33.9;51.8;0;0;0;0;0;-0.001;1.0118;0.1678;77.9025;13.4571;289234;291316;54;0;1;0.004;-0.075;78948069;1.0118;0.1678;77.9025;13.4571;0.665;418.549;0;0;0;2725.97;2745.59;1;78948069;0.0661109;0.344678;-1.91308;-0.335725;-0.064858;0.932603;0.226644;0.33026;0.156154;78944999;47.61232522;-122.75085873;88.15026079;0.02777722;0.00000000;3.03958511;3.00000000;
78948254;78.4;33.8;33.5;0;33.9;51.8;0;0;0;0;0;-0.001;1.0118;0.1678;77.9025;13.4571;289234;291316;54;0;1;0.005;-0.074;78948254;1.0118;0.1678;77.9025;13.4571;0.665;418.563;0;0;0;2725.97;2745.59;1;78948165;0.0661478;0.345044;-1.91339;-0.335811;-0.0707236;0.93275;-0.191748;0.120646;0.195009;78944999;47.61232522;-122.75085873;88.15026079;0.02777722;0.00000000;3.03958511;3.00000000;
78948382;78.4;33.9;33.6;0;33.9;51.8;0;0;0;0;0;-0.001;1.0118;0.1678;77.9025;13.4571;289234;291316;54;0;1;0.004;-0.076;78948254;1.0118;0.1678;77.9025;13.4571;0.665;418.563;0;0;0;2725.97;2745.59;1;78948255;0.0668294;0.345104;-1.91358;-0.33413;-0.0676569;0.932603;-0.325095;-0.0885039;0.279121;78944999;47.61232522;-122.75085873;88.15026079;0.02777722;0.00000000;3.03958511;3.00000000;
78948524;78.4;33.8;33.6;0;33.8;51.8;0;0;0;0;0;-0.001;1.0118;0.1678;77.9025;13.4571;289234;291316;54;0;1;0.005;-0.076;78948384;1.0118;0.1678;77.9025;13.4571;0.665;418.578;0;0;0;2725.97;2745.59;1;78948396;0.0672322;0.345474;-1.91399;-0.335768;-0.0746224;0.932493;0.156912;-0.0196594;0.165854;78944999;47.61232522;-122.75085873;88.15026079;0.02777722;0.00000000;3.03958511;3.00000000;
78948614;78.4;33.8;33.6;0;33.9;51.8;0;0;0;0;0;-0.001;1.0118;0.1678;77.9025;13.4571;289234;291316;54;0;1;0.004;-0.075;78948528;1.0118;0.1678;77.9025;13.4571;0.665;418.602;0;0;0;2725.97;2745.59;1;78948529;0.0666131;0.345759;-1.91469;-0.334198;-0.0691859;0.932342;0.232762;0.330973;0.225883;78944999;47.61232522;-122.75085873;88.15026079;0.02777722;0.00000000;3.03958511;3.00000000;
78948702;78.4;33.8;33.5;0;33.9;51.8;0;0;0;0;0;-0.001;1.0118;0.1678;77.9025;13.4571;289234;291316;54;0;1;0.004;-0.075;78948615;1.0118;0.1678;77.9025;13.4571;0.665;418.607;0;0;0;2725.97;2745.59;1;78948616;0.0662407;0.346288;-1.91508;-0.337056;-0.0692335;0.932489;0.0994159;0.0518268;0.310712;78944999;47.61232522;-122.75085873;88.15026079;0.02777722;0.00000000;3.03958511;3.00000000;
78948797;78.4;33.8;33.5;0;33.8;51.8;0;0;0;0;0;-0.001;1.0118;0.1678;77.9025;13.4571;289234;291316;54;0;1;0.005;-0.074;78948703;1.0118;0.1678;77.9025;13.4571;0.665;418.617;0;0;0;2725.97;2745.59;1;78948703;0.0656069;0.346759;-1.9155;-0.337473;-0.067704;0.932492;0.815091;0.543316;0.453708;78944999;47.61232522;-122.75085873;88.15026079;0.02777722;0.00000000;3.03958511;3.00000000;
78948888;78.4;33.8;33.6;0;33.9;51.8;0;0;0;0;0;-0.001;1.0118;0.1678;77.9025;13.4571;289234;291316;54;0;1;0.005;-0.076;78948798;1.0118;0.1678;77.9025;13.4571;0.665;418.63;0;0;0;2725.97;2745.59;1;78948799;0.0648234;0.346601;-1.91602;-0.341568;-0.0688718;0.931971;0.441959;-0.789156;0.218993;78945999;47.61232489;-122.75085914;88.00258051;0.04717637;0.00000000;3.03494835;3.00000000;
78948972;78.4;33.8;33.6;0;33.9;51.8;0;0;0;0;0;-0.001;1.0118;0.1678;77.9025;13.4571;289234;291316;54;0;1;0.005;-0.075;78948889;1.0118;0.1678;77.9025;13.4571;0.665;418.644;0;0;0;2725.97;2745.59;1;78948890;0.0645162;0.345333;-1.91656;-0.339205;-0.0505983;0.931135;-0.26148;-0.0192838;0.202559;78945999;47.61232489;-122.75085914;88.00258051;0.04717637;0.00000000;3.03494835;3.00000000;
78949058;78.4;33.9;33.5;0;33.9;51.8;0;0;0;0;0;-0.001;1.0118;0.1678;77.9025;13.4571;289234;291316;54;0;1;0.005;-0.075;78948973;1.0118;0.1678;77.9025;13.4571;0.665;418.657;0;0;0;2725.97;2745.59;1;78948973;0.0649088;0.344644;-1.91686;-0.336723;-0.0626795;0.931027;-0.558763;-0.511149;0.0228582;78945999;47.61232489;-122.75085914;88.00258051;0.04717637;0.00000000;3.03494835;3.00000000;
78949153;78.4;33.8;33.6;0;33.9;51.8;0;0;0;0;0;-0.001;1.0118;0.1678;77.9025;13.4571;289234;291316;54;0;1;0.005;-0.076;78949060;1.0118;0.1678;77.9025;13.4571;0.665;418.684;0;0;0;2725.97;2745.59;1;78949060;0.0656669;0.344342;-1.91703;-0.333465;-0.0692718;0.931419;-0.610141;-0.22896;0.235296;78945999;47.61232489;-122.75085914;88.00258051;0.04717637;0.00000000;3.03494835;3.00000000;
78949250;78.4;33.8;33.6;0;33.9;51.8;0;0;0;0;0;-0.001;1.0118;0.1678;77.9025;13.4571;289234;291316;54;0;1;0.005;-0.076;78949199;1.0118;0.1678;77.9025;13.4571;0.665;418.722;0;0;0;2725.97;2745.59;1;78949200;0.0667275;0.343818;-1.91727;-0.336049;-0.0729627;0.931736;-0.18563;-0.0886291;0.266886;78945999;47.61232489;-122.75085914;88.00258051;0.04717637;0.00000000;3.03494835;3.00000000;
78949340;78.4;33.8;33.6;0;33.8;51.8;0;0;0;0;0;-0.001;1.0118;0.1678;77.9025;13.4571;289234;291316;54;0;1;0.004;-0.075;78949338;1.0118;0.1678;77.9025;13.4571;0.665;418.744;0;0;0;2725.97;2745.59;1;78949339;0.0673375;0.344084;-1.91773;-0.335009;-0.077576;0.932528;-0.122016;-0.0894053;0.19104;78945999;47.61232489;-122.75085914;88.00258051;0.04717637;0.00000000;3.03494835;3.00000000;
78949465;78.4;33.8;33.6;0;33.9;51.8;0;0;0;0;0;-0.001;1.0118;0.1678;77.9025;13.4571;289234;291316;54;0;1;0.005;-0.075;78949338;1.0118;0.1678;77.9025;13.4571;0.665;418.744;0;0;0;2725.97;2745.59;1;78949339;0.0673375;0.344084;-1.91773;-0.335009;-0.077576;0.932528;-0.122016;-0.0894053;0.19104;78945999;47.61232489;-122.75085914;88.00258051;0.04717637;0.00000000;3.03494835;3.00000000;
78949602;78.4;33.8;33.5;0;33.8;51.8;0;0;0;0;0;-0.001;1.0118;0.1678;77.9025;13.4571;289234;291316;54;0;1;0.004;-0.074;78949466;1.0118;0.1678;77.9025;13.4571;0.665;418.744;0;0;0;2725.97;2745.59;1;78949467;0.0670764;0.344703;-1.91837;-0.332254;-0.0701636;0.933156;0.396698;0.403699;0.491845;78945999;47.61232489;-122.75085914;88.00258051;0.04717637;0.00000000;3.03494835;3.00000000;
78949690;78.4;33.8;33.5;0;33.9;51.8;0;0;0;0;0;-0.001;1.0118;0.1678;77.9025;13.4571;289234;291316;54;0;1;0.004;-0.075;78949603;1.0118;0.1678;77.9025;13.4571;0.665;418.745;0;0;0;2725.97;2745.59;1;78949604;0.0662858;0.344857;-1.9191;-0.336731;-0.0657227;0.932939;0.308612;-0.228346;0.295225;78945999;47.61232489;-122.75085914;88.00258051;0.04717637;0.00000000;3.03494835;3.00000000;
78949785;78.4;33.8;33.5;0;33.9;51.8;0;0;0;0;0;-0.001;1.0118;0.1678;77.9025;13.4571;289234;291316;54;0;1;0.004;-0.075;78949691;1.0118;0.1678;77.9025;13.4571;0.665;418.759;0;0;0;2725.97;2745.59;1;78949692;0.0657991;0.344711;-1.91957;-0.337303;-0.0686601;0.932606;0.31473;-0.227633;0.364954;78945999;47.61232489;-122.75085914;88.00258051;0.04717637;0.00000000;3.03494835;3.00000000;
78949872;78.4;33.8;33.6;0;33.9;51.8;0;0;0;0;0;-0.001;1.0118;0.1678;77.9025;13.4571;289234;291316;54;0;1;0.004;-0.075;78949786;1.0118;0.1678;77.9025;13.4571;0.665;418.77;0;0;0;2725.97;2745.59;1;78949826;0.0656647;0.344538;-1.91993;-0.338156;-0.0672956;0.932361;0.0235659;-0.22881;0.249967;78946999;47.61232470;-122.75085953;87.99288657;0.03467290;0.00000000;3.43169641;3.00000000;
78949962;78.4;33.8;33.5;0;33.7;51.8;0;0;0;0;0;-0.001;1.0118;0.1678;77.9025;13.4571;289234;291316;54;0;1;0.005;-0.075;78949873;1.0118;0.1678;77.9025;13.4571;0.665;418.774;0;0;0;2725.97;2745.59;1;78949916;0.0652903;0.344512;-1.9205;-0.339205;-0.0637736;0.932372;0.39058;-0.086989;0.427132;78946999;47.61232470;-122.75085953;87.99288657;0.03467290;0.00000000;3.43169641;3.00000000;
78950052;78.4;33.8;33.5;0;33.9;51.8;0;0;0;0;0;-0.001;1.0118;0.1678;77.9025;13.4571;289234;291316;54;0;1;0.005;-0.076;78949962;1.0118;0.1678;77.9025;13.4571;0.665;418.787;0;0;0;2725.97;2745.59;1;78950008;0.0649659;0.344617;-1.92091;-0.337772;-0.0687148;0.932474;0.169148;0.0517642;0.304595;78946999;47.61232470;-122.75085953;87.99288657;0.03467290;0.00000000;3.43169641;3.00000000;
78950147;78.4;33.8;33.5;0;33.8;51.8;0;0;0;0;0;-0.001;1.0118;0.1678;77.9025;13.4571;289234;291316;54;0;1;0.005;-0.074;78950053;1.0118;0.1678;77.9025;13.4571;0.665;418.809;0;0;0;2725.97;2745.59;1;78950095;0.0650801;0.344649;-1.92123;-0.336271;-0.0623675;0.932585;0.0296837;0.191882;0.315397;78946999;47.61232470;-122.75085953;87.99288657;0.03467290;0.00000000;3.43169641;3.00000000;
78950227;78.4;33.8;33.5;0;33.8;51.7;0;0;0;0;0;-0.001;1.0118;0.1678;77.9025;13.4571;289234;291316;54;0;1;0.004;-0.075;78950147;1.0118;0.1678;77.9025;13.4571;0.665;418.819;0;0;0;2725.97;2745.59;1;78950187;0.0650286;0.344718;-1.92156;-0.335972;-0.0677003;0.932729;0.0235659;0.191168;0.245668;78946999;47.61232470;-122.75085953;87.99288657;0.03467290;0.00000000;3.43169641;3.00000000;
78950321;78.4;33.8;33.5;0;33.9;51.7;0;0;0;0;0;-0.001;1.0118;0.1678;77.9025;13.4571;289234;291316;54;0;1;0.005;-0.075;78950275;1.0118;0.1678;77.9025;13.4571;0.665;418.841;0;0;0;2725.97;2745.59;1;78950275;0.0650691;0.344826;-1.92191;-0.334454;-0.0662879;0.937962;0.0358015;0.424611;0.448342;78946999;47.61232470;-122.75085953;87.99288657;0.03467290;0.00000000;3.43169641;3.00000000;
78950411;78.4;33.8;33.5;0;33.8;51.7;0;0;0;0;0;-0.001;1.0118;0.1678;77.9025;13.4571;289234;291316;54;0;1;0.005;-0.074;78950366;1.0118;0.1678;77.9025;13.4571;0.665;418.847;0;0;0;2725.97;2745.59;1;78950366;0.065275;0.344729;-1.92223;-0.335512;-0.0643451;0.932611;0.0358015;-0.0873896;0.387991;78946999;47.61232470;-122.75085953;87.99288657;0.03467290;0.00000000;3.43169641;3.00000000;
78950548;78.4;33.8;33.5;0;33.9;51.7;0;0;0;0;0;-0.001;1.0118;0.1678;77.9025;13.4571;289234;291316;54;0;1;0.005;-0.076;78950460;1.0118;0.1678;77.9025;13.4571;0.665;418.848;0;0;0;2725.97;2745.59;1;78950461;0.0654843;0.344062;-1.92249;-0.329431;-0.0729336;0.932161;0.00521243;-0.230951;0.0407811;78946999;47.61232470;-122.75085953;87.99288657;0.03467290;0.00000000;3.43169641;3.00000000;
78950634;78.4;33.8;33.5;0;33.9;51.7;0;0;0;0;0;-0.001;1.0118;0.1678;77.9025;13.4571;289234;291316;54;0;1;0.005;-0.075;78950590;1.0118;0.1678;77.9025;13.4571;0.665;418.868;0;0;0;2725.97;2745.59;1;78950590;0.0659179;0.344228;-1.92289;-0.336655;-0.0731477;0.93254;0.251116;-0.0168674;0.43865;78946999;47.61232470;-122.75085953;87.99288657;0.03467290;0.00000000;3.43169641;3.00000000;
78950722;78.4;33.8;33.5;0;33.8;51.7;0;0;0;0;0;-0.001;1.0118;0.1678;77.9025;13.4571;289234;291316;54;0;1;0.005;-0.075;78950683;1.0118;0.1678;77.9025;13.4571;0.665;418.892;0;0;0;2725.97;2745.59;1;78950684;0.0659279;0.344164;-1.92335;-0.334326;-0.0677369;0.932554;0.175266;0.0524779;0.374323;78946999;47.61232470;-122.75085953;87.99288657;0.03467290;0.00000000;3.43169641;3.00000000;
78950814;78.4;33.8;33.5;0;33.8;51.7;0;0;0;0;0;-0.001;1.0118;0.1678;77.9025;13.4571;289234;291316;54;0;1;0.005;-0.075;78950769;1.0118;0.1678;77.9025;13.4571;0.666;418.924;0;0;0;2725.97;2745.59;1;78950770;0.0666097;0.344778;-1.92368;-0.336681;-0.089311;0.932941;-0.458441;-0.087665;0.361085;78946999;47.61232470;-122.75085953;87.99288657;0.03467290;0.00000000;3.43169641;3.00000000;
78950902;78.4;33.8;33.6;0;33.9;51.7;0;0;0;0;0;-0.001;1.0118;0.1678;77.9025;13.4571;289234;291316;54;0;1;0.004;-0.075;78950858;1.0118;0.1678;77.9025;13.4571;0.666;418.934;0;0;0;2725.97;2745.59;1;78950859;0.0680934;0.344248;-1.92396;-0.337729;-0.0193408;0.932167;-0.191748;-1.20928;0.20862;78947999;47.61232459;-122.75085972;87.92738386;0.02421378;0.00000000;3.33624744;3.00000000;
78950995;78.4;33.8;33.6;0;33.7;51.7;0;0;0;0;0;-0.001;1.0118;0.1678;77.9025;13.4571;289234;291316;54;0;1;0.004;-0.077;78950953;1.0118;0.1678;77.9025;13.4571;0.666;418.948;0;0;0;2725.97;2745.59;1;78950953;0.0675084;0.342569;-1.92449;-0.333131;-0.00505332;0.931079;0.872587;-1.83805;0.332491;78947999;47.61232459;-122.75085972;87.92738386;0.02421378;0.00000000;3.33624744;3.00000000;
78951083;78.4;33.8;33.5;0;33.9;51.7;0;0;0;0;0;-0.001;1.0118;0.1678;77.9025;13.4571;289234;291316;54;0;1;0.005;-0.074;78951042;1.0118;0.1678;77.9025;13.4571;0.666;418.966;0;0;0;2725.97;2745.59;1;78951043;0.0669545;0.342854;-1.92486;-0.338599;-0.0463073;0.932104;0.378344;0.821536;0.278362;78947999;47.61232459;-122.75085972;87.92738386;0.02421378;0.00000000;3.33624744;3.00000000;
78951176;78.4;33.8;33.5;0;33.8;51.7;0;0;0;0;0;-0.001;1.0118;0.1678;77.9025;13.4571;289234;291316;54;0;1;0.004;-0.074;78951127;1.0118;0.1678;77.9025;13.4571;0.666;418.971;0;0;0;2725.97;2745.59;1;78951176;0.0667956;0.343349;-1.92534;-0.334054;-0.0760578;0.932729;-0.128134;-0.580093;0.126327;78947999;47.61232459;-122.75085972;87.92738386;0.02421378;0.00000000;3.33624744;3.00000000;
78951264;78.4;33.8;33.5;0;33.9;51.7;0;0;0;0;0;-0.001;1.0118;0.1678;77.9025;13.4571;289234;291316;54;0;1;0.004;-0.075;78951218;1.0118;0.1678;77.9025;13.4571;0.666;418.972;0;0;0;2725.97;2745.59;1;78951176;0.0667956;0.343349;-1.92534;-0.334054;-0.0760578;0.932729;-0.128134;-0.580093;0.126327;78947999;47.61232459;-122.75085972;87.92738386;0.02421378;0.00000000;3.33624744;3.00000000;
78951355;78.4;33.8;33.5;0;33.9;51.7;0;0;0;0;0;-0.001;1.0118;0.1678;77.9025;13.4571;289234;291316;54;0;1;0.004;-0.075;78951315;1.0118;0.1678;77.9025;13.4571;0.666;418.981;0;0;0;2725.97;2745.59;1;78951265;0.0667583;0.342949;-1.92565;-0.335461;-0.074758;0.932677;0.175266;-0.157511;0.376472;78947999;47.61232459;-122.75085972;87.92738386;0.02421378;0.00000000;3.33624744;3.00000000;
78951447;78.4;33.8;33.5;0;33.8;51.7;0;0;0;0;0;-0.001;1.0118;0.1678;77.9025;13.4571;289234;291316;54;0;1;0.005;-0.075;78951406;1.0118;0.1678;77.9025;13.4571;0.666;418.981;0;0;0;2725.97;2745.59;1;78951356;0.0666735;0.342304;-1.92599;-0.333371;-0.0774421;0.932531;0.31473;-0.227633;0.364954;78947999;47.61232459;-122.75085972;87.92738386;0.02421378;0.00000000;3.33624744;3.00000000;
78951537;78.4;33.8;33.5;0;33.9;51.7;0;0;0;0;0;-0.001;1.0118;0.1678;77.9025;13.4571;289234;291316;54;0;1;0.004;-0.074;78951492;1.0118;0.1678;77.9025;13.4571;0.666;418.987;0;0;0;2725.97;2745.59;1;78951448;0.0661377;0.342114;-1.92648;-0.334702;-0.0676664;0.932741;0.232762;-0.0890047;0.230181;78947999;47.61232459;-122.75085972;87.92738386;0.02421378;0.00000000;3.33624744;3.00000000;
78951624;78.4;33.8;33.5;0;33.7;51.7;0;0;0;0;0;-0.001;1.0118;0.1678;77.9025;13.4571;289234;291316;54;0;1;0.004;-0.075;78951582;1.0118;0.1678;77.9025;13.4571;0.666;419.004;0;0;0;2725.97;2745.59;1;78951537;0.0653443;0.342148;-1.92708;-0.328049;-0.058964;0.933123;0.232762;0.120984;0.228032;78947999;47.61232459;-122.75085972;87.92738386;0.02421378;0.00000000;3.33624744;3.00000000;
78951714;78.4;33.8;33.5;0;33.8;51.7;0;0;0;0;0;-0.001;1.0118;0.1678;77.9025;13.4571;289234;291316;54;0;1;0.004;-0.074;78951679;1.0118;0.1678;77.9025;13.4571;0.666;419.007;0;0;0;2725.97;2745.59;1;78951667;0.0650343;0.342921;-1.92746;-0.3368;-0.0750593;0.933962;0.320848;1.17301;0.420354;78947999;47.61232459;-122.75085972;87.92738386;0.02421378;0.00000000;3.33624744;3.00000000;
78951814;78.4;33.8;33.5;0;33.8;51.7;0;0;0;0;0;-0.001;1.0118;0.1678;77.9025;13.4571;289234;291316;54;0;1;0.005;-0.075;78951762;1.0118;0.1678;77.9025;13.4571;0.666;419.012;0;0;0;2725.97;2745.59;1;78951763;0.0649361;0.344936;-1.92798;-0.339631;-0.0682151;0.934846;-0.267598;-0.0899938;0.133547;78947999;47.61232459;-122.75085972;87.92738386;0.02421378;0.00000000;3.33624744;3.00000000;
78951942;78.4;33.8;33.5;0;33.8;51.7;0;0;0;0;0;-0.001;1.0118;0.1678;77.9025;13.4571;289234;291316;54;0;1;0.004;-0.075;78951858;1.0118;0.1678;77.9025;13.4571;0.666;419.013;0;0;0;2725.97;2745.59;1;78951859;0.0642757;0.344863;-1.92851;-0.336654;-0.0582227;0.934268;-0.00702333;1.16755;-0.113004;78948999;47.61232434;-122.75085970;87.94775074;0.02673787;0.00000000;3.28835869;3.00000000;
78952035;78.4;33.8;33.5;0;33.7;51.7;0;0;0;0;0;-0.001;1.0118;0.1678;77.9025;13.4571;289234;291316;54;0;1;0.005;-0.076;78951943;1.0118;0.1678;77.9025;13.4571;0.666;419.032;0;0;0;2725.97;2745.59;1;78951944;0.0647922;0.346493;-1.92859;-0.339538;-0.0761832;0.934707;-0.210102;0.748472;-0.0206245;78948999;47.61232434;-122.75085970;87.94775074;0.02673787;0.00000000;3.28835869;3.00000000;
78952122;78.4;33.8;33.5;0;33.8;51.7;0;0;0;0;0;-0.001;1.0118;0.1678;77.9025;13.4571;289234;291316;54;0;1;0.004;-0.075;78952035;1.0118;0.1678;77.9025;13.4571;0.666;419.052;0;0;0;2725.97;2745.59;1;78952036;0.0651434;0.345994;-1.92889;-0.336484;-0.0628803;0.933386;-0.692109;-0.930288;0.10912;78948999;47.61232434;-122.75085970;87.94775074;0.02673787;0.00000000;3.28835869;3.00000000;
78952261;78.4;33.8;33.5;0;33.8;51.7;0;0;0;0;0;-0.001;1.0118;0.1678;77.9025;13.4571;289234;291316;54;0;1;0.004;-0.074;78952123;1.0118;0.1678;77.9025;13.4571;0.666;419.073;0;0;0;2725.97;2745.59;1;78952164;0.0666689;0.345734;-1.929;-0.337635;-0.0671206;0.932682;0.372227;0.260852;0.214364;78948999;47.61232434;-122.75085970;87.94775074;0.02673787;0.00000000;3.28835869;3.00000000;
78952439;78.4;33.8;33.6;0;33.9;51.7;0;0;0;0;0;-0.001;1.0118;0.1678;77.9025;13.4571;289234;291316;54;0;1;0.006;-0.076;78952396;1.0118;0.1678;77.9025;13.4571;0.666;419.102;0;0;0;2725.97;2745.59;1;78952301;0.0666966;0.34577;-1.92946;-0.337235;-0.0762003;0.932117;-0.41318;-1.00053;0.0853666;78948999;47.61232434;-122.75085970;87.94775074;0.02673787;0.00000000;3.28835869;3.00000000;
78952523;78.4;33.8;33.5;0;33.8;51.7;0;0;0;0;0;-0.001;1.0118;0.1678;77.9025;13.4571;289234;291316;54;0;1;0.007;-0.078;78952485;1.0118;0.1678;77.9025;13.4571;0.666;419.113;0;0;0;2725.97;2745.59;1;78952440;0.0694074;0.341589;-1.9295;-0.332135;-0.0717279;0.929723;-1.21082;-2.19335;-0.183805;78948999;47.61232434;-122.75085970;87.94775074;0.02673787;0.00000000;3.28835869;3.00000000;
78952666;78.4;33.8;33.5;0;33.9;51.7;0;0;0;0;0;0.001;1.0118;0.1678;77.9025;13.4571;289234;291316;54;0;1;0.01;-0.086;78952569;1.0118;0.1678;77.9025;13.4571;0.666;419.115;0;0;0;2725.97;2745.59;1;78952524;0.0714648;0.334615;-1.92941;-0.324869;-0.0672006;0.926458;-1.4237;-7.17153;-0.957447;78948999;47.61232434;-122.75085970;87.94775074;0.02673787;0.00000000;3.28835869;3.00000000;
78952844;78.4;33.8;33.5;0;33.8;51.7;0.9;0;-0.68;-0.79;0;0;1.0118;0.1678;77.9025;13.4572;289235;291317;115.2;0;1;0.054;-0.11;78952667;1.0118;0.1678;77.9025;13.4571;0.666;419.117;0;0;0;2725.97;2745.59;1;78952668;0.0745238;0.29635;-1.92879;-0.523568;0.0033447;0.909374;2.62694;-22.6726;2.92162;78948999;47.61232434;-122.75085970;87.94775074;0.02673787;0.00000000;3.28835869;3.00000000;
78952931;78.4;33.8;33.5;0;33.8;51.7;-5.21;-0.01;-0.1;5.18;-105;-0.012;1.0118;0.1678;77.9025;13.4572;289233;291319;352.8;0;1;0.034;-0.196;78952845;1.0118;0.1678;77.9025;13.4572;0.666;419.12;0;-2.46;0;2725.97;2745.6;1;78952846;0.0785263;0.182099;-1.93008;0.0171649;-0.313761;0.894501;3.05015;-57.098;-2.31471;78949999;47.61232364;-122.75085795;87.79814150;0.08714881;0.00000000;3.21934676;3.00000000;
78953020;78.1;33.8;33.5;0;33.8;51.6;23.72;0.78;-0.08;24.5;-124;0.062;1.0118;0.1678;77.904;13.4572;289231;291321;235.8;0;1;0.037;1.206;78952932;1.0118;0.1678;77.9025;13.4572;0.666;419.125;-0.02;-2.74;-0.095;2725.96;2745.62;1;78952933;0.0343382;0.0335438;-1.94708;0.19155;0.0409953;0.89661;21.3127;-57.8897;2.41561;78949999;47.61232364;-122.75085795;87.79814150;0.08714881;0.00000000;3.21934676;3.00000000;
78953112;78;33.8;33.4;0;33.8;51.6;39.88;2.44;0.15;39.92;63;0.085;1.0119;0.1678;77.9088;13.4572;289233;291323;316.7;0;1;0.001;2.9;78953021;1.0118;0.1678;77.904;13.4572;0.666;418.937;1.94;36.73;-0.112;2725.94;2745.64;1;78953070;0.00890389;-0.0372638;-1.93998;-0.291807;-0.00739822;0.922799;5.60208;-18.5439;-4.05756;78949999;47.61232364;-122.75085795;87.79814150;0.08714881;0.00000000;3.21934676;3.00000000;
78953202;78.1;33.8;33.5;0;33.8;51.6;36.66;2.38;-0.07;36.59;257;0.077;1.012;0.1678;77.9135;13.4572;289236;291326;133.895;0;1;-0.199;3.103;78953113;1.0119;0.1678;77.9088;13.4572;0.665;418.291;3.06;43.02;0.077;2725.96;2745.65;1;78953156;0.0013892;-0.046422;-1.93515;-0.117219;-0.054586;0.953334;0.955746;-1.16117;-1.93045;78949999;47.61232364;-122.75085795;87.79814150;0.08714881;0.00000000;3.21934676;3.00000000;
78953295;78.1;33.8;33.5;0;33.8;51.6;32.04;2.07;0.04;32;355;0.079;1.012;0.1678;77.9172;13.4572;289239;291329;338.734;0;1;-0.12;3.151;78953203;1.012;0.1678;77.9135;13.4572;0.664;417.708;2.15;34.06;0.244;2725.99;2745.68;1;78953246;0.0187698;-0.0495058;-1.92897;-0.0708723;0.109975;0.975558;-32.1035;-1.38319;-3.10345;78949999;47.61232364;-122.75085795;87.79814150;0.08714881;0.00000000;3.21934676;3.00000000;
78953379;78.1;33.8;33.5;0;33.7;51.6;27.67;1.77;-0.01;27.66;445;0.085;1.0121;0.1678;77.9207;13.4572;289243;291333;228.289;0;1;-0.126;3.093;78953296;1.012;0.1678;77.9176;13.4572;0.663;417.232;1.9;29.06;0.337;2726.01;2745.71;1;78953338;0.063956;-0.0487575;-1.92328;-0.0160114;-0.156991;0.993816;-12.8635;-4.48102;-4.83009;78949999;47.61232364;-122.75085795;87.79814150;0.08714881;0.00000000;3.21934676;3.00000000;
78953514;78;33.8;33.5;0;33.8;51.6;32.49;2.38;0.01;32.53;479;0.094;1.0121;0.1678;77.9258;13.4572;289248;291338;146.29;0;1;-0.113;3.551;78953513;1.0121;0.1678;77.9252;13.4572;0.661;416.298;2.58;34.68;0.45;2726.1;2745.8;1;78953428;0.0584025;-0.0530872;-1.91113;-0.0321549;-0.133627;1.00406;19.9791;-1.37722;-9.35966;78949999;47.61232364;-122.75085795;87.79814150;0.08714881;0.00000000;3.21934676;3.00000000;
78953603;77.6;33.8;33.5;0;33.8;51.6;36.4;3.01;0.04;36.47;564;0.123;1.0122;0.1678;77.9343;13.4572;289255;291345;226.356;0;1;-0.211;3.993;78953513;1.0121;0.1678;77.9252;13.4572;0.661;416.298;2.58;34.68;0.45;2726.1;2745.8;1;78953564;0.0179781;-0.0566531;-1.90414;0.113973;0.0114104;1.01207;-3.34426;-1.67797;9.13354;78952686;47.62104410;-122.76803920;0.00000000;0.00000000;0.00000000;1200.00000000;0.00000000;
78953694;77;33.8;33.5;0;33.8;51.6;53.7;5.9;0.13;53.82;626;0.172;1.0124;0.1678;77.9458;13.4572;289261;291351;205.332;0;1;-0.366;5.31;78953604;1.0122;0.1678;77.9343;13.4572;0.66;415.224;5;49.32;0.534;2726.16;2745.86;1;78953655;0.035984;-0.0660898;-1.92463;-0.224802;0.078029;1.01178;-11.3317;-16.3909;7.94701;78952686;47.62104410;-122.76803920;0.00000000;0.00000000;0.00000000;1200.00000000;0.00000000;
78953787;77.8;33.8;33.5;0;33.8;51.6;60.71;8.59;-0.1;60.38;998;0.12;1.0126;0.1678;77.9617;13.4572;289271;291361;64.506;0;1;-0.937;6.911;78953695;1.0124;0.1678;77.9458;13.4572;0.657;413.793;9.77;66;0.622;2726.22;2745.92;1;78953741;0.00777319;-0.0978706;-1.88281;-0.685621;0.15942;1.00451;42.9141;-39.8694;-63.1202;78952686;47.62104410;-122.76803920;0.00000000;0.00000000;0.00000000;1200.00000000;0.00000000;
78953877;77;33.8;33.5;0;33.9;51.6;43.57;5.69;0.03;43.79;1079;0.165;1.0127;0.1678;77.9733;13.4572;289281;291371;324.943;0;1;-0.637;6.273;78953787;1.0126;0.1678;77.9623;13.4572;0.654;411.701;1.95;21.62;0.943;2726.32;2746.01;1;78953828;-0.0303;-0.090605;-1.82416;0.305667;-0.0123233;1.01119;8.25813;11.2849;3.48545;78950999;47.61232323;-122.75085558;87.81570140;0.09528148;0.00000000;3.13453054;3.00000000;
78954013;76.8;33.9;33.6;0;33.9;51.6;61.6;9.8;0.07;61.55;1334;0.19;1.0131;0.1678;78.0027;13.4572;289299;291389;346.845;0;1;-1.263;7.914;78954012;1.0131;0.1678;78.0008;13.4572;0.646;406.948;9.36;57.81;1.262;2726.57;2746.27;1;78953969;-0.0327281;-0.103495;-1.86223;-0.21213;-0.0964365;1.01071;-4.85605;-12.4503;30.4582;78950999;47.61232323;-122.75085558;87.81570140;0.09528148;0.00000000;3.13453054;3.00000000;
78954102;76.3;33.9;33.6;0;33.9;51.6;57.52;9.75;0.28;57.54;1521;0.251;1.0133;0.1678;78.0194;13.4572;289312;291402;51.3177;0;1;-1.507;8.45;78954012;1.0131;0.1678;78.0008;13.4572;0.646;406.948;9.36;57.81;1.262;2726.57;2746.27;1;78954055;-0.0485949;-0.109464;-1.88464;-0.184709;-0.170012;1.01482;-15.0641;-18.4797;15.8853;78950999;47.61232323;-122.75085558;87.81570140;0.09528148;0.00000000;3.13453054;3.00000000;
78954193;77.1;33.9;33.6;0;33.9;51.6;62.6;11.88;-0.22;62.41;1757;0.199;1.0136;0.1678;78.0424;13.4572;289329;291419;309.838;0;1;-2.153;9.479;78954103;1.0133;0.1678;78.0194;13.4572;0.643;404.642;13.05;67.24;1.442;2726.71;2746.41;1;78954150;-0.0031034;-0.129576;-1.9197;-0.0863928;0.391779;1.01304;-31.7521;0.10248;12.0997;78950999;47.61232323;-122.75085558;87.81570140;0.09528148;0.00000000;3.13453054;3.00000000;
78954278;75.8;33.9;33.6;0;33.9;51.6;56.08;10.8;0.34;56.27;1901;0.262;1.0139;0.1678;78.0629;13.4572;289346;291436;271.174;0;1;-2.439;9.566;78954194;1.0136;0.1678;78.0424;13.4572;0.638;401.876;6.85;40.12;1.659;2726.86;2746.56;1;78954237;0.0321197;-0.120407;-1.96216;0.106725;0.0285846;1.01795;-8.9775;-0.972462;37.0269;78950999;47.61232323;-122.75085558;87.81570140;0.09528148;0.00000000;3.13453054;3.00000000;
78954372;76.1;34;33.7;0;33.9;51.6;59.44;12.01;0.01;59.37;2065;0.262;1.0142;0.1678;78.086;13.4572;289365;291455;344.415;0;1;-2.999;10.18;78954278;1.0139;0.1678;78.0629;13.4572;0.635;399.418;14.12;70.21;1.796;2727.03;2746.73;1;78954329;0.0212758;-0.117429;-1.99897;0.038743;-0.187347;1.01955;3.88596;3.14649;15.4068;78950999;47.61232323;-122.75085558;87.81570140;0.09528148;0.00000000;3.13453054;3.00000000;
78954461;75.4;34;33.8;0;34;51.6;68.32;15.24;0.21;68.39;2232;0.293;1.0146;0.1678;78.1149;13.4572;289386;291476;165.215;0;1;-3.769;11.201;78954373;1.0142;0.1678;78.086;13.4572;0.63;396.712;13.41;62.06;1.95;2727.21;2746.91;1;78954413;0.0123038;-0.119181;-2.00195;-0.0301537;-0.35544;1.02191;10.717;-4.40631;-4.36994;78950999;47.61232323;-122.75085558;87.81570140;0.09528148;0.00000000;3.13453054;3.00000000;
78954548;76.4;34;33.8;0;34.1;51.6;57.21;12.74;-0.26;57.01;2447;0.268;1.0149;0.1678;78.1373;13.4572;289408;291500;20.9166;0;1;-3.507;11.254;78954462;1.0146;0.1678;78.1149;13.4572;0.625;393.217;17.02;70.06;2.119;2727.41;2747.11;1;78954504;-0.00369319;-0.116386;-1.98816;-0.211118;-0.128229;1.0238;6.79235;-5.09244;-9.8512;78950999;47.61232323;-122.75085558;87.81570140;0.09528148;0.00000000;3.13453054;3.00000000;
78954687;76.3;34.1;33.8;0;34.1;51.6;48.14;10.79;0.01;48.11;2684;0.28;1.0153;0.1678;78.1696;13.4572;289445;291539;62.3467;0;1;-3.198;11.403;78954549;1.0149;0.1678;78.1396;13.4572;0.621;390.617;11.48;49.7;2.316;2727.61;2747.33;1;78954646;-0.0143402;-0.120304;-1.97726;0.194667;-0.044393;1.01989;-9.62892;5.45052;-5.70744;78950999;47.61232323;-122.75085558;87.81570140;0.09528148;0.00000000;3.13453054;3.00000000;
78954778;76.1;34.1;33.9;0;34.1;51.6;54.88;13.28;0.05;54.9;2801;0.297;1.0156;0.1678;78.1948;13.4572;289470;291564;128.473;0;1;-3.811;12.215;78954689;1.0153;0.1678;78.1696;13.4572;0.615;387.337;10.95;49.99;2.527;2727.96;2747.7;1;78954730;-0.0069521;-0.115902;-1.98373;-0.329585;-0.194312;1.01688;-3.76758;3.05699;6.66268;78950999;47.61232323;-122.75085558;87.81570140;0.09528148;0.00000000;3.13453054;3.00000000;
78954869;76.4;34.2;33.9;0;34.1;51.6;48;11.74;-0.04;47.91;2975;0.295;1.0159;0.1678;78.2176;13.4572;289498;291592;26.3748;0;1;-3.615;12.457;78954779;1.0156;0.1678;78.1948;13.4572;0.611;384.686;14.99;53.34;2.644;2728.2;2747.93;1;78954822;0.00240168;-0.110756;-1.99971;-0.0613709;0.177137;1.01058;-34.3311;8.99888;5.84008;78951999;47.61232313;-122.75085590;88.09328008;0.53010118;0.00000000;3.53555012;3.00000000;
78954954;75.7;34.2;34;0;34.2;51.6;53.95;14.09;0.21;54.02;3116;0.328;1.0163;0.1678;78.2439;13.4572;289527;291623;345.797;0;1;-4.222;13.214;78954952;1.0163;0.1678;78.2439;13.4572;0.603;379.802;14.75;56.44;2.924;2728.71;2748.46;1;78954912;0.0169493;-0.10964;-2.00953;0.00968373;0.424419;1.00508;1.8438;-3.69598;-10.2043;78951999;47.61232313;-122.75085590;88.09328008;0.53010118;0.00000000;3.53555012;3.00000000;
78955048;75.7;34.2;34.1;0;34.2;51.6;51.01;13.57;0;50.99;3277;0.33;1.0166;0.1678;78.2699;13.4572;289557;291653;337.488;0;1;-4.238;13.529;78955048;1.0166;0.1678;78.2699;13.4572;0.599;377.231;15.5;53.26;3.075;2728.99;2748.75;1;78955004;0.0122934;-0.107157;-1.9775;-0.0529797;-0.522867;1.0033;11.1009;6.26658;-21.7296;78951999;47.61232313;-122.75085590;88.09328008;0.53010118;0.00000000;3.53555012;3.00000000;
78955136;75.3;34.3;34;0;34.2;51.6;50.61;13.98;0.19;50.64;3422;0.374;1.0169;0.1678;78.2932;13.4572;289586;291682;243.723;0;1;-4.405;14.041;78955048;1.0166;0.1678;78.2699;13.4572;0.599;377.231;15.5;53.26;3.075;2728.99;2748.75;1;78955088;0.010788;-0.104213;-1.96263;0.58632;-0.00222733;0.999432;2.37253;-3.44955;7.03382;78951999;47.61232313;-122.75085590;88.09328008;0.53010118;0.00000000;3.53555012;3.00000000;
78955228;76.1;34.3;34.2;0;34.3;51.6;51.52;14.74;-0.22;51.36;3603;0.35;1.0173;0.1678;78.3223;13.4572;289618;291714;49.2707;0;1;-4.723;14.558;78955137;1.017;0.1678;78.2967;13.4572;0.595;374.454;17.13;62.11;3.229;2729.29;2749.05;1;78955178;0.0305827;-0.106992;-1.96639;-0.0771874;-0.543404;0.993814;-3.68204;-3.31467;-0.306872;78951999;47.61232313;-122.75085590;88.09328008;0.53010118;0.00000000;3.53555012;3.00000000;
78955320;75.9;34.3;34.2;0;34.3;51.6;43.41;12.65;0.03;43.45;3796;0.37;1.0176;0.1678;78.3462;13.4572;289653;291749;331.024;0;1;-4.248;14.872;78955229;1.0174;0.1678;78.3247;13.4572;0.59;371.692;11.75;41.61;3.404;2729.6;2749.36;1;78955273;-0.00375825;-0.106194;-1.94956;-0.0550987;0.611238;0.984839;18.5414;5.17472;-25.8146;78951999;47.61232313;-122.75085590;88.09328008;0.53010118;0.00000000;3.53555012;3.00000000;
78955402;75.7;34.4;34.2;0;34.3;51.6;43.2;13.01;0.14;43.17;3974;0.39;1.018;0.1678;78.3708;13.4572;289690;291786;3.99499;0;1;-4.475;15.347;78955321;1.0177;0.1678;78.349;13.4572;0.587;369.5;13.84;45.53;3.59;2729.93;2749.69;1;78955360;-0.0453008;-0.103539;-1.90985;-0.37294;0.0992036;0.97868;7.09791;-1.52291;-30.4341;78951999;47.61232313;-122.75085590;88.09328008;0.53010118;0.00000000;3.53555012;3.00000000;
78955495;75.5;34.4;34.2;0;34.4;51.6;46.2;14.54;0.04;46.18;4132;0.391;1.0183;0.1678;78.3984;13.4572;289727;291823;66.0931;0;1;-4.922;15.93;78955403;1.018;0.1678;78.3739;13.4572;0.583;367.307;15.18;46.82;3.759;2730.27;2750.03;1;78955455;-0.0405467;-0.0983373;-1.87243;0.0313416;0.000627233;0.979563;-6.95485;3.11714;-21.6592;78951999;47.61232313;-122.75085590;88.09328008;0.53010118;0.00000000;3.53555012;3.00000000;
78955587;75.6;34.4;34.2;0;34.4;51.6;44.4;14.09;-0.05;44.38;4223;0.387;1.0187;0.1678;78.4254;13.4572;289765;291861;203.991;0;1;-4.824;16.068;78955496;1.0184;0.1678;78.4016;13.4572;0.58;364.854;13.35;46.7;3.895;2730.62;2750.38;1;78955542;-0.0382046;-0.0868982;-1.84685;0.444799;-0.102929;0.985079;-12.5564;7.61057;0.149106;78951999;47.61232313;-122.75085590;88.09328008;0.53010118;0.00000000;3.53555012;3.00000000;
78955678;75.1;34.5;34.3;0;34.5;51.6;47.33;15.47;0.08;47.37;4288;0.414;1.0191;0.1678;78.4544;13.4572;289804;291904;12.1766;0;1;-5.224;16.454;78955588;1.0187;0.1678;78.4284;13.4572;0.576;362.475;14.73;45.99;3.984;2730.99;2750.74;1;78955633;-0.0242744;-0.0755857;-1.85684;0.0605706;-0.178482;0.996298;26.5439;-1.55978;7.00191;78951999;47.61232313;-122.75085590;88.09328008;0.53010118;0.00000000;3.53555012;3.00000000;
78955764;75.5;34.5;34.3;0;34.5;51.6;52.69;18.05;-0.08;52.58;4435;0.401;1.0195;0.1678;78.4888;13.4572;289844;291944;277.006;0;1;-5.998;17.153;78955679;1.0191;0.1678;78.4544;13.4572;0.572;359.822;20.35;57.97;4.044;2731.35;2751.14;1;78955719;0.00019707;-0.0659922;-1.86115;-0.437579;-0.422178;1.00567;17.0467;0.197697;-5.95623;78951999;47.61232313;-122.75085590;88.09328008;0.53010118;0.00000000;3.53555012;3.00000000;
78955861;75.1;34.5;34.3;0;34.5;51.6;48.07;16.52;0.18;48.08;4526;0.437;1.0199;0.1678;78.5198;13.4572;289885;291985;216.449;0;1;-5.693;17.202;78955767;1.0195;0.1678;78.4888;13.4572;0.567;356.645;15.14;43.24;4.179;2731.73;2751.53;1;78955813;0.017838;-0.0581908;-1.84358;0.192249;0.0921433;1.01806;26.7321;-10.3277;-8.38482;78951999;47.61232313;-122.75085590;88.09328008;0.53010118;0.00000000;3.53555012;3.00000000;
78955945;74.8;34.6;34.4;0;34.6;51.6;53.85;19.34;0.11;53.81;4690;0.446;1.0204;0.1678;78.5561;13.4572;289927;292027;237.795;0;1;-6.529;17.958;78955862;1.0199;0.1678;78.5198;13.4572;0.562;353.943;18.74;53.04;4.267;2732.12;2751.91;1;78955904;-0.0132813;-0.059715;-1.81008;-0.385637;0.610084;1.01894;15.9343;0.801331;-29.0548;78952999;47.61231778;-122.75083696;88.23673400;1.09379840;0.00000000;3.87946463;3.00000000;
78956041;76;34.6;34.4;0;34.6;51.6;33.91;11.56;-0.4;33.76;4829;0.418;1.0207;0.1678;78.5788;13.4572;289971;292071;357.999;0;1;-4.42;17.273;78955946;1.0204;0.1678;78.5561;13.4572;0.557;350.58;14.93;46.02;4.426;2732.52;2752.31;1;78956038;-0.0571225;-0.0601576;-1.78343;-0.0720444;0.521013;1.01208;-8.49128;5.86827;-12.7685;78952999;47.61231778;-122.75083696;88.23673400;1.09379840;0.00000000;3.87946463;3.00000000;
78956126;74.6;34.6;34.5;0;34.6;51.6;41.67;14.95;0.44;41.79;4885;0.455;1.0211;0.1678;78.6067;13.4572;290015;292117;112.848;0;1;-5.376;17.956;78956079;1.0209;0.1678;78.5894;13.4572;0.554;348.478;11.59;33.51;4.568;2733.13;2752.94;1;78956038;-0.0571225;-0.0601576;-1.78343;-0.0720444;0.521013;1.01208;-8.49128;5.86827;-12.7685;78952999;47.61231778;-122.75083696;88.23673400;1.09379840;0.00000000;3.87946463;3.00000000;
78956216;74.2;34.6;34.5;0;34.7;51.6;56.51;21.66;0.16;56.52;5013;0.489;1.0216;0.1678;78.647;13.4572;290063;292165;69.004;0;1;-7.282;18.994;78956178;1.0213;0.1678;78.6232;13.4572;0.549;345.557;22.32;57.88;4.62;2733.54;2753.35;1;78956127;-0.071273;-0.0558925;-1.7471;-0.175547;-0.0396605;1.00943;10.8637;4.23739;-14.8013;78952999;47.61231778;-122.75083696;88.23673400;1.09379840;0.00000000;3.87946463;3.00000000;
78956304;75.4;34.7;34.5;0;34.7;51.6;51.11;19.86;-0.39;50.94;5184;0.462;1.0221;0.1678;78.6848;13.4572;290108;292210;252.363;0;1;-6.904;19.232;78956265;1.0219;0.1678;78.6667;13.4572;0.542;341.529;17.62;44.4;4.787;2733.98;2753.79;1;78956224;-0.064223;-0.0577119;-1.75723;0.378523;0.648193;1.00802;-12.7923;-1.59973;16.7781;78952999;47.61231778;-122.75083696;88.23673400;1.09379840;0.00000000;3.87946463;3.00000000;
78956396;75.2;34.7;34.7;0;34.7;51.6;38.95;14.68;0.06;38.95;5263;0.473;1.0225;0.1678;78.7127;13.4572;290155;292257;222.539;0;1;-5.511;18.937;78956348;1.0223;0.1678;78.6965;13.4572;0.539;339.366;14.96;40.12;4.946;2734.43;2754.24;1;78956305;-0.0396081;-0.052718;-1.78112;-0.136645;-0.0692145;1.00987;-0.978236;-0.474334;10.4596;78952999;47.61231778;-122.75083696;88.23673400;1.09379840;0.00000000;3.87946463;3.00000000;
78956530;75.8;34.7;34.6;0;34.7;51.6;40.99;15.89;-0.12;40.93;5430;0.467;1.0231;0.1678;78.7565;13.4572;290228;292330;296.401;0;1;-5.922;19.383;78956493;1.0227;0.1678;78.7271;13.4572;0.536;337.218;17.66;45.96;4.988;2734.87;2754.68;1;78956397;-0.0316627;-0.0492202;-1.77671;0.200441;-0.0561732;1.01292;-3.50598;5.07706;-7.99764;78952999;47.61231778;-122.75083696;88.23673400;1.09379840;0.00000000;3.87946463;3.00000000;
78956621;75.2;34.7;34.6;0;34.8;51.6;31.7;12.14;0.24;31.71;5497;0.498;1.0234;0.1678;78.7794;13.4572;290278;292380;40.465;0;1;-4.83;19.26;78956574;1.0232;0.1678;78.7663;13.4572;0.532;334.78;10.31;28.61;5.156;2735.57;2755.38;1;78956531;-0.0659994;-0.0432823;-1.74697;0.542864;-0.22489;1.00223;1.938;5.89631;-10.0297;78952999;47.61231778;-122.75083696;88.23673400;1.09379840;0.00000000;3.87946463;3.00000000;
78956711;74.9;34.8;34.6;0;34.8;51.6;39.78;15.83;0.05;39.79;5580;0.495;1.0238;0.1678;78.8093;13.4572;290329;292431;180.186;0;1;-5.976;19.889;78956663;1.0236;0.1678;78.7935;13.4572;0.529;333.085;13.69;36.3;5.213;2736.04;2755.85;1;78956621;-0.0693768;-0.0399934;-1.74683;0.2427;0.420478;0.996335;4.62957;5.09541;0.634624;78952999;47.61231778;-122.75083696;88.23673400;1.09379840;0.00000000;3.87946463;3.00000000;
78956801;74.6;34.8;34.6;0;34.8;51.6;44.53;18.29;0.14;44.52;5674;0.521;1.0243;0.1678;78.8437;13.4572;290380;292482;14.241;0;1;-6.741;20.428;78956759;1.024;0.1678;78.8237;13.4572;0.526;331.111;17.57;41.48;5.296;2736.52;2756.33;1;78956712;-0.0415976;-0.0354867;-1.75953;0.185137;0.181984;0.992292;-16.2104;4.57548;11.393;78952999;47.61231778;-122.75083696;88.23673400;1.09379840;0.00000000;3.87946463;3.00000000;
78956887;73.8;34.8;34.7;0;34.8;51.6;52.6;22.69;0.18;52.62;5797;0.531;1.0248;0.1678;78.8858;13.4572;290432;292534;278.117;0;1;-8.058;21.205;78956845;1.0245;0.1678;78.8618;13.4572;0.521;328.109;18.8;44.76;5.406;2737.02;2756.83;1;78956801;-0.0222556;-0.0306786;-1.77623;0.080357;0.0225272;0.993153;-9.28123;-1.99098;12.7496;78953999;47.61230609;-122.75080082;88.16448887;1.88088512;0.00000000;4.26985502;3.14632535;
78956978;73.1;34.8;34.7;0;34.9;51.6;62.72;28.63;0.23;62.74;5959;0.566;1.0255;0.1678;78.9383;13.4572;290486;292588;279.206;0;1;-9.736;22.118;78956933;1.0251;0.1678;78.9082;13.4572;0.515;324.117;30.53;63.66;5.537;2737.51;2757.32;1;78956895;0.00173012;-0.035074;-1.79577;0.227174;0.239413;0.999288;6.11723;-6.358;3.29168;78953999;47.61230609;-122.75080082;88.16448887;1.88088512;0.00000000;4.26985502;3.14632535;
78957068;75.4;34.9;34.7;0;34.9;51.6;45.83;20.38;-0.73;45.59;6156;0.516;1.0261;0.1678;78.9768;13.4572;290542;292644;24.252;0;1;-7.636;21.817;78957027;1.0258;0.1678;78.9589;13.4572;0.508;319.758;19.4;44.5;5.72;2738.03;2757.84;1;78956979;-0.033994;-0.0342174;-1.77987;-0.284465;0.324573;1.00875;42.8573;-9.41761;-15.2199;78953999;47.61230609;-122.75080082;88.16448887;1.88088512;0.00000000;4.26985502;3.14632535;
