ms_today;input_voltage;temp_mos_max;temp_mos_1;temp_mos_2;temp_mos_3;temp_motor;current_motor;current_in;d_axis_current;q_axis_current;erpm;duty_cycle;amp_hours_used;amp_hours_charged;watt_hours_used;watt_hours_charged;tachometer;tachometer_abs;encoder_position;fault_code;vesc_id;d_axis_voltage;q_axis_voltage;ms_today_setup;amp_hours_setup;amp_hours_charged_setup;watt_hours_setup;watt_hours_charged_setup;battery_level;battery_wh_tot;current_in_setup;current_motor_setup;speed_meters_per_sec;tacho_meters;tacho_abs_meters;num_vescs;ms_today_imu;roll;pitch;yaw;accX;accY;accZ;gyroX;gyroY;gyroZ;gnss_posTime;gnss_lat;gnss_lon;gnss_alt;gnss_gVel;gnss_vVel;gnss_hAcc;gnss_vAcc;
65233031;76.7;18.7;18.4;0;18.7;17.9;0.06;0;-0.08;0;0;-0.001;0;0;0;0;-1;3;115.2;0;1;-0.042;-0.057;65232968;0;0;0;0;0.544;342.543;0;0;0;-0.009;0.028;1;-1;0;0;0;0;0;0;0;0;0;65232959;47.59839380;-122.83071600;103.90000153;0.00000000;0.00000000;91.08899689;16.85919952;
65233124;76.7;18.7;18.4;0;18.7;17.9;0;0;0;0;0;-0.001;0;0;0;0;-1;3;115.2;0;1;-0.059;-0.046;65233069;0;0;0;0;0.544;342.536;0;0;0;-0.009;0.028;1;65233033;0.0237985;0.352592;0.0587483;-0.345405;-0.0189747;0.928266;-0.0889909;0.0462428;-0.234881;65232959;47.59839380;-122.83071600;103.90000153;0.00000000;0.00000000;91.08899689;16.85919952;
65233209;76.7;18.7;18.4;0;18.7;17.9;0;0;0;0;0;-0.001;0;0;0;0;-1;3;115.2;0;1;-0.059;-0.046;65233165;0;0;0;0;0.544;342.535;0;0;0;-0.009;0.028;1;65233125;0.0238842;0.352641;0.0592433;-0.345491;-0.0170327;0.928295;-0.0951087;0.115525;-0.305326;65232959;47.59839380;-122.83071600;103.90000153;0.00000000;0.00000000;91.08899689;16.85919952;
65233300;76.7;18.7;18.3;0;18.6;17.9;0;0;0;0;0;-0.001;0;0;0;0;-1;3;115.2;0;1;-0.059;-0.046;65233250;0;0;0;0;0.544;342.528;0;0;0;-0.009;0.028;1;65233210;0.0238846;0.352639;0.0597088;-0.341687;-0.0160702;0.928244;0.0504733;-0.0938751;-0.245683;65232959;47.59839380;-122.83071600;103.90000153;0.00000000;0.00000000;91.08899689;16.85919952;
65233399;76.7;18.7;18.4;0;18.7;17.9;0;0;0;0;0;-0.001;0;0;0;0;-1;3;115.2;0;1;-0.06;-0.046;65233341;0;0;0;0;0.544;342.527;0;0;0;-0.009;0.028;1;65233301;0.0238858;0.352655;0.0601792;-0.341201;-0.0155827;0.928193;0.0382377;0.0446903;-0.386573;65232999;47.59840002;-122.83086129;107.34724467;0.00000000;0.00000000;10.53469467;14.66881180;
65233481;76.7;18.7;18.3;0;18.6;17.9;0;0;0;0;0;-0.001;0;0;0;0;-1;3;115.2;0;1;-0.059;-0.046;65233432;0;0;0;0;0.544;342.523;0;0;0;-0.009;0.028;1;65233400;0.0239676;0.352661;0.0606715;-0.338045;-0.0150123;0.928188;-0.0192589;0.0461802;-0.240998;65232999;47.59840002;-122.83086129;107.34724467;0.00000000;0.00000000;10.53469467;14.66881180;
65233614;76.7;18.7;18.4;0;18.7;17.9;0;0;0;0;0;-0.001;0;0;0;0;-1;3;115.2;0;1;-0.06;-0.046;65233523;0;0;0;0;0.544;342.512;0;0;0;-0.009;0.028;1;65233482;0.0238326;0.352692;0.061058;-0.341329;-0.0180375;0.928124;-0.0192589;0.116176;-0.241715;65232999;47.59840002;-122.83086129;107.34724467;0.00000000;0.00000000;10.53469467;14.66881180;
65233750;76.7;18.7;18.4;0;18.7;17.9;0;0;0;0;0;-0.001;0;0;0;0;-1;3;115.2;0;1;-0.059;-0.046;65233661;0;0;0;0;0.544;342.479;0;0;0;-0.009;0.028;1;65233616;0.023953;0.352747;0.0615774;-0.341201;-0.0194865;0.928037;-0.170959;0.114874;-0.368937;65232999;47.59840002;-122.83086129;107.34724467;0.00000000;0.00000000;10.53469467;14.66881180;
65233842;76.7;18.7;18.4;0;18.7;17.9;0;0;0;0;0;-0.001;0;0;0;0;-1;3;115.2;0;1;-0.059;-0.046;65233793;0;0;0;0;0.544;342.472;0;0;0;-0.009;0.028;1;65233751;0.0239681;0.352738;0.0622635;-0.341013;-0.013178;0.927929;-0.0192589;-0.0938125;-0.239566;65232999;47.59840002;-122.83086129;107.34724467;0.00000000;0.00000000;10.53469467;14.66881180;
65233933;76.7;18.7;18.4;0;18.7;17.9;0;0;0;0;0;-0.001;0;0;0;0;-1;3;115.2;0;1;-0.059;-0.046;65233893;0;0;0;0;0.544;342.463;0;0;0;-0.009;0.028;1;65233843;0.0240288;0.352729;0.0629752;-0.337687;-0.0169795;0.927895;-0.0951087;0.115525;-0.305326;65232999;47.59840002;-122.83086129;107.34724467;0.00000000;0.00000000;10.53469467;14.66881180;
65234017;76.7;18.7;18.4;0;18.7;17.9;0;0;0;0;0;-0.001;0;0;0;0;-1;3;115.2;0;1;-0.059;-0.047;65233975;0;0;0;0;0.544;342.459;0;0;0;-0.009;0.028;1;65233934;0.0240598;0.352726;0.0634587;-0.344646;-0.0194884;0.927911;-0.0253767;0.0454665;-0.310727;65232999;47.59840002;-122.83086129;107.34724467;0.00000000;0.00000000;10.53469467;14.66881180;
65234108;76.7;18.7;18.3;0;18.8;17.9;0;0;0;0;0;-0.001;0;0;0;0;-1;3;115.2;0;1;-0.06;-0.046;65234066;0;0;0;0;0.544;342.457;0;0;0;-0.009;0.028;1;65234018;0.0240039;0.352722;0.0638652;-0.340817;-0.0165138;0.927922;-0.0828731;-0.0230399;-0.164436;65232999;47.59840002;-122.83086129;107.34724467;0.00000000;0.00000000;10.53469467;14.66881180;
65234200;76.7;18.7;18.4;0;18.7;17.9;0;0;0;0;0;-0.001;0;0;0;0;-1;3;115.2;0;1;-0.06;-0.046;65234150;0;0;0;0;0.544;342.452;0;0;0;-0.009;0.028;1;65234109;0.0241043;0.352717;0.064365;-0.339844;-0.0126109;0.927919;0.0443555;-0.0245924;-0.316128;65232999;47.59840002;-122.83086129;107.34724467;0.00000000;0.00000000;10.53469467;14.66881180;
65234344;76.7;18.7;18.4;0;18.7;17.9;0;0;0;0;0;-0.001;0;0;0;0;-1;3;115.2;0;1;-0.06;-0.047;65234286;0;0;0;0;0.544;342.441;0;0;0;-0.009;0.028;1;65234201;0.0240645;0.352692;0.0648151;-0.341559;-0.0150793;0.927961;-0.0376123;-0.0959535;-0.448751;65232999;47.59840002;-122.83086129;107.34724467;0.00000000;0.00000000;10.53469467;14.66881180;
65234424;76.7;18.7;18.5;0;18.7;17.9;0;0;0;0;0;-0.001;0;0;0;0;-1;3;115.2;0;1;-0.059;-0.046;65234382;0;0;0;0;0.544;342.437;0;0;0;-0.009;0.028;1;65234345;0.0241778;0.352705;0.0655688;-0.342702;-0.0170502;0.928024;-0.0951087;-0.0944636;-0.303177;65232999;47.59840002;-122.83086129;107.34724467;0.00000000;0.00000000;10.53469467;14.66881180;
65234518;76.7;18.7;18.4;0;18.6;17.9;0;0;0;0;0;-0.001;0;0;0;0;-1;3;115.2;0;1;-0.06;-0.047;65234473;0;0;0;0;0.544;342.43;0;0;0;-0.009;0.028;1;65234424;0.0242359;0.352766;0.066066;-0.341431;-0.0165283;0.928064;-0.0192589;0.116176;-0.241715;65233999;47.59841082;-122.83085688;109.00482770;0.00000000;0.00000000;8.09630871;12.14538670;
65234608;76.7;18.7;18.4;0;18.7;17.9;0;0;0;0;0;-0.001;0;0;0;0;-1;3;115.2;0;1;-0.059;-0.046;65234558;0;0;0;0;0.544;342.429;0;0;0;-0.009;0.028;1;65234519;0.0241841;0.352767;0.066476;-0.337329;-0.015043;0.928058;0.0382377;0.0446903;-0.386573;65233999;47.59841082;-122.83085688;109.00482770;0.00000000;0.00000000;8.09630871;12.14538670;
65234691;76.7;18.7;18.4;0;18.7;17.9;0;0;0;0;0;-0.001;0;0;0;0;-1;3;115.2;0;1;-0.06;-0.046;65234645;0;0;0;0;0.544;342.42;0;0;0;-0.009;0.028;1;65234610;0.0243311;0.352766;0.0669549;-0.342531;-0.0199582;0.92809;-0.0951087;0.0455291;-0.304609;65233999;47.59841082;-122.83085688;109.00482770;0.00000000;0.00000000;8.09630871;12.14538670;
65234783;76.7;18.7;18.4;0;18.8;17.9;0;0;0;0;0;-0.001;0;0;0;0;-1;3;115.2;0;1;-0.059;-0.047;65234743;0;0;0;0;0.544;342.42;0;0;0;-0.009;0.028;1;65234692;0.0243252;0.35274;0.0674269;-0.339427;-0.0195081;0.928074;0.0443555;0.0454039;-0.316844;65233999;47.59841082;-122.83085688;109.00482770;0.00000000;0.00000000;8.09630871;12.14538670;
65234873;76.7;18.7;18.4;0;18.7;17.9;0;0;0;0;0;-0.001;0;0;0;0;-1;3;115.2;0;1;-0.059;-0.047;65234832;0;0;0;0;0.544;342.415;0;0;0;-0.009;0.028;1;65234784;0.0242502;0.352723;0.0678388;-0.340774;-0.0184608;0.928039;-0.101227;-0.0951772;-0.372905;65233999;47.59841082;-122.83085688;109.00482770;0.00000000;0.00000000;8.09630871;12.14538670;
65234967;76.7;18.7;18.4;0;18.7;17.9;0;0;0;0;0;-0.001;0;0;0;0;-1;3;115.2;0;1;-0.06;-0.047;65234920;0;0;0;0;0.544;342.414;0;0;0;-0.009;0.028;1;65234874;0.0242939;0.35273;0.0683059;-0.342463;-0.0164773;0.928005;-0.0314945;0.114749;-0.381172;65233999;47.59841082;-122.83085688;109.00482770;0.00000000;0.00000000;8.09630871;12.14538670;
65235099;76.7;18.7;18.4;0;18.7;17.9;0;0;0;0;0;-0.001;0;0;0;0;-1;3;115.2;0;1;-0.059;-0.047;65235007;0;0;0;0;0.544;342.41;0;0;0;-0.009;0.028;1;65234969;0.0244541;0.352756;0.068787;-0.337329;-0.0174829;0.928103;-0.0253767;0.255455;-0.312876;65233999;47.59841082;-122.83085688;109.00482770;0.00000000;0.00000000;8.09630871;12.14538670;
65235189;76.7;18.7;18.4;0;18.7;17.9;0;0;0;0;0;-0.001;0;0;0;0;-1;3;115.2;0;1;-0.059;-0.046;65235101;0;0;0;0;0.544;342.386;0;0;0;-0.009;0.028;1;65235100;0.0243774;0.352796;0.0692117;-0.341192;-0.0169313;0.928071;0.0504733;0.0461175;-0.247116;65233999;47.59841082;-122.83085688;109.00482770;0.00000000;0.00000000;8.09630871;12.14538670;
65235283;76.7;18.7;18.4;0;18.7;17.9;0;0;0;0;0;-0.001;0;0;0;0;-1;3;115.2;0;1;-0.059;-0.046;65235190;0;0;0;0;0.544;342.363;0;0;0;-0.009;0.028;1;65235190;0.0243768;0.35285;0.0699485;-0.335444;-0.0135306;0.928011;-0.177077;0.0441644;-0.437949;65233999;47.59841082;-122.83085688;109.00482770;0.00000000;0.00000000;8.09630871;12.14538670;
65235416;76.7;18.7;18.4;0;18.6;17.9;0;0;0;0;0;-0.001;0;0;0;0;-1;3;115.2;0;1;-0.059;-0.046;65235411;0;0;0;0;0.544;342.345;0;0;0;-0.009;0.028;1;65235285;0.0247023;0.352878;0.0705113;-0.345004;-0.0224009;0.928095;0.0443555;-0.0945888;-0.315412;65233999;47.59841082;-122.83085688;109.00482770;0.00000000;0.00000000;8.09630871;12.14538670;
65235509;76.7;18.7;18.4;0;18.7;17.9;0;0;0;0;0;-0.001;0;0;0;0;-1;3;115.2;0;1;-0.059;-0.046;65235411;0;0;0;0;0.544;342.345;0;0;0;-0.009;0.028;1;65235416;0.0241973;0.35272;0.0707864;-0.342088;-0.0189877;0.928046;0.417488;-0.162044;-0.0663688;65234999;47.59842054;-122.83084599;109.38016394;0.00000000;0.00000000;5.38838530;9.92905140;
65235591;76.7;18.7;18.4;0;18.6;17.9;0;0;0;0;0;-0.001;0;0;0;0;-1;3;115.2;0;1;-0.06;-0.047;65235509;0;0;0;0;0.544;342.335;0;0;0;-0.009;0.028;1;65235510;0.0238108;0.352387;0.0713325;-0.34549;-0.0138191;0.927751;-0.677437;0.0431753;-0.534583;65234999;47.59842054;-122.83084599;109.38016394;0.00000000;0.00000000;5.38838530;9.92905140;
65235682;76.7;18.7;18.4;0;18.7;17.9;0;0;0;0;0;-0.001;0;0;0;0;-1;3;115.2;0;1;-0.06;-0.047;65235682;0;0;0;0;0.544;342.326;0;0;0;-0.009;0.028;1;65235595;0.024628;0.352482;0.0720876;-0.339153;-0.0231514;0.927857;0.0321199;-0.655987;-0.449137;65234999;47.59842054;-122.83084599;109.38016394;0.00000000;0.00000000;5.38838530;9.92905140;
65235774;76.7;18.7;18.4;0;18.7;17.9;0;0;0;0;0;-0.001;0;0;0;0;-1;3;115.2;0;1;-0.061;-0.047;65235682;0;0;0;0;0.544;342.326;0;0;0;-0.009;0.028;1;65235684;0.0241547;0.352642;0.0723519;-0.345832;-0.0168703;0.928068;0.405252;-0.443456;-0.20296;65234999;47.59842054;-122.83084599;109.38016394;0.00000000;0.00000000;5.38838530;9.92905140;
65235867;76.7;18.7;18.4;0;18.7;17.9;0;0;0;0;0;-0.001;0;0;0;0;-1;3;115.2;0;1;-0.06;-0.046;65235866;0;0;0;0;0.544;342.309;0;0;0;-0.009;0.028;1;65235776;0.0237816;0.352675;0.0726455;-0.33947;-0.0119913;0.928203;-0.240691;0.604911;-0.367834;65234999;47.59842054;-122.83084599;109.38016394;0.00000000;0.00000000;5.38838530;9.92905140;
65235950;76.7;18.7;18.4;0;18.8;17.9;0;0;0;0;0;-0.001;0;0;0;0;-1;3;115.2;0;1;-0.06;-0.046;65235866;0;0;0;0;0.544;342.309;0;0;0;-0.009;0.028;1;65235868;0.0243631;0.352378;0.0733402;-0.33848;-0.0246511;0.928024;-0.386273;0.534327;-0.424611;65234999;47.59842054;-122.83084599;109.38016394;0.00000000;0.00000000;5.38838530;9.92905140;
65236043;76.7;18.7;18.5;0;18.8;17.9;0;0;0;0;0;-0.001;0;0;0;0;-1;3;115.2;0;1;-0.059;-0.046;65235951;0;0;0;0;0.544;342.299;0;0;0;-0.009;0.028;1;65235952;0.0246487;0.352457;0.073871;-0.336185;-0.018642;0.928169;0.25967;-0.0240666;-0.264752;65234999;47.59842054;-122.83084599;109.38016394;0.00000000;0.00000000;5.38838530;9.92905140;
65236132;76.7;18.7;18.5;0;18.7;17.9;0;0;0;0;0;-0.001;0;0;0;0;-1;3;115.2;0;1;-0.06;-0.046;65236043;0;0;0;0;0.544;342.294;0;0;0;-0.009;0.028;1;65236044;0.0239403;0.352541;0.074044;-0.343222;-0.0159635;0.928265;0.25967;-0.514041;-0.259737;65234999;47.59842054;-122.83084599;109.38016394;0.00000000;0.00000000;5.38838530;9.92905140;
65236222;76.7;18.7;18.5;0;18.7;17.9;0;0;0;0;0;-0.001;0;0;0;0;-1;3;115.2;0;1;-0.06;-0.046;65236133;0;0;0;0;0.544;342.287;0;0;0;-0.009;0.028;1;65236133;0.0240711;0.352725;0.0745508;-0.339077;-0.015247;0.928503;-0.392391;-0.236347;-0.486459;65234999;47.59842054;-122.83084599;109.38016394;0.00000000;0.00000000;5.38838530;9.92905140;
65236310;76.7;18.7;18.4;0;18.7;17.9;0;0;0;0;0;-0.001;0;0;0;0;-1;3;115.2;0;1;-0.06;-0.046;65236223;0;0;0;0;0.544;342.283;0;0;0;-0.009;0.028;1;65236224;0.0246468;0.352645;0.075221;-0.341934;-0.0201743;0.928469;-0.013141;0.256883;-0.173419;65234999;47.59842054;-122.83084599;109.38016394;0.00000000;0.00000000;5.38838530;9.92905140;
65236409;76.7;18.7;18.4;0;18.7;17.9;0;0;0;0;0;-0.001;0;0;0;0;-1;3;115.2;0;1;-0.059;-0.046;65236311;0;0;0;0;0.544;342.282;0;0;0;-0.009;0.028;1;65236315;0.0241932;0.352546;0.0755273;-0.341064;-0.0130126;0.928323;0.189938;0.46597;-0.263649;65234999;47.59842054;-122.83084599;109.38016394;0.00000000;0.00000000;5.38838530;9.92905140;
65236535;76.7;18.7;18.4;0;18.7;17.9;0;0;0;0;0;-0.001;0;0;0;0;-1;3;115.2;0;1;-0.059;-0.046;65236410;0;0;0;0;0.544;342.261;0;0;0;-0.009;0.028;1;65236411;0.0241704;0.352648;0.0759859;-0.340748;-0.0149848;0.928269;-0.386273;0.0443522;-0.419596;65235999;47.59842252;-122.83083868;109.10290630;0.00000000;0.00000000;4.64369392;8.85749912;
65236634;76.7;18.7;18.4;0;18.7;17.9;0;0;0;0;0;-0.001;0;0;0;0;-1;3;115.2;0;1;-0.06;-0.046;65236540;0;0;0;0;0.544;342.242;0;0;0;-0.009;0.028;1;65236541;0.024872;0.352715;0.0767053;-0.341576;-0.0213678;0.928197;-0.0951087;-0.16446;-0.30246;65235999;47.59842252;-122.83083868;109.10290630;0.00000000;0.00000000;4.64369392;8.85749912;
65236718;76.7;18.7;18.3;0;18.7;17.9;0;0;0;0;0;-0.001;0;0;0;0;-1;3;115.2;0;1;-0.059;-0.046;65236635;0;0;0;0;0.544;342.23;0;0;0;-0.009;0.028;1;65236636;0.0242104;0.352697;0.0770811;-0.341618;-0.0160051;0.928057;0.126323;-0.0232277;-0.182789;65235999;47.59842252;-122.83083868;109.10290630;0.00000000;0.00000000;4.64369392;8.85749912;
65236809;76.7;18.7;18.4;0;18.7;17.9;0;0;0;0;0;-0.001;0;0;0;0;-1;3;115.2;0;1;-0.06;-0.046;65236808;0;0;0;0;0.544;342.217;0;0;0;-0.009;0.028;1;65236719;0.0230039;0.352755;0.0770462;-0.340356;-0.00827884;0.928029;1.49406;-0.159414;0.190511;65235999;47.59842252;-122.83083868;109.10290630;0.00000000;0.00000000;4.64369392;8.85749912;
65236898;76.7;18.7;18.4;0;18.7;17.9;0;0;0;0;0;-0.001;0;0;0;0;-1;3;115.2;0;1;-0.06;-0.046;65236808;0;0;0;0;0.544;342.217;0;0;0;-0.009;0.028;1;65236810;0.0223964;0.352852;0.0772945;-0.345081;-0.00745407;0.928084;-0.986955;0.249846;-0.860905;65235999;47.59842252;-122.83083868;109.10290630;0.00000000;0.00000000;4.64369392;8.85749912;
65236990;76.7;18.7;18.4;0;18.7;17.9;0;0;0;0;0;-0.001;0;0;0;0;-1;3;115.2;0;1;-0.059;-0.046;65236899;0;0;0;0;0.544;342.205;0;0;0;-0.009;0.028;1;65236901;0.0247737;0.352632;0.0786241;-0.339802;-0.0482281;0.927772;-0.677437;0.253164;-0.536733;65235999;47.59842252;-122.83083868;109.10290630;0.00000000;0.00000000;4.64369392;8.85749912;
65237082;76.7;18.7;18.4;0;18.7;17.9;0;0;0;0;0;-0.001;0;0;0;0;-1;3;115.2;0;1;-0.06;-0.047;65236991;0;0;0;0;0.544;342.204;0;0;0;-0.009;0.028;1;65236992;0.022023;0.352598;0.078006;-0.340979;-0.00275514;0.927646;2.82265;-0.0119847;0.915705;65235999;47.59842252;-122.83083868;109.10290630;0.00000000;0.00000000;4.64369392;8.85749912;
65237168;76.7;18.7;18.4;0;18.7;17.9;0;0;0;0;0;-0.001;0;0;0;0;-1;3;115.2;0;1;-0.06;-0.047;65237167;0;0;0;0;0.544;342.197;0;0;0;-0.009;0.028;1;65237084;0.0193783;0.352566;0.0774959;-0.341738;-0.00350314;0.927675;0.0321199;-0.795979;-0.447705;65235999;47.59842252;-122.83083868;109.10290630;0.00000000;0.00000000;4.64369392;8.85749912;
65237256;76.7;18.7;18.4;0;18.7;17.9;0;0;0;0;0;-0.002;0;0;0;0;-1;3;115.2;0;1;-0.056;-0.058;65237167;0;0;0;0;0.544;342.197;0;0;0;-0.009;0.028;1;65237169;0.0206248;0.351682;0.0784872;-0.3437;-0.0230488;0.927335;-0.334894;-1.0078;-0.624153;65235999;47.59842252;-122.83083868;109.10290630;0.00000000;0.00000000;4.64369392;8.85749912;
65237348;76.7;18.7;18.3;0;18.7;17.9;0;0;0;0;0;-0.003;0;0;0;0;-1;3;115.2;0;1;-0.048;-0.126;65237257;0;0;0;0;0.544;342.193;0;0;0;-0.009;0.028;1;65237258;0.0188892;0.346026;0.0769711;-0.336852;-0.0316312;0.925323;3.7341;-7.75723;3.37455;65235999;47.59842252;-122.83083868;109.10290630;0.00000000;0.00000000;4.64369392;8.85749912;
65237439;76.7;18.7;18.4;0;18.7;17.9;0;0;0;0;0;-0.004;0;0;0;0;-1;3;115.2;0;1;-0.085;-0.182;65237348;0;0;0;0;0.544;342.182;0;0;0;-0.009;0.028;1;65237349;0.0101709;0.32271;0.0731375;-0.326336;0.0109635;0.918735;3.8466;-21.5826;-0.00745014;65235999;47.59842252;-122.83083868;109.10290630;0.00000000;0.00000000;4.64369392;8.85749912;
65237531;76.7;18.7;18.4;0;18.8;17.9;-0.74;0;-0.64;0.7;-1;0;0;0;0;0;-2;4;54;0;1;0.097;-0.064;65237440;0;0;0;0;0.543;342.157;0;0;0;-0.009;0.028;1;65237440;0.00601355;0.279229;0.0737135;-0.281006;0.0221295;0.909921;-0.57836;-32.4482;-1.47564;65236999;47.59843090;-122.83082885;107.94460611;0.00000000;0.00000000;4.42131758;8.39383602;
65237616;76.7;18.7;18.4;0;18.7;17.9;0.19;0;-0.42;-0.17;0;0;0;0;0;0;-2;4;54;0;1;0.163;-0.008;65237532;0;0;0;0;0.543;342.14;0;-0.52;-0.001;-0.018;0.037;1;65237533;0.0114949;0.229326;0.0752817;-0.24255;-0.00872929;0.905533;-5.58072;-32.9315;-0.820978;65236999;47.59843090;-122.83082885;107.94460611;0.00000000;0.00000000;4.42131758;8.39383602;
65237708;76.7;18.7;18.4;0;18.7;17.9;0.23;0;-0.35;-0.28;0;0;0;0;0;0;-2;4;54;0;1;0.163;-0.007;65237665;0;0;0;0;0.543;342.133;0;0.62;0;-0.018;0.037;1;65237666;0.0200657;0.176115;0.0765662;-0.164589;0.0121168;0.905628;-5.87681;-36.0377;-3.36329;65236999;47.59843090;-122.83082885;107.94460611;0.00000000;0.00000000;4.42131758;8.39383602;
65237800;76.7;18.7;18.4;0;18.8;17.9;0.28;0;-0.32;-0.42;0;0;0;0;0;0;-2;4;54;0;1;0.162;-0.007;65237758;0;0;0;0;0.543;342.109;0;0.67;0;-0.018;0.037;1;65237759;0.0256674;0.0874816;0.0796256;-0.0664579;-0.0155653;0.912408;2.10817;-38.3259;-1.22955;65236999;47.59843090;-122.83082885;107.94460611;0.00000000;0.00000000;4.42131758;8.39383602;
65237891;76.7;18.7;18.4;0;18.7;17.9;0.33;0;-0.26;-0.61;0;0;0;0;0;0;-2;4;54;0;1;0.163;-0.007;65237843;0;0;0;0;0.543;342.096;0;-0.63;0;-0.018;0.037;1;65237843;0.0199821;0.0293484;0.079641;0.00149916;0.0035334;0.922036;5.04672;-34.5394;-0.612587;65236999;47.59843090;-122.83082885;107.94460611;0.00000000;0.00000000;4.42131758;8.39383602;
65237985;76.7;18.7;18.4;0;18.7;17.9;0.34;0;-0.22;-0.7;0;0;0;0;0;0;-2;4;54;0;1;0.162;-0.006;65237931;0;0;0;0;0.543;342.082;0;0.88;0;-0.018;0.037;1;65237933;0.0123351;-0.0208915;0.0808702;0.0712637;0.00659915;0.937075;2.95107;-24.2567;-1.37723;65236999;47.59843090;-122.83082885;107.94460611;0.00000000;0.00000000;4.42131758;8.39383602;
65238066;76.7;18.7;18.4;0;18.7;17.9;0.27;0;-0.31;-0.42;0;0;0;0;0;0;-2;4;54;0;1;0.163;-0.007;65238024;0;0;0;0;0.543;342.08;0;0.46;0;-0.018;0.037;1;65238024;0.00963263;-0.051316;0.0816229;0.0935666;-0.0135799;0.954252;0.733124;-13.3173;0.462216;65236999;47.59843090;-122.83082885;107.94460611;0.00000000;0.00000000;4.42131758;8.39383602;
65238164;76.7;18.7;18.4;0;18.7;17.9;-0.03;0;-0.39;0.01;0;0;0;0;0;0;-2;4;54;0;1;0.163;-0.008;65238115;0;0;0;0;0.543;342.064;0;0.38;0;-0.018;0.037;1;65238116;0.00956498;-0.0620662;0.0797061;0.10676;-0.00161297;0.973454;-0.57587;-0.706739;1.43181;65236999;47.59843090;-122.83082885;107.94460611;0.00000000;0.00000000;4.42131758;8.39383602;
65238248;76.7;18.7;18.4;0;18.8;17.9;-0.57;0;-0.27;0.8;0;0;0;0;0;0;-2;4;54;0;1;0.162;-0.01;65238211;0;0;0;0;0.543;342.042;0;0.93;0;-0.018;0.037;1;65238212;0.0102686;-0.0575784;0.0796262;0.0810713;0.0082665;0.991143;-1.63046;6.96;-1.85694;65236999;47.59843090;-122.83082885;107.94460611;0.00000000;0.00000000;4.42131758;8.39383602;
65238381;76.7;18.7;18.5;0;18.7;17.9;-1.06;0;0.36;1.37;-6;0;0;0;0;0;-2;4;50.3333;0;1;0.161;-0.012;65238293;0;0;0;0;0.543;342.03;0;-1.42;0;-0.018;0.037;1;65238293;0.0122522;-0.0457511;0.0833999;0.0539158;-0.0143765;1.00371;-1.38824;8.63538;-2.31697;65236999;47.59843090;-122.83082885;107.94460611;0.00000000;0.00000000;4.42131758;8.39383602;
65238474;76.7;18.7;18.5;0;18.7;17.9;2.98;-0.01;0.14;2.95;0;0;0;0;0;0;-3;5;352.8;0;1;0.097;0.123;65238433;0;0;0;0;0.543;342.018;-0.01;3.42;0;-0.028;0.047;1;65238434;0.0112883;-0.0295324;0.0844565;0.0290374;-0.0112342;1.012;3.97264;4.68896;1.96133;65237999;47.59843221;-122.83081722;106.19641354;0.00000000;0.00000000;4.39147282;7.64340305;
65238567;76.7;18.7;18.5;0;18.8;17.9;4.73;-0.01;0.39;4.58;-2;0;0;0;0;0;-4;6;295.2;0;1;-0.015;0.141;65238525;0;0;0;0;0.543;342.007;-0.01;4.82;-0.112;-0.037;0.056;1;65238526;0.00362804;-0.0235987;0.0829555;0.0265806;0.0513708;1.01184;3.43064;2.27865;-0.988169;65237999;47.59843221;-122.83081722;106.19641354;0.00000000;0.00000000;4.39147282;7.64340305;
65238658;76.7;18.7;18.4;0;18.7;17.9;4.17;-0.02;0.55;5.75;-26;0;0;0;0;0.0001;-5;7;235.8;0;1;-0.108;0.073;65238609;0;0;0;0.0001;0.543;342.004;-0.02;5.97;-0.052;-0.037;0.056;1;65238610;-7.52323e-05;-0.0265715;0.0867309;0.0237495;0.036054;1.00763;-0.339821;-4.60278;-3.04647;65237999;47.59843221;-122.83081722;106.19641354;0.00000000;0.00000000;4.39147282;7.64340305;
65238752;76.7;18.7;18.4;0;18.6;17.9;-2.45;-0.01;0.67;5.72;-65;-0.005;0;0;0;0.0001;-6;8;176.4;0;1;-0.124;-0.065;65238700;0;0;0;0.0001;0.543;342;-0.02;5.7;-0.009;-0.047;0.065;1;65238700;0.00287806;-0.0344508;0.0928667;0.0943671;-0.00567444;1.00271;-3.48513;-3.49727;-4.46836;65237999;47.59843221;-122.83081722;106.19641354;0.00000000;0.00000000;4.39147282;7.64340305;
65238840;76.7;18.7;18.4;0;18.7;17.9;-6;0;0.01;6;-8;-0.004;0;0;0;0.0001;-7;9;115.2;0;1;-0.087;-0.155;65238791;0;0;0;0.0001;0.543;341.982;0;-6.06;-0.076;-0.056;0.075;1;65238791;0.00782962;-0.0375731;0.0999971;0.0535154;-0.0174962;0.999727;-2.28133;1.26356;-4.41189;65237999;47.59843221;-122.83081722;106.19641354;0.00000000;0.00000000;4.39147282;7.64340305;
65238925;76.7;18.7;18.4;0;18.7;17.9;-6.01;0;0;6;-113;-0.003;0;0;0;0.0001;-8;10;2.1666;0;1;-0.036;-0.185;65238882;0;0;0;0.0001;0.543;341.977;0;-5.99;-0.098;-0.075;0.094;1;65238882;0.00923245;-0.0337422;0.105848;0.0581548;-0.0342319;0.998272;0.958182;4.01064;-2.7566;65237999;47.59843221;-122.83081722;106.19641354;0.00000000;0.00000000;4.39147282;7.64340305;
65239014;76.7;18.7;18.4;0;18.7;17.9;-6.03;-0.02;0.01;6.02;-96;-0.004;0;0;0;0.0002;-10;12;271.534;0;1;-0.093;-0.238;65239006;0;0;0;0.0001;0.543;341.975;-0.02;-6.14;-0.084;-0.084;0.103;1;65239014;0.00581109;-0.0292267;0.110247;0.0487386;0.0156168;0.996794;1.4573;1.12524;-4.24658;65237999;47.59843221;-122.83081722;106.19641354;0.00000000;0.00000000;4.39147282;7.64340305;
65239100;76.7;18.7;18.4;0;18.7;17.9;-6.03;-0.03;0;6.02;-183;-0.004;0;0;0;0.0002;-12;14;143.399;0;1;-0.225;-0.382;65239006;0;0;0;0.0001;0.543;341.975;-0.02;-6.14;-0.084;-0.084;0.103;1;65239014;0.00581109;-0.0292267;0.110247;0.0487386;0.0156168;0.996794;1.4573;1.12524;-4.24658;65237999;47.59843221;-122.83081722;106.19641354;0.00000000;0.00000000;4.39147282;7.64340305;
65239198;76.7;18.7;18.4;0;18.7;17.9;-6.02;-0.04;-0.04;6.02;-257;-0.004;0;0;0;0.0003;-15;17;341.042;0;1;0.052;-0.521;65239101;0;0;0;0.0002;0.543;341.97;-0.04;-6.15;-0.182;-0.113;0.131;1;65239106;0.000697397;-0.0325513;0.121506;0.0618475;-0.00308505;0.992291;1.52091;-1.4654;-4.29592;65237999;47.59843221;-122.83081722;106.19641354;0.00000000;0.00000000;4.39147282;7.64340305;
65239283;76.7;18.7;18.4;0;18.7;17.9;-6;-0.05;0;6;-262;-0.005;0;0;0;0.0004;-17;19;193.867;0;1;0.064;-0.507;65239199;0;0;0;0.0003;0.543;341.971;-0.04;-5.96;-0.242;-0.141;0.16;1;65239200;-0.000889064;-0.0324795;0.127682;0.0405087;0.00652815;0.990461;-0.191803;1.82956;-3.82801;65237999;47.59843221;-122.83081722;106.19641354;0.00000000;0.00000000;4.39147282;7.64340305;
65239373;76.7;18.7;18.4;0;18.7;17.9;-5.96;-0.04;-0.03;5.95;-259;-0.003;0;0;0;0.0005;-20;22;51.6729;0;1;0.071;-0.482;65239284;0;0;0;0.0004;0.543;341.971;-0.06;-6.13;-0.247;-0.16;0.179;1;65239285;-6.22193e-05;-0.028136;0.132066;0.00300022;-0.00183065;0.990313;-0.875644;5.13798;-2.04506;65237999;47.59843221;-122.83081722;106.19641354;0.00000000;0.00000000;4.39147282;7.64340305;
65239505;76.7;18.7;18.4;0;18.8;17.9;-1.21;0;0.09;1.2;-186;-0.02;0;0;0;0.0005;-22;24;282.112;0;1;-0.078;-0.748;65239374;0;0;0;0.0005;0.543;341.971;-0.03;-5.91;-0.244;-0.188;0.207;1;65239375;0.00234376;-0.0116805;0.134882;-0.0375707;-0.00193461;0.99263;-2.58468;10.1215;-0.751487;65238999;47.59843068;-122.83081151;105.34982081;0.00000000;0.00000000;4.43306255;7.19569731;
65239598;76.7;18.7;18.4;0;18.6;17.9;-3.5;-0.04;-0.08;3.52;-298;-0.001;0;0;0;0.0006;-26;28;8.31137;0;1;0.04;-0.812;65239506;0;0;0;0.0005;0.543;341.958;-0.01;-1.07;-0.187;-0.207;0.226;1;65239507;0.00762212;-0.00869783;0.137084;0.0593478;-0.0198227;0.991491;-4.52619;-2.14123;-1.93136;65238999;47.59843068;-122.83081151;105.34982081;0.00000000;0.00000000;4.43306255;7.19569731;
65239687;76.7;18.7;18.4;0;18.7;17.9;-0.89;0;0.07;0.97;-27;-0.017;0;0;0;0.0007;-28;30;287.2;0;1;-0.001;-0.514;65239686;0;0;0;0.0007;0.543;341.942;0.01;1.19;-0.012;-0.263;0.282;1;65239599;0.0101391;-0.00177898;0.134481;-0.15609;0.000297544;0.99021;1.06224;17.3631;2.29778;65238999;47.59843068;-122.83081151;105.34982081;0.00000000;0.00000000;4.43306255;7.19569731;
65239775;76.7;18.7;18.4;0;18.7;17.9;0.34;-0.01;0.78;4.3;0;0;0;0;0;0.0007;-29;31;235.8;0;1;-0.124;-0.092;65239686;0;0;0;0.0007;0.543;341.942;0.01;1.19;-0.012;-0.263;0.282;1;65239690;0.0106426;0.0377434;0.131438;-0.027499;0.0186231;0.998264;-4.61914;23.7012;-0.852518;65238999;47.59843068;-122.83081151;105.34982081;0.00000000;0.00000000;4.43306255;7.19569731;
65239865;76.7;18.8;18.4;0;18.8;17.9;-1.32;0;-0.27;1.29;0;0;0;0;0;0.0007;-30;32;176.4;0;1;-0.107;-0.115;65239780;0;0;0;0.0007;0.543;341.924;-0.01;-3.23;-0.011;-0.273;0.292;1;65239780;0.0167083;0.08734;0.131035;-0.175044;-0.041668;1.00456;-0.88658;35.2925;3.12853;65238999;47.59843068;-122.83081151;105.34982081;0.00000000;0.00000000;4.43306255;7.19569731;
65239966;76.7;18.8;18.4;0;18.7;17.9;0.01;0;-0.07;-0.03;3;0;0;0;0;0.0007;-30;32;178.567;0;1;-0.094;-0.132;65239965;0;0;0;0.0007;0.543;341.918;0;0.09;0;-0.282;0.301;1;65239867;0.0158769;0.14178;0.129013;-0.166806;-0.00981502;1.00776;0.802854;30.5703;0.00691413;65238999;47.59843068;-122.83081151;105.34982081;0.00000000;0.00000000;4.43306255;7.19569731;
65240048;76.7;18.8;18.5;0;18.7;17.9;-0.13;0;-0.06;-0.17;0;0;0;0;0;0.0007;-29;33;235.8;0;1;-0.156;-0.007;65239965;0;0;0;0.0007;0.543;341.918;0;0.09;0;-0.282;0.301;1;65239967;0.0140099;0.186776;0.132135;-0.178115;0.00412915;1.0051;0.0785701;26.6152;-3.40269;65238999;47.59843068;-122.83081151;105.34982081;0.00000000;0.00000000;4.43306255;7.19569731;
65240139;76.7;18.8;18.4;0;18.8;17.9;0.09;0;0.13;0.09;0;0;0;0;0;0.0007;-29;33;235.8;0;1;-0.162;0.014;65240049;0;0;0;0.0007;0.543;341.904;0;-0.26;0;-0.273;0.311;1;65240049;0.0174093;0.23269;0.137671;-0.192622;-0.0340251;1.00196;-2.87952;33.6304;-1.95004;65238999;47.59843068;-122.83081151;105.34982081;0.00000000;0.00000000;4.43306255;7.19569731;
65240232;76.7;18.8;18.5;0;18.8;17.9;0.62;0;0.35;0.73;0;0;0;0;0;0.0007;-29;33;235.8;0;1;-0.162;0.011;65240140;0;0;0;0.0007;0.543;341.89;0;0.66;0;-0.273;0.311;1;65240140;0.0208542;0.285678;0.135649;-0.248179;-0.0380929;0.999115;0.424904;35.7343;5.25766;65238999;47.59843068;-122.83081151;105.34982081;0.00000000;0.00000000;4.43306255;7.19569731;
65240316;76.7;18.8;18.5;0;18.8;17.9;0.69;0;0.61;1.84;-115;0;0;0;0;0.0007;-30;34;176.4;0;1;-0.152;-0.02;65240233;0;0;0;0.0007;0.543;341.886;0;-0.67;0;-0.273;0.311;1;65240233;0.0147632;0.33942;0.131918;-0.34312;0.0190418;0.993358;3.48814;33.6355;-1.45469;65238999;47.59843068;-122.83081151;105.34982081;0.00000000;0.00000000;4.43306255;7.19569731;
65240405;76.7;18.8;18.5;0;18.8;17.9;0.1;0;0;0.02;35;0;0;0;0;0.0007;-29;35;235.8;0;1;-0.126;-0.071;65240317;0;0;0;0.0007;0.543;341.882;0;-0.94;-0.104;-0.282;0.32;1;65240318;0.0110794;0.339564;0.131981;-0.394287;0.0476745;0.966913;-2.4856;-3.96081;-1.88096;65238999;47.59843068;-122.83081151;105.34982081;0.00000000;0.00000000;4.43306255;7.19569731;
65240500;76.7;18.8;18.5;0;18.7;17.9;0.48;0;0.27;0.55;0;0;0;0;0;0.0007;-29;35;235.8;0;1;-0.162;0.012;65240499;0;0;0;0.0007;0.543;341.881;0;0.51;0;-0.273;0.329;1;65240407;0.0152171;0.341516;0.135197;-0.284431;-0.0200471;0.949005;-0.856045;1.02688;-0.177618;65239999;47.59843115;-122.83080535;104.97302614;0.00000000;0.00000000;4.61236000;7.18013763;
65240589;76.7;18.8;18.4;0;18.7;17.9;0.48;0;0.28;0.57;0;0;0;0;0;0.0007;-29;35;235.8;0;1;-0.162;0.012;65240499;0;0;0;0.0007;0.543;341.881;0;0.51;0;-0.273;0.329;1;65240501;0.0135232;0.343188;0.134884;-0.297269;0.00988793;0.935293;1.12093;2.07793;-0.0807401;65239999;47.59843115;-122.83080535;104.97302614;0.00000000;0.00000000;4.61236000;7.18013763;
65240682;76.7;18.8;18.5;0;18.7;17.9;0.52;0;0.29;0.57;0;0;0;0;0;0.0007;-29;35;235.8;0;1;-0.162;0.013;65240632;0;0;0;0.0007;0.543;341.879;0;0.64;0;-0.273;0.329;1;65240633;0.0143031;0.343757;0.135584;-0.328885;-0.014225;0.925577;-0.474359;-1.42765;-0.60762;65239999;47.59843115;-122.83080535;104.97302614;0.00000000;0.00000000;4.61236000;7.18013763;
65240767;76.7;18.8;18.5;0;18.8;17.9;0.39;0;0.22;0.43;0;0;0;0;0;0.0007;-29;35;235.8;0;1;-0.162;0.012;65240724;0;0;0;0.0007;0.543;341.873;0;0.51;0;-0.273;0.329;1;65240725;0.0133127;0.344362;0.135959;-0.340808;0.0409803;0.917692;-0.783876;-0.661007;-0.939673;65239999;47.59843115;-122.83080535;104.97302614;0.00000000;0.00000000;4.61236000;7.18013763;
65240858;76.7;18.8;18.6;0;18.8;17.9;-0.32;0;-0.03;-0.4;0;0;0;0;0;0.0007;-29;35;235.8;0;1;-0.162;0.014;65240815;0;0;0;0.0007;0.543;341.867;0;-0.1;0;-0.273;0.329;1;65240816;0.019301;0.346057;0.139239;-0.382343;-0.0208616;0.915725;-3.31995;-0.748144;-2.61363;65239999;47.59843115;-122.83080535;104.97302614;0.00000000;0.00000000;4.61236000;7.18013763;
65240948;76.7;18.8;18.5;0;18.8;17.9;-2.9;-0.01;0.72;-3.19;0;0;0;0;0;0.0008;-29;35;235.8;0;1;-0.159;0.017;65240900;0;0;0;0.0007;0.543;341.853;-0.01;-3.33;0;-0.273;0.329;1;65240902;0.0229065;0.348818;0.143918;-0.381541;-0.0484112;0.91422;2.45683;0.801691;-1.66061;65239999;47.59843115;-122.83080535;104.97302614;0.00000000;0.00000000;4.61236000;7.18013763;
65241042;76.7;18.8;18.5;0;18.7;17.9;-5.46;-0.02;1.11;-5.28;1;0.008;0;0;0;0.0008;-28;36;295.2;0;1;-0.117;0.127;65240998;0;0;0;0.0008;0.543;341.826;-0.02;-5.87;0.108;-0.263;0.339;1;65240999;0.0191923;0.350762;0.144761;-0.357959;-0.0482318;0.912747;2.08862;0.754319;0.550629;65239999;47.59843115;-122.83080535;104.97302614;0.00000000;0.00000000;4.61236000;7.18013763;
65241132;76.7;18.7;18.4;0;18.7;17.9;-6.01;0;-0.01;-6.01;72;0.005;0;0;0;0.0008;-26;38;24.6334;0;1;-0.083;0.134;65241082;0;0;0;0.0008;0.543;341.801;0;-6.03;0.098;-0.254;0.348;1;65241082;0.0163718;0.353485;0.142753;-0.371699;0.0119885;0.912505;-1.93749;0.690095;1.11535;65239999;47.59843115;-122.83080535;104.97302614;0.00000000;0.00000000;4.61236000;7.18013763;
65241216;76.7;18.7;18.5;0;18.7;17.9;-6.03;-0.01;-0.01;-6.03;111;0.004;0;0;0;0.0008;-25;39;115.2;0;1;-0.106;0.169;65241175;0;0;0;0.0008;0.543;341.778;0;-5.96;0.018;-0.245;0.358;1;65241176;0.0210022;0.35333;0.143556;-0.384321;0.0020666;0.911246;-5.41191;-1.58622;-2.42151;65239999;47.59843115;-122.83080535;104.97302614;0.00000000;0.00000000;4.61236000;7.18013763;
65241351;76.7;18.7;18.4;0;18.7;17.9;-6;-0.02;0;-6;163;0.004;0;0;0;0.0009;-23;41;235.8;0;1;-0.187;0.274;65241265;0;0;0;0.0008;0.543;341.774;-0.02;-6.11;0.134;-0.226;0.376;1;65241265;0.0294304;0.35323;0.148404;-0.36891;-0.00356062;0.910956;-2.2593;-0.895561;-3.33763;65239999;47.59843115;-122.83080535;104.97302614;0.00000000;0.00000000;4.61236000;7.18013763;
65241448;76.7;18.7;18.5;0;18.7;17.9;-6.04;-0.04;0;-6.04;266;0.008;0;0;0;0.001;-19;45;98.3134;0;1;-0.177;0.473;65241399;0;0;0;0.0009;0.543;341.773;-0.05;-6.14;0.216;-0.188;0.414;1;65241400;0.0294899;0.354529;0.159668;-0.406879;-0.0487427;0.911211;2.63175;1.83925;-2.88121;65239999;47.59843115;-122.83080535;104.97302614;0.00000000;0.00000000;4.61236000;7.18013763;
65241534;76.7;18.7;18.4;0;18.7;17.9;-6.01;-0.06;0;-6.01;304;0.01;0;0;0;0.0011;-16;48;263.951;0;1;-0.029;0.636;65241489;0;0;0;0.001;0.543;341.773;-0.06;-5.99;0.282;-0.16;0.442;1;65241490;0.0265693;0.357363;0.163282;-0.35338;-0.00351609;0.912349;1.23099;0.299873;-2.81283;65240999;47.59843080;-122.83080050;105.01380980;0.00000000;0.00000000;4.63562536;7.27469301;
65241625;76.7;18.7;18.5;0;18.7;17.9;-6.01;-0.07;-0.01;-6.01;323;0.008;0;0;0;0.0012;-13;51;84.9919;0;1;-0.002;0.73;65241580;0;0;0;0.0012;0.543;341.773;-0.06;-6.03;0.301;-0.141;0.461;1;65241581;0.0268879;0.358883;0.168012;-0.357218;-0.0761005;0.913584;5.07362;0.73366;-1.46787;65240999;47.59843080;-122.83080050;105.01380980;0.00000000;0.00000000;4.63562536;7.27469301;
65241758;76.7;18.7;18.4;0;18.7;17.9;-5.98;-0.07;0;-5.98;330;0.009;0;0;0;0.0014;-10;54;265.178;0;1;-0.003;0.726;65241673;0;0;0;0.0013;0.543;341.773;-0.06;-6.02;0.321;-0.113;0.49;1;65241674;0.0214911;0.359583;0.167873;-0.348169;-0.0419153;0.914584;3.48451;1.88955;2.03281;65240999;47.59843080;-122.83080050;105.01380980;0.00000000;0.00000000;4.63562536;7.27469301;
65241849;76.7;18.8;18.5;0;18.7;17.9;-5.99;-0.07;-0.01;-5.99;340;0.01;0;0;0;0.0016;-5;59;181.413;0;1;-0.001;0.688;65241807;0;0;0;0.0015;0.543;341.776;-0.08;-5.99;0.31;-0.065;0.537;1;65241808;0.0289537;0.356865;0.161869;-0.332825;-0.0339794;0.917497;-8.02254;4.89318;1.3954;65240999;47.59843080;-122.83080050;105.01380980;0.00000000;0.00000000;4.63562536;7.27469301;
65241942;76.7;18.7;18.5;0;18.7;17.9;-5.98;-0.05;0.04;-5.98;294;0.006;0;0;0;0.0017;-3;61;327.095;0;1;0.015;0.596;65241898;0;0;0;0.0017;0.543;341.776;-0.04;-5.95;0.298;-0.037;0.565;1;65241898;0.0357704;0.356903;0.161332;-0.298251;-0.0505331;0.920711;1.47814;-1.35941;-0.779626;65240999;47.59843080;-122.83080050;105.01380980;0.00000000;0.00000000;4.63562536;7.27469301;
65242031;76.7;18.8;18.5;0;18.7;17.9;-5.42;-0.03;0.06;-5.8;50;0.002;0;0;0;0.0018;-1;63;97.6412;0;1;0.064;0.417;65241982;0;0;0;0.0017;0.543;341.774;-0.04;-6.04;0.252;-0.018;0.584;1;65241983;0.0286516;0.354266;0.163683;-0.277379;-0.0257921;0.924057;8.29966;3.74276;-1.5709;65240999;47.59843080;-122.83080050;105.01380980;0.00000000;0.00000000;4.63562536;7.27469301;
65242117;76.7;18.7;18.5;0;18.7;17.9;-5.05;0;-0.03;-5.9;58;0;0;0;0;0.0018;0;64;176.4;0;1;-0.072;0.126;65242074;0;0;0;0.0018;0.543;341.757;0;-5.87;0.024;0;0.603;1;65242074;0.0174779;0.354077;0.165599;-0.264348;-0.0419137;0.929524;6.41813;-0.508783;0.253968;65240999;47.59843080;-122.83080050;105.01380980;0.00000000;0.00000000;4.63562536;7.27469301;
65242209;76.7;18.8;18.5;0;18.7;17.9;2.44;-0.01;0.41;-3.3;29;0;0;0;0;0.0018;1;65;235.8;0;1;-0.13;-0.062;65242165;0;0;0;0.0018;0.543;341.732;-0.01;3.56;0.045;0.009;0.612;1;65242166;0.0101525;0.351383;0.164446;-0.240682;-0.0340004;0.934879;1.1552;1.46015;1.11721;65240999;47.59843080;-122.83080050;105.01380980;0.00000000;0.00000000;4.63562536;7.27469301;
65242298;76.7;18.8;18.5;0;18.8;17.9;0.1;0;0.2;0.13;0;0;0;0;0;0.0018;1;65;235.8;0;1;-0.162;0.013;65242257;0;0;0;0.0018;0.543;341.706;0;0.22;0;0.009;0.612;1;65242258;0.00923692;0.349384;0.162762;-0.298522;0.0308653;0.93966;-1.21694;1.30575;-0.289353;65240999;47.59843080;-122.83080050;105.01380980;0.00000000;0.00000000;4.63562536;7.27469301;
65242391;76.7;18.8;18.6;0;18.8;17.9;0.85;0;0.41;1.06;0;0;0;0;0;0.0018;1;65;235.8;0;1;-0.163;0.011;65242350;0;0;0;0.0018;0.543;341.686;0;0.9;0;0.009;0.612;1;65242350;0.0159852;0.345079;0.165493;-0.370615;-0.0324666;0.940618;-5.02898;-5.14415;-1.22406;65240999;47.59843080;-122.83080050;105.01380980;0.00000000;0.00000000;4.63562536;7.27469301;
65242523;76.7;18.8;18.5;0;18.8;17.9;0.48;0;0.56;1.94;-114;0;0;0;0;0.0019;0;66;176.4;0;1;-0.156;-0.011;65242476;0;0;0;0.0018;0.543;341.662;0;1.71;0;0.009;0.612;1;65242477;0.0231142;0.310396;0.171757;-0.347181;-0.0677154;0.932421;1.64571;-32.1174;-3.3607;65242147;47.59838660;-122.83073160;103.90000153;0.00000000;0.00000000;20.00000000;1.00000000;
65242615;76.7;18.8;18.5;0;18.8;17.9;-1.97;0;-0.68;1.84;0;0;0;0;0;0.0019;0;66;176.4;0;1;-0.092;-0.135;65242575;0;0;0;0.0019;0.543;341.64;0;-1.93;-0.001;0;0.622;1;65242576;0.0162115;0.244174;0.172309;-0.252997;-0.0509731;0.917935;9.13282;-45.923;2.02659;65242147;47.59838660;-122.83073160;103.90000153;0.00000000;0.00000000;20.00000000;1.00000000;
65242701;76.7;18.8;18.5;0;18.8;17.9;-1.22;0;-0.4;1.14;0;0;0;0;0;0.0019;0;66;176.4;0;1;-0.094;-0.134;65242657;0;0;0;0.0019;0.543;341.62;0;-1.21;0;0;0.622;1;65242658;-6.16649e-05;0.171415;0.167736;-0.149663;0.0659042;0.90925;6.4059;-46.8478;0.588769;65242147;47.59838660;-122.83073160;103.90000153;0.00000000;0.00000000;20.00000000;1.00000000;
65242797;76.7;18.8;18.5;0;18.8;17.9;-0.62;0;-0.34;0.51;0;0;0;0;0;0.0019;0;66;176.4;0;1;-0.094;-0.133;65242748;0;0;0;0.0019;0.543;341.593;0;-0.6;0;0;0.622;1;65242748;-0.00494699;0.102001;0.16802;-0.0614505;0.0525879;0.910144;-1.26588;-38.1779;-0.44313;65242147;47.59838660;-122.83073160;103.90000153;0.00000000;0.00000000;20.00000000;1.00000000;
65242884;76.7;18.8;18.5;0;18.8;17.9;-0.58;0;-0.33;0.47;0;0;0;0;0;0.0019;0;66;176.4;0;1;-0.093;-0.132;65242841;0;0;0;0.0019;0.543;341.567;0;-0.56;0;0;0.622;1;65242842;0.00166388;0.0485354;0.169131;-0.0109867;-0.00321183;0.920216;-6.65973;-28.5164;-0.34986;65242147;47.59838660;-122.83073160;103.90000153;0.00000000;0.00000000;20.00000000;1.00000000;
65242973;76.7;18.8;18.5;0;18.8;17.9;-0.74;0;-0.35;0.65;0;0;0;0;0;0.0019;0;66;176.4;0;1;-0.094;-0.133;65242931;0;0;0;0.0019;0.542;341.544;0;-0.82;0;0;0.622;1;65242932;0.0116201;0.0100093;0.168332;0.0171577;-0.0194606;0.935627;-5.02774;-19.6869;0.540944;65242147;47.59838660;-122.83073160;103.90000153;0.00000000;0.00000000;20.00000000;1.00000000;
65243065;76.7;18.8;18.5;0;18.8;17.9;-0.79;0;-0.35;0.7;0;0;0;0;0;0.0019;0;66;176.4;0;1;-0.093;-0.133;65243024;0;0;0;0.0019;0.542;341.54;0;-0.82;0;0;0.622;1;65243024;0.0162014;-0.0167214;0.168199;0.028646;-0.0276161;0.952435;-0.878079;-13.4731;-1.08137;65242147;47.59838660;-122.83073160;103.90000153;0.00000000;0.00000000;20.00000000;1.00000000;
65243156;76.7;18.8;18.5;0;18.8;17.9;-0.17;0;-0.32;0.12;0;0;0;0;0;0.0019;0;66;176.4;0;1;-0.093;-0.132;65243108;0;0;0;0.0019;0.542;341.523;0;-0.37;0;0;0.622;1;65243109;0.0136267;-0.0299775;0.169692;0.0673672;-0.0253496;0.969782;4.33716;0.527928;-1.04979;65242147;47.59838660;-122.83073160;103.90000153;0.00000000;0.00000000;20.00000000;1.00000000;
65243249;76.7;18.8;18.6;0;18.8;17.9;0.88;0;-0.06;-0.86;0;0;0;0;0;0.0019;0;66;176.4;0;1;-0.094;-0.13;65243199;0;0;0;0.0019;0.542;341.501;0;1.06;0;0;0.622;1;65243200;0.00547282;-0.0102497;0.172183;0.0823354;0.01059;0.991461;3.51748;28.4428;-2.66903;65242147;47.59838660;-122.83073160;103.90000153;0.00000000;0.00000000;20.00000000;1.00000000;
65243339;76.7;18.8;18.6;0;18.8;17.9;0.34;0;0.05;-0.33;94;0;0;0;0;0.0019;1;67;220.401;0;1;-0.102;-0.121;65243291;0;0;0;0.0019;0.542;341.477;0;0.28;0;0;0.622;1;65243292;0.00471702;0.0502544;0.176304;0.000313651;0.00546129;1.01585;-3.87045;44.4172;-1.34105;65242147;47.59838660;-122.83073160;103.90000153;0.00000000;0.00000000;20.00000000;1.00000000;
65243424;76.7;18.8;18.5;0;18.9;17.9;0.25;0;0.13;0.3;0;0;0;0;0;0.0019;1;67;235.8;0;1;-0.162;0.011;65243382;0;0;0;0.0019;0.542;341.459;0;0.27;0.007;0.009;0.631;1;65243383;0.0156303;0.124152;0.178274;-0.094449;-0.0180703;1.03316;-8.70887;51.3563;-0.495651;65242147;47.59838660;-122.83073160;103.90000153;0.00000000;0.00000000;20.00000000;1.00000000;
65243515;76.7;18.8;18.5;0;18.9;17.9;0.6;0;0.48;0.97;-66;0;0;0;0;0.0019;1;67;205.633;0;1;-0.163;0.005;65243473;0;0;0;0.0019;0.542;341.437;0;1.28;0;0.009;0.631;1;65243473;0.0273592;0.197509;0.18219;-0.226004;-0.0319363;1.03933;-3.51935;39.5793;-2.09534;65242999;47.59843260;-122.83078831;105.19412337;0.00000000;0.00000000;4.82396364;7.63687468;
65243607;76.7;18.8;18.5;0;18.9;17.9;-0.9;0;-0.44;0.79;0;0;0;0;0;0.0019;0;68;176.4;0;1;-0.097;-0.13;65243606;0;0;0;0.0019;0.542;341.414;0;-0.96;-0.01;0;0.64;1;65243607;0.0284633;0.262391;0.189665;-0.271299;-0.0943664;1.0353;4.89989;40.6895;-3.0562;65242999;47.59843260;-122.83078831;105.19412337;0.00000000;0.00000000;4.82396364;7.63687468;
65243691;76.7;18.8;18.5;0;18.8;17.9;-1.39;0;-0.61;1.25;0;0;0;0;0;0.0019;0;68;176.4;0;1;-0.092;-0.135;65243606;0;0;0;0.0019;0.542;341.414;0;-0.96;-0.01;0;0.64;1;65243607;0.0284633;0.262391;0.189665;-0.271299;-0.0943664;1.0353;4.89989;40.6895;-3.0562;65242999;47.59843260;-122.83078831;105.19412337;0.00000000;0.00000000;4.82396364;7.63687468;
65243782;76.7;18.8;18.5;0;18.7;17.9;-2.09;0;-0.58;2;0;0;0;0;0;0.0019;0;68;176.4;0;1;-0.093;-0.136;65243698;0;0;0;0.0019;0.542;341.391;-0.01;-1.97;0;0;0.64;1;65243699;0.0171295;0.339457;0.193204;-0.571491;-0.0132052;1.01273;1.56504;16.8662;1.6263;65242999;47.59843260;-122.83078831;105.19412337;0.00000000;0.00000000;4.82396364;7.63687468;
65243871;76.7;18.8;18.5;0;18.8;17.9;-0.49;0;-0.33;0.42;0;0;0;0;0;0.0019;0;68;176.4;0;1;-0.093;-0.133;65243782;0;0;0;0.0019;0.542;341.381;0;-0.91;0;0;0.64;1;65243783;0.0130038;0.338732;0.19216;-0.336253;-0.0652669;0.981951;0.939883;-2.04019;1.10165;65242999;47.59843260;-122.83078831;105.19412337;0.00000000;0.00000000;4.82396364;7.63687468;
65243963;76.7;18.8;18.5;0;18.8;17.9;-0.65;0;-0.34;0.55;0;0;0;0;0;0.0019;0;68;176.4;0;1;-0.093;-0.133;65243872;0;0;0;0.0019;0.542;341.373;0;-0.7;0;0;0.64;1;65243872;0.00792304;0.342749;0.188676;-0.309835;-0.0421821;0.960036;2.46663;4.66083;-0.787425;65242999;47.59843260;-122.83078831;105.19412337;0.00000000;0.00000000;4.82396364;7.63687468;
65244056;76.7;18.8;18.6;0;18.8;17.9;-0.51;0;-0.33;0.36;0;0;0;0;0;0.0019;0;68;176.4;0;1;-0.093;-0.133;65244005;0;0;0;0.0019;0.542;341.368;0;-0.59;0;0;0.64;1;65244006;0.00933352;0.349382;0.190116;-0.34091;-0.00415395;0.944836;0.389334;8.50602;-1.27698;65242999;47.59843260;-122.83078831;105.19412337;0.00000000;0.00000000;4.82396364;7.63687468;
65244148;76.7;18.8;18.5;0;18.9;17.9;-0.51;0;-0.34;0.38;0;0;0;0;0;0.0019;0;68;176.4;0;1;-0.093;-0.133;65244098;0;0;0;0.0019;0.542;341.355;0;-0.49;0;0;0.64;1;65244098;0.00912785;0.390617;0.196843;-0.345733;-0.0105902;0.948111;-0.009516;37.9525;-3.72181;65242999;47.59843260;-122.83078831;105.19412337;0.00000000;0.00000000;4.82396364;7.63687468;
65244231;76.7;18.8;18.6;0;19;17.9;-0.56;0;-0.34;0.44;0;0;0;0;0;0.0019;0;68;176.4;0;1;-0.093;-0.133;65244192;0;0;0;0.0019;0.542;341.349;0;-0.54;0;0;0.64;1;65244193;0.0133516;0.470559;0.203083;-0.357358;-0.0430668;0.977068;1.47814;68.2169;-1.49173;65242999;47.59843260;-122.83078831;105.19412337;0.00000000;0.00000000;4.82396364;7.63687468;
65244367;76.7;18.8;18.5;0;18.8;17.9;-0.71;0;-0.36;0.61;0;0;0;0;0;0.0019;0;68;176.4;0;1;-0.093;-0.133;65244322;0;0;0;0.0019;0.542;341.345;0;-0.75;0;0;0.64;1;65244322;0.0165196;0.589719;0.205154;-0.420168;-0.00459918;1.01217;-1.19978;87.6378;1.42563;65242999;47.59843260;-122.83078831;105.19412337;0.00000000;0.00000000;4.82396364;7.63687468;
65244463;76.7;18.8;18.5;0;18.8;17.9;-0.74;0;-0.36;0.64;0;0;0;0;0;0.0019;0;68;176.4;0;1;-0.094;-0.133;65244415;0;0;0;0.0019;0.542;341.331;0;-0.68;0;0;0.64;1;65244416;0.0253442;0.779735;0.213154;-0.653833;0.0305843;1.01911;-5.02904;76.6406;-6.06664;65242999;47.59843260;-122.83078831;105.19412337;0.00000000;0.00000000;4.82396364;7.63687468;
65244549;76.7;18.8;18.5;0;18.8;18;-0.72;0;-0.36;0.61;0;0;0;0;0;0.0019;0;68;176.4;0;1;-0.093;-0.133;65244506;0;0;0;0.0019;0.542;341.324;0;-0.73;0;0;0.64;1;65244506;0.0360767;0.87062;0.232272;-0.739277;-0.0630603;0.971511;10.268;47.1778;-5.20987;65243999;47.59843235;-122.83078458;105.19620433;0.00000000;0.00000000;4.94146585;7.82993460;
65244642;76.7;18.8;18.5;0;18.8;18;-0.71;0;-0.35;0.62;0;0;0;0;0;0.0019;0;68;176.4;0;1;-0.093;-0.133;65244598;0;0;0;0.0019;0.542;341.309;0;-0.58;0;0;0.64;1;65244599;0.0361281;0.908692;0.246424;-0.777649;-0.0601732;0.882627;8.9358;9.75469;-2.39097;65243999;47.59843235;-122.83078458;105.19620433;0.00000000;0.00000000;4.94146585;7.82993460;
65244730;76.7;18.8;18.5;0;18.8;18;-0.66;0;-0.34;0.56;0;0;0;0;0;0.0019;0;68;176.4;0;1;-0.093;-0.133;65244682;0;0;0;0.0019;0.542;341.289;-0.01;-0.78;0;0;0.64;1;65244730;0.0294704;0.885809;0.250843;-0.760523;-0.0432415;0.760099;-2.81347;-30.9149;-2.1385;65243999;47.59843235;-122.83078458;105.19620433;0.00000000;0.00000000;4.94146585;7.82993460;
65244823;76.7;18.8;18.5;0;18.8;17.9;-0.61;0;-0.34;0.51;0;0;0;0;0;0.0019;0;68;176.4;0;1;-0.093;-0.133;65244774;0;0;0;0.0019;0.542;341.266;0;-0.49;0;0;0.64;1;65244730;0.0294704;0.885809;0.250843;-0.760523;-0.0432415;0.760099;-2.81347;-30.9149;-2.1385;65243999;47.59843235;-122.83078458;105.19620433;0.00000000;0.00000000;4.94146585;7.82993460;
65244914;76.7;18.8;18.5;0;18.8;18;-0.54;0;-0.33;0.41;0;0;0;0;0;0.0019;0;68;176.4;0;1;-0.093;-0.133;65244864;0;0;0;0.0019;0.542;341.251;0;-0.64;0;0;0.64;1;65244823;0.0317873;0.761157;0.245082;-0.613234;-0.0851389;0.578604;7.15585;-71.3328;2.17902;65243999;47.59843235;-122.83078458;105.19620433;0.00000000;0.00000000;4.94146585;7.82993460;
65244998;76.7;18.8;18.5;0;18.9;17.9;-0.59;0;-0.33;0.48;0;0;0;0;0;0.0019;0;68;176.4;0;1;-0.093;-0.134;65244956;0;0;0;0.0019;0.542;341.247;0;-0.6;0;0;0.64;1;65244915;0.0217423;0.651669;0.233922;-0.531986;-0.0235615;0.501434;-3.85571;-66.0725;3.16159;65243999;47.59843235;-122.83078458;105.19620433;0.00000000;0.00000000;4.94146585;7.82993460;
65245090;76.7;18.8;18.5;0;18.8;17.9;-0.67;0;-0.34;0.57;0;0;0;0;0;0.0019;0;68;176.4;0;1;-0.093;-0.133;65245047;0;0;0;0.0019;0.542;341.234;0;-0.72;0;0;0.64;1;65244999;0.0195138;0.566842;0.226697;-0.496831;-0.00887866;0.482529;-0.840125;-56.0801;1.38928;65243999;47.59843235;-122.83078458;105.19620433;0.00000000;0.00000000;4.94146585;7.82993460;
65245181;76.7;18.8;18.6;0;18.8;18;-0.62;0;-0.34;0.52;0;0;0;0;0;0.0019;0;68;176.4;0;1;-0.093;-0.133;65245140;0;0;0;0.0019;0.542;341.226;0;-0.7;0;0;0.64;1;65245091;0.0199008;0.489677;0.222094;-0.438275;-0.0263229;0.499437;-0.436404;-55.934;1.98482;65243999;47.59843235;-122.83078458;105.19620433;0.00000000;0.00000000;4.94146585;7.82993460;
65245267;76.7;18.8;18.5;0;18.8;18;-0.58;0;-0.33;0.48;0;0;0;0;0;0.0019;0;68;176.4;0;1;-0.093;-0.133;65245224;0;0;0;0.0019;0.542;341.213;0;-0.53;0;0;0.64;1;65245182;0.0181875;0.408328;0.216195;-0.357224;-0.0337135;0.540169;3.42945;-51.8041;1.95473;65243999;47.59843235;-122.83078458;105.19620433;0.00000000;0.00000000;4.94146585;7.82993460;
65245363;76.7;18.8;18.5;0;18.8;18;-0.15;0;-0.26;0.1;0;0;0;0;0;0.0019;0;68;176.4;0;1;-0.094;-0.132;65245314;0;0;0;0.0019;0.542;341.21;0;0.76;0;0;0.64;1;65245267;0.0162379;0.346933;0.210151;-0.31961;-0.0335634;0.603158;-1.40161;-32.3884;4.35833;65243999;47.59843235;-122.83078458;105.19620433;0.00000000;0.00000000;4.94146585;7.82993460;
65245498;76.7;18.8;18.5;0;18.8;18;-0.85;0;-0.38;0.76;0;0;0;0;0;0.0019;0;68;176.4;0;1;-0.093;-0.134;65245447;0;0;0;0.0019;0.542;341.208;0;-0.57;0;0;0.64;1;65245364;0.00795038;0.345179;0.202923;-0.378263;0.205622;0.706318;-5.68348;0.881154;-0.736394;65244999;47.59843336;-122.83078183;105.54473502;0.00000000;0.00000000;5.02439022;7.95989323;
65245583;76.7;18.8;18.5;0;18.8;18;-1.6;0;-0.31;1.58;0;-0.008;0;0;0;0.0019;0;68;176.4;0;1;-0.106;-0.171;65245541;0;0;0;0.0019;0.542;341.202;-0.01;-2.55;0;0;0.64;1;65245498;0.0310872;0.341057;0.213307;-0.300613;-0.042944;0.821728;-6.37717;-6.29021;-3.7644;65244999;47.59843336;-122.83078183;105.54473502;0.00000000;0.00000000;5.02439022;7.95989323;
65245673;76.7;18.8;18.5;0;18.8;17.9;-4.16;0;0.09;4.19;-39;-0.005;0;0;0;0.002;-1;69;100.534;0;1;-0.091;-0.237;65245631;0;0;0;0.0019;0.542;341.192;-0.01;-5.39;-0.105;0;0.64;1;65245584;0.0391255;0.322541;0.22208;-0.204532;-7.35079e-05;0.872701;-1.80793;-27.3999;-7.53314;65244999;47.59843336;-122.83078183;105.54473502;0.00000000;0.00000000;5.02439022;7.95989323;
65245767;76.7;18.8;18.5;0;18.9;17.9;-4.52;-0.01;0.54;5.74;-63;0;0;0;0;0.002;-2;70;25.6666;0;1;0.107;-0.058;65245723;0;0;0;0.002;0.542;341.188;-0.02;-5.68;-0.049;-0.018;0.659;1;65245674;0.0394117;0.266162;0.231402;-0.232475;-0.0907999;0.905159;7.6378;-27.7672;-2.38496;65244999;47.59843336;-122.83078183;105.54473502;0.00000000;0.00000000;5.02439022;7.95989323;
65245857;76.7;18.8;18.4;0;18.8;17.9;-3.17;-0.01;0;6.04;-111;-0.001;0;0;0;0.002;-4;72;295.2;0;1;0;-0.096;65245808;0;0;0;0.002;0.542;341.187;0;-5.96;-0.017;-0.028;0.669;1;65245767;0.0251895;0.240121;0.231058;-0.197798;-0.00122256;0.934963;8.93461;-7.57995;0.175823;65244999;47.59843336;-122.83078183;105.54473502;0.00000000;0.00000000;5.02439022;7.95989323;
65245949;76.7;18.8;18.4;0;18.7;17.9;-6.02;-0.02;0.04;6.02;-142;-0.005;0;0;0;0.0021;-5;73;187.466;0;1;-0.179;-0.292;65245897;0;0;0;0.002;0.542;341.186;-0.03;-6.07;-0.127;-0.047;0.688;1;65245858;0.0154057;0.229598;0.232454;-0.167505;0.0299722;0.961921;2.11304;-4.25356;-3.1247;65244999;47.59843336;-122.83078183;105.54473502;0.00000000;0.00000000;5.02439022;7.95989323;
65246033;76.7;18.8;18.5;0;18.8;17.9;-5.99;-0.03;-0.05;5.99;-252;-0.002;0;0;0;0.0021;-8;76;42.7292;0;1;-0.17;-0.42;65245989;0;0;0;0.0021;0.542;341.184;-0.03;-5.92;-0.191;-0.056;0.697;1;65245949;0.0152065;0.225872;0.240575;-0.19414;-0.0131929;0.983181;0.000230074;3.83268;-6.46545;65244999;47.59843336;-122.83078183;105.54473502;0.00000000;0.00000000;5.02439022;7.95989323;
65246122;76.7;18.8;18.4;0;18.8;17.9;-5.54;-0.01;0.09;5.91;-134;-0.003;0;0;0;0.0022;-10;78;295.2;0;1;-0.003;-0.247;65246081;0;0;0;0.0022;0.542;341.184;-0.01;-5.95;-0.079;-0.084;0.725;1;65246033;0.0178127;0.236895;0.24854;-0.300962;-0.0536674;0.998492;0.125077;8.1498;-1.8826;65244999;47.59843336;-122.83078183;105.54473502;0.00000000;0.00000000;5.02439022;7.95989323;
65246216;76.7;18.8;18.6;0;18.9;17.9;3;-0.01;0.83;4.25;-119;0;0;0;0;0.0022;-11;79;237.201;0;1;-0.077;0.096;65246166;0;0;0;0.0022;0.542;341.174;-0.01;4.36;-0.001;-0.094;0.735;1;65246123;0.016103;0.25774;0.246987;-0.369915;-0.038012;1.00686;3.97145;19.6226;4.19786;65244999;47.59843336;-122.83078183;105.54473502;0.00000000;0.00000000;5.02439022;7.95989323;
65246308;76.7;18.8;18.5;0;18.8;17.9;1;0;-0.07;1.41;0;0;0;0;0;0.0022;-11;79;235.8;0;1;-0.162;0.01;65246257;0;0;0;0.0022;0.542;341.172;-0.01;1.49;-0.002;-0.103;0.744;1;65246217;0.0067081;0.295363;0.240228;-0.386565;0.0204094;1.00942;5.25721;17.0352;4.46289;65244999;47.59843336;-122.83078183;105.54473502;0.00000000;0.00000000;5.02439022;7.95989323;
65246398;76.7;18.8;18.5;0;18.8;17.9;0.66;0;0.23;0.75;0;0;0;0;0;0.0022;-11;79;235.8;0;1;-0.162;0.011;65246346;0;0;0;0.0022;0.542;341.171;0;1.39;0;-0.103;0.744;1;65246309;-0.00218686;0.320769;0.23803;-0.326854;0.0466613;1.00231;2.64155;17.7378;-2.13125;65244999;47.59843336;-122.83078183;105.54473502;0.00000000;0.00000000;5.02439022;7.95989323;
65246489;76.7;18.8;18.5;0;18.8;17.9;0.52;0;0.3;0.55;0;0;0;0;0;0.0022;-11;79;235.8;0;1;-0.162;0.013;65246439;0;0;0;0.0022;0.542;341.171;0;0.55;0;-0.103;0.744;1;65246399;0.00796487;0.334376;0.242392;-0.362386;0.0834049;0.988375;-12.6421;2.86983;-4.78421;65245999;47.59844699;-122.83076922;104.78549685;0.00000000;0.00000000;4.64618921;7.89735460;
65246623;76.7;18.8;18.6;0;18.9;17.9;0.55;0;0.28;0.61;0;0;0;0;0;0.0022;-11;79;235.8;0;1;-0.163;0.012;65246572;0;0;0;0.0022;0.542;341.169;0;0.67;0;-0.103;0.744;1;65246489;0.0296701;0.339577;0.250889;-0.388517;-0.0922591;0.973182;-4.43079;-1.74292;-4.05198;65245999;47.59844699;-122.83076922;104.78549685;0.00000000;0.00000000;4.64618921;7.89735460;
65246706;76.7;18.8;18.6;0;18.8;18;0.52;0;0.29;0.59;0;0;0;0;0;0.0022;-11;79;235.8;0;1;-0.162;0.012;65246663;0;0;0;0.0022;0.542;341.166;0;0.71;0;-0.103;0.744;1;65246624;0.0303576;0.339079;0.251465;-0.324697;0.0222022;0.951026;3.5628;0.902337;1.33332;65245999;47.59844699;-122.83076922;104.78549685;0.00000000;0.00000000;4.64618921;7.89735460;
65246798;76.7;18.8;18.5;0;18.8;18;0.52;0;0.3;0.58;0;0;0;0;0;0.0022;-11;79;235.8;0;1;-0.162;0.012;65246758;0;0;0;0.0022;0.542;341.164;0;0.87;0;-0.103;0.744;1;65246707;0.029674;0.339208;0.251743;-0.335477;-0.0214301;0.940524;-3.37988;-0.108774;-1.70137;65245999;47.59844699;-122.83076922;104.78549685;0.00000000;0.00000000;4.64618921;7.89735460;
65246890;76.7;18.8;18.6;0;18.8;18;0.5;0;0.31;0.58;0;0;0;0;0;0.0022;-11;79;235.8;0;1;-0.162;0.012;65246841;0;0;0;0.0022;0.542;341.16;0;0.51;0;-0.103;0.744;1;65246798;0.0326072;0.339547;0.25324;-0.336987;-0.0472095;0.932758;1.89778;-0.503286;0.791062;65245999;47.59844699;-122.83076922;104.78549685;0.00000000;0.00000000;4.64618921;7.89735460;
65246989;76.7;18.8;18.4;0;18.8;18;0.48;0;0.27;0.56;0;0;0;0;0;0.0022;-11;79;235.8;0;1;-0.162;0.011;65246932;0;0;0;0.0022;0.542;341.153;0;0.68;0;-0.103;0.744;1;65246890;0.0295313;0.340193;0.252407;-0.336698;0.00512547;0.927578;-0.765523;-0.0988957;-0.736219;65245999;47.59844699;-122.83076922;104.78549685;0.00000000;0.00000000;4.64618921;7.89735460;
65247071;76.7;18.8;18.6;0;18.9;18;0.51;0;0.28;0.57;0;0;0;0;0;0.0022;-11;79;235.8;0;1;-0.162;0.012;65247024;0;0;0;0.0022;0.542;341.142;0;0.58;0;-0.103;0.744;1;65246989;0.0319334;0.340255;0.253808;-0.337781;-0.0488231;0.924035;-0.246809;0.394209;-0.435413;65245999;47.59844699;-122.83076922;104.78549685;0.00000000;0.00000000;4.64618921;7.89735460;
65247156;76.7;18.8;18.5;0;18.8;18;0.51;0;0.28;0.58;0;0;0;0;0;0.0022;-11;79;235.8;0;1;-0.162;0.012;65247117;0;0;0;0.0022;0.542;341.128;0;0.66;0;-0.103;0.744;1;65247072;0.0305414;0.340598;0.253635;-0.338138;-0.00558025;0.921917;0.341638;0.117291;-0.132845;65245999;47.59844699;-122.83076922;104.78549685;0.00000000;0.00000000;4.64618921;7.89735460;
65247249;76.7;18.8;18.6;0;18.9;18;0.53;0;0.29;0.58;0;0;0;0;0;0.0022;-11;79;235.8;0;1;-0.162;0.012;65247206;0;0;0;0.0022;0.542;341.121;0;0.55;0;-0.103;0.744;1;65247157;0.0311859;0.341142;0.25436;-0.336399;-0.0350558;0.921288;-0.398509;-0.307057;-0.555471;65245999;47.59844699;-122.83076922;104.78549685;0.00000000;0.00000000;4.64618921;7.89735460;
65247341;76.7;18.8;18.6;0;18.9;18;0.52;0;0.29;0.59;0;0;0;0;0;0.0022;-11;79;235.8;0;1;-0.163;0.012;65247299;0;0;0;0.0022;0.542;341.116;0;0.48;0;-0.103;0.744;1;65247250;0.0308803;0.341666;0.254627;-0.337892;-0.0205907;0.921358;0.417487;0.187938;-0.0699508;65245999;47.59844699;-122.83076922;104.78549685;0.00000000;0.00000000;4.64618921;7.89735460;
65247432;76.7;18.8;18.5;0;18.8;18;0.52;0;0.29;0.58;0;0;0;0;0;0.0022;-11;79;235.8;0;1;-0.162;0.012;65247382;0;0;0;0.0022;0.542;341.11;0;0.64;0;-0.103;0.744;1;65247342;0.030951;0.341976;0.255073;-0.336041;-0.0277516;0.92182;-0.316541;0.254279;-0.427863;65245999;47.59844699;-122.83076922;104.78549685;0.00000000;0.00000000;4.64618921;7.89735460;
65247523;76.7;18.8;18.5;0;18.9;18;0.5;0;0.29;0.57;0;0;0;0;0;0.0022;-11;79;235.8;0;1;-0.162;0.012;65247473;0;0;0;0.0022;0.542;341.091;0;0.48;0;-0.103;0.744;1;65247433;0.0309506;0.342094;0.255436;-0.332151;-0.0162459;0.922364;0.208291;-0.161856;-0.0480162;65246999;47.59844771;-122.83076742;105.38787217;0.00000000;0.00000000;4.40681744;7.89874554;
65247607;76.7;18.8;18.6;0;18.8;18;0.52;0;0.29;0.58;0;0;0;0;0;0.0022;-11;79;235.8;0;1;-0.163;0.012;65247564;0;0;0;0.0022;0.542;341.079;0;0.56;0;-0.103;0.744;1;65247523;0.0308997;0.342567;0.255877;-0.338054;-0.0224472;0.923442;-0.474359;-0.237711;-0.619799;65246999;47.59844771;-122.83076742;105.38787217;0.00000000;0.00000000;4.40681744;7.89874554;
65247698;76.7;18.8;18.5;0;18.8;18;0.48;0;0.29;0.58;0;0;0;0;0;0.0022;-11;79;235.8;0;1;-0.162;0.012;65247651;0;0;0;0.0022;0.542;341.075;0;0.69;0;-0.103;0.744;1;65247607;0.0311776;0.342866;0.256398;-0.341218;-0.0255728;0.924452;0.278023;0.0480707;-0.056283;65246999;47.59844771;-122.83076742;105.38787217;0.00000000;0.00000000;4.40681744;7.89874554;
65247791;76.7;18.8;18.6;0;18.9;18;0.52;0;0.3;0.59;0;0;0;0;0;0.0022;-11;79;235.8;0;1;-0.162;0.012;65247749;0;0;0;0.0022;0.542;341.069;0;-0.48;0;-0.103;0.744;1;65247698;0.0307896;0.342969;0.256634;-0.341056;-0.0219666;0.925217;-0.234573;0.0456544;-0.292374;65246999;47.59844771;-122.83076742;105.38787217;0.00000000;0.00000000;4.40681744;7.89874554;
65247880;76.7;18.8;18.6;0;18.8;18;0.52;0;0.3;0.6;0;0;0;0;0;0.0022;-11;79;235.8;0;1;-0.162;0.012;65247840;0;0;0;0.0022;0.542;341.062;0;0.72;0;-0.103;0.744;1;65247792;0.0311781;0.343169;0.257195;-0.336902;-0.0276806;0.925988;0.18382;-0.0247176;-0.328363;65246999;47.59844771;-122.83076742;105.38787217;0.00000000;0.00000000;4.40681744;7.89874554;
65247973;76.7;18.8;18.5;0;18.9;18;0.49;0;0.28;0.56;0;0;0;0;0;0.0022;-11;79;235.8;0;1;-0.163;0.012;65247922;0;0;0;0.0022;0.542;341.053;0;0.61;0;-0.103;0.744;1;65247880;0.0310103;0.343438;0.257545;-0.33813;-0.0159982;0.926686;-0.0314945;-0.0952398;-0.379023;65246999;47.59844771;-122.83076742;105.38787217;0.00000000;0.00000000;4.40681744;7.89874554;
65248056;76.7;18.8;18.6;0;18.8;18;0.53;0;0.29;0.58;0;0;0;0;0;0.0022;-11;79;235.8;0;1;-0.162;0.012;65248014;0;0;0;0.0022;0.542;341.035;0;0.69;0;-0.103;0.744;1;65247973;0.0311134;0.343686;0.257969;-0.339256;-0.022904;0.92729;0.0504733;0.0461175;-0.247116;65246999;47.59844771;-122.83076742;105.38787217;0.00000000;0.00000000;4.40681744;7.89874554;
65248149;76.7;18.9;18.5;0;19;18;0.52;0;0.29;0.59;0;0;0;0;0;0.0022;-11;79;235.8;0;1;-0.162;0.012;65248106;0;0;0;0.0022;0.542;341.015;0;0.59;0;-0.103;0.744;1;65248057;0.0310511;0.343909;0.258337;-0.337124;-0.0248929;0.927808;-0.0314945;0.184745;-0.381888;65246999;47.59844771;-122.83076742;105.38787217;0.00000000;0.00000000;4.40681744;7.89874554;
65248239;76.7;18.8;18.5;0;18.8;18;0.49;0;0.29;0.56;0;0;0;0;0;0.0022;-11;79;235.8;0;1;-0.162;0.011;65248199;0;0;0;0.0022;0.542;341.002;0;0.65;0;-0.103;0.744;1;65248150;0.0311121;0.343978;0.258775;-0.338173;-0.0238108;0.928032;-0.0253767;-0.0945262;-0.309294;65246999;47.59844771;-122.83076742;105.38787217;0.00000000;0.00000000;4.40681744;7.89874554;
65248332;76.7;18.9;18.5;0;18.8;18;0.06;0;0.03;0.07;0;0.001;0;0;0;0.0022;-11;79;235.8;0;1;-0.046;0.075;65248281;0;0;0;0.0022;0.542;340.993;0;0;0;-0.103;0.744;1;65248240;0.0311158;0.344236;0.259188;-0.336194;-0.0273386;0.928311;0.0565912;-0.163158;-0.175238;65246999;47.59844771;-122.83076742;105.38787217;0.00000000;0.00000000;4.40681744;7.89874554;
65248463;76.7;18.8;18.5;0;19;17.9;0;0;0;0;0;0.001;0;0;0;0.0022;-11;79;235.8;0;1;-0.009;0.075;65248416;0;0;0;0.0022;0.542;340.972;0;0;0;-0.103;0.744;1;65248333;0.0310793;0.344426;0.259596;-0.332936;-0.0190059;0.928435;-0.0951087;0.0455291;-0.304609;65248000;47.59845410;-122.83076819;105.90167436;0.00000000;0.00000000;4.26400375;7.82189178;
65248556;76.7;18.8;18.5;0;18.8;17.9;0;0;0;0;0;0.001;0;0;0;0.0022;-11;79;235.8;0;1;-0.009;0.075;65248507;0;0;0;0.0022;0.542;340.962;0;0;0;-0.103;0.744;1;65248465;0.0310847;0.34466;0.260179;-0.34161;-0.027399;0.928473;-0.0253767;-0.0245298;-0.31001;65248000;47.59845410;-122.83076819;105.90167436;0.00000000;0.00000000;4.26400375;7.82189178;
65248642;76.7;18.8;18.5;0;18.8;18;0;0;0;0;0;0.001;0;0;0;0.0022;-11;79;235.8;0;1;-0.009;0.074;65248598;0;0;0;0.0022;0.542;340.944;0;0;0;-0.103;0.744;1;65248557;0.0311701;0.344762;0.260595;-0.338113;-0.021909;0.928472;0.120206;0.186048;-0.254666;65248000;47.59845410;-122.83076819;105.90167436;0.00000000;0.00000000;4.26400375;7.82189178;
65248738;76.7;18.8;18.6;0;18.9;18;0;0;0;0;0;0.001;0;0;0;0.0022;-11;79;235.8;0;1;-0.009;0.074;65248693;0;0;0;0.0022;0.541;340.915;0;0;0;-0.103;0.744;1;65248648;0.0310791;0.344884;0.260951;-0.335572;-0.0276968;0.928439;-0.0314945;0.0447529;-0.380455;65248000;47.59845410;-122.83076819;105.90167436;0.00000000;0.00000000;4.26400375;7.82189178;
