ms_today,speed_meters_per_sec,erpm,duty_cycle,current_in,current_motor,d_axis_current,q_axis_current,roll,pitch,yaw,accX,accY,accZ,gyroX,gyroY,gyroZ,gnss_lat,fault_code,d_axis_voltage,q_axis_voltage,tacho_meters,tacho_abs_meters,gnss_lon,gnss_alt,gnss_gVel,gnss_vVel,input_voltage,temp_mos_max,temp_motor,battery_level,ride_id,sample_idx,ts_utc,ts_pst,dt_ms,cf_forward,cf_reverse,cf_brake,cf_accel,cf_cruise,cf_turn_left,cf_turn_right,cf_carve_left,cf_carve_right,cf_ascent,cf_descent,cf_traction_loss
4927217,0.0,0,-0.001,0,0.0,0.0,-0.01,0.0,0.0,0.0,0.0,0.0,0.0,0.0,0.0,0.0,0.0,0,0.009,-0.072,-0.018,0.018,0.0,0.0,0.0,0.0,81.7,24.5,24.8,0.904,unknown_ride_id,0,2025-09-17 01:22:07.217000+00:00,2025-09-16 18:22:07.217000-07:00,,,,,,,,,,,,,
4927306,0.0,0,-0.001,0,0.0,0.0,0.0,0.0182393,0.346073,0.352544,-0.332757,-0.013503,0.932224,-0.0706375,0.0483838,-0.0256955,47.5984007,0,0.006,-0.073,-0.018,0.018,-122.8307393,102.90000153,0.0,0.0,81.7,24.5,24.8,0.904,unknown_ride_id,1,2025-09-17 01:22:07.306000+00:00,2025-09-16 18:22:07.306000-07:00,89.0,,,,,,,,,,,,
4927390,0.0,0,-0.001,0,0.0,0.0,0.0,0.0182285,0.346065,0.352624,-0.336356,-0.0165078,0.932246,-0.0828731,-0.0230399,-0.164436,47.5984007,0,0.007,-0.072,-0.018,0.018,-122.8307393,102.90000153,0.0,0.0,81.7,24.6,24.8,0.904,unknown_ride_id,2,2025-09-17 01:22:07.390000+00:00,2025-09-16 18:22:07.390000-07:00,84.0,,,,,,,,,,,,
4927482,0.0,0,-0.001,0,0.0,0.0,0.0,0.0182701,0.346088,0.352718,-0.336228,-0.0164929,0.932281,-0.146487,-0.0222636,-0.08859,47.5984007,0,0.007,-0.073,-0.018,0.018,-122.8307393,102.90000153,0.0,0.0,81.7,24.5,24.8,0.904,unknown_ride_id,3,2025-09-17 01:22:07.482000+00:00,2025-09-16 18:22:07.482000-07:00,92.0,,,,,,,,,,,,
4927576,0.0,0,-0.001,0,0.0,0.0,0.0,0.0182514,0.346052,0.352763,-0.336544,-0.0174485,0.932349,-0.0767553,-0.0223262,-0.0947075,47.5984007,0,0.007,-0.073,-0.018,0.018,-122.8307393,102.90000153,0.0,0.0,81.7,24.5,24.8,0.904,unknown_ride_id,4,2025-09-17 01:22:07.576000+00:00,2025-09-16 18:22:07.576000-07:00,94.0,,,,,,,,,,,,
4927662,0.0,0,-0.001,0,0.0,0.0,0.0,0.0182119,0.346043,0.352833,-0.332911,-0.0130901,0.93239,-0.0706375,0.0483838,-0.0256955,47.5984007,0,0.007,-0.073,-0.018,0.018,-122.8307393,102.90000153,0.0,0.0,81.7,24.5,24.8,0.904,unknown_ride_id,5,2025-09-17 01:22:07.662000+00:00,2025-09-16 18:22:07.662000-07:00,86.0,,,,,,,,,,,,
4927755,0.0,0,-0.001,0,0.0,0.0,0.0,0.0182358,0.346053,0.35292,-0.335444,-0.0140186,0.932411,-0.000905395,0.0483212,-0.031813,47.5984007,0,0.007,-0.072,-0.018,0.018,-122.8307393,102.90000153,0.0,0.0,81.7,24.5,24.8,0.904,unknown_ride_id,6,2025-09-17 01:22:07.755000+00:00,2025-09-16 18:22:07.755000-07:00,93.0,,,,,,,,,,,,
4927849,0.0,0,-0.001,0,0.0,0.0,0.0,0.0182262,0.346054,0.352998,-0.334616,-0.0149552,0.932498,-0.000905395,-0.0216752,-0.0310966,47.5984007,0,0.007,-0.072,-0.018,0.018,-122.8307393,102.90000153,0.0,0.0,81.7,24.5,24.8,0.904,unknown_ride_id,7,2025-09-17 01:22:07.849000+00:00,2025-09-16 18:22:07.849000-07:00,94.0,,,,,,,,,,,,
4927929,0.0,0,-0.001,0,0.0,0.0,0.0,0.0181555,0.346024,0.353085,-0.336817,-0.00961559,0.932647,0.00521243,-0.0209615,0.0386319,47.5984007,0,0.007,-0.073,-0.018,0.018,-122.8307393,102.90000153,0.0,0.0,81.7,24.5,24.8,0.904,unknown_ride_id,8,2025-09-17 01:22:07.929000+00:00,2025-09-16 18:22:07.929000-07:00,80.0,,,,,,,,,,,,
4928071,0.0,0,-0.001,0,0.0,0.0,0.0,0.0181814,0.346009,0.353176,-0.330855,-0.0115578,0.932702,-0.0767553,0.0476701,-0.095424,47.5983945,0,0.007,-0.072,-0.018,0.018,-122.8307536,103.0,0.0,0.0,81.7,24.5,24.8,0.904,unknown_ride_id,9,2025-09-17 01:22:08.071000+00:00,2025-09-16 18:22:08.071000-07:00,142.0,,,,,,,,,,,,
4928157,0.0,0,-0.001,0,0.0,0.0,0.0,0.0181741,0.346038,0.353301,-0.334454,-0.0116348,0.932748,-0.000905395,-0.0216752,-0.0310966,47.5983945,0,0.007,-0.073,-0.018,0.018,-122.8307536,103.0,0.0,0.0,81.7,24.5,24.8,0.904,unknown_ride_id,10,2025-09-17 01:22:08.157000+00:00,2025-09-16 18:22:08.157000-07:00,86.0,,,,,,,,,,,,
4928250,0.0,0,-0.001,0,0.0,0.0,0.0,0.0181741,0.346038,0.353301,-0.334454,-0.0116348,0.932748,-0.000905395,-0.0216752,-0.0310966,47.5983945,0,0.007,-0.073,-0.018,0.018,-122.8307536,103.0,0.0,0.0,81.7,24.5,24.8,0.904,unknown_ride_id,11,2025-09-17 01:22:08.250000+00:00,2025-09-16 18:22:08.250000-07:00,93.0,,,,,,,,,,,,
4928342,0.0,0,-0.001,0,0.0,0.0,0.0,0.0181733,0.346027,0.353378,-0.334412,-0.0135817,0.93269,-0.00702322,-0.0223888,-0.100825,47.5983945,0,0.007,-0.073,-0.018,0.018,-122.8307536,103.0,0.0,0.0,81.7,24.5,24.8,0.904,unknown_ride_id,12,2025-09-17 01:22:08.342000+00:00,2025-09-16 18:22:08.342000-07:00,92.0,,,,,,,,,,,,
4928436,0.0,0,-0.001,0,0.0,0.0,0.0,0.0182052,0.346011,0.353446,-0.335256,-0.0155178,0.932609,-0.0645196,0.119094,0.0433166,47.5983945,0,0.007,-0.072,-0.018,0.018,-122.8307536,103.0,0.0,0.0,81.7,24.5,24.8,0.904,unknown_ride_id,13,2025-09-17 01:22:08.436000+00:00,2025-09-16 18:22:08.436000-07:00,94.0,,,,,,,,,,,,
4928520,0.0,0,-0.001,0,0.0,0.0,0.0,0.0182167,0.345977,0.353497,-0.339119,-0.01887,0.932563,-0.000905395,-0.0216752,-0.0310966,47.5983945,0,0.007,-0.073,-0.018,0.018,-122.8307536,103.0,0.0,0.0,81.7,24.5,24.8,0.904,unknown_ride_id,14,2025-09-17 01:22:08.520000+00:00,2025-09-16 18:22:08.520000-07:00,84.0,,,,,,,,,,,,
4928615,0.0,0,-0.001,0,0.0,0.0,0.0,0.0182042,0.345984,0.353551,-0.337601,-0.0150177,0.932592,-0.00702322,-0.0923852,-0.100109,47.5983945,0,0.007,-0.073,-0.018,0.018,-122.8307536,103.0,0.0,0.0,81.7,24.5,24.8,0.904,unknown_ride_id,15,2025-09-17 01:22:08.615000+00:00,2025-09-16 18:22:08.615000-07:00,95.0,,,,,,,,,,,,
4928745,0.0,0,-0.001,0,0.0,0.0,0.0,0.0181994,0.34599,0.353635,-0.339572,-0.017516,0.932624,-0.00702322,0.0476075,-0.101541,47.5983945,0,0.007,-0.072,-0.018,0.018,-122.8307536,103.0,0.0,0.0,81.7,24.5,24.8,0.904,unknown_ride_id,16,2025-09-17 01:22:08.745000+00:00,2025-09-16 18:22:08.745000-07:00,130.0,,,,,,,,,,,,
4928838,0.0,0,-0.001,0,0.0,0.0,0.0,0.0182083,0.346035,0.353745,-0.335085,-0.0154979,0.932652,-0.0706375,-0.0216126,-0.0249791,47.5983945,0,0.007,-0.073,-0.018,0.018,-122.8307536,103.0,0.0,0.0,81.7,24.5,24.8,0.904,unknown_ride_id,17,2025-09-17 01:22:08.838000+00:00,2025-09-16 18:22:08.838000-07:00,93.0,,,,,,,,,,,,
4928923,0.0,0,-0.001,0,0.0,0.0,0.0,0.0182458,0.346061,0.353836,-0.335913,-0.0170012,0.932674,0.132441,-0.0925104,-0.112344,47.5983945,0,0.007,-0.072,-0.018,0.018,-122.8307536,103.0,0.0,0.0,81.7,24.5,24.8,0.904,unknown_ride_id,18,2025-09-17 01:22:08.923000+00:00,2025-09-16 18:22:08.923000-07:00,85.0,,,,,,,,,,,,
4929016,0.0,0,-0.001,0,0.0,0.0,0.0,0.0181803,0.346124,0.353865,-0.337695,-0.013679,0.932729,-0.0584018,0.0498111,0.113762,47.5983945,0,0.006,-0.072,-0.018,0.018,-122.8307536,103.0,0.0,0.0,81.7,24.5,24.8,0.904,unknown_ride_id,19,2025-09-17 01:22:09.016000+00:00,2025-09-16 18:22:09.016000-07:00,93.0,,,,,,,,,,,,
4929146,0.0,0,-0.001,0,0.0,0.0,0.0,0.018171,0.346109,0.353922,-0.33338,-0.0190005,0.932749,-0.0645196,0.329083,0.0411674,47.5983945,0,0.007,-0.073,-0.018,0.018,-122.8307536,103.0,0.0,0.0,81.7,24.5,24.8,0.904,unknown_ride_id,20,2025-09-17 01:22:09.146000+00:00,2025-09-16 18:22:09.146000-07:00,130.0,,,,,,,,,,,,
4929250,0.0,0,-0.001,0,0.0,0.0,0.0,0.0182111,0.345953,0.354016,-0.333593,-0.0162997,0.932616,0.00521243,0.32902,0.0350499,47.5983945,0,0.007,-0.072,-0.018,0.018,-122.8307536,103.0,0.0,0.0,81.7,24.5,24.8,0.904,unknown_ride_id,21,2025-09-17 01:22:09.250000+00:00,2025-09-16 18:22:09.250000-07:00,104.0,,,,,,,,,,,,
4929328,0.0,0,-0.001,0,0.0,0.0,0.0,0.0181745,0.345988,0.354077,-0.333815,-0.0183918,0.932697,0.0688268,0.39824,-0.0415125,47.5983945,0,0.007,-0.072,-0.018,0.018,-122.8307536,103.0,0.0,0.0,81.7,24.5,24.8,0.904,unknown_ride_id,22,2025-09-17 01:22:09.328000+00:00,2025-09-16 18:22:09.328000-07:00,78.0,,,,,,,,,,,,
4929422,0.0,0,-0.001,0,0.0,0.0,0.0,0.0181526,0.345906,0.354138,-0.335119,-0.0114838,0.932647,-0.00702322,0.117604,-0.102258,47.5983945,0,0.006,-0.072,-0.018,0.018,-122.8307536,103.0,0.0,0.0,81.7,24.5,24.8,0.904,unknown_ride_id,23,2025-09-17 01:22:09.422000+00:00,2025-09-16 18:22:09.422000-07:00,94.0,,,,,,,,,,,,
4929510,0.0,0,-0.001,0,0.0,0.0,0.0,0.0182309,0.345946,0.354248,-0.334292,-0.0153482,0.932755,-0.0767553,-0.232315,-0.0925583,47.5983945,0,0.007,-0.073,-0.018,0.018,-122.8307536,103.0,0.0,0.0,81.7,24.5,24.8,0.904,unknown_ride_id,24,2025-09-17 01:22:09.510000+00:00,2025-09-16 18:22:09.510000-07:00,88.0,,,,,,,,,,,,
4929607,0.0,0,-0.001,0,0.0,0.0,0.0,0.0182268,0.346017,0.354333,-0.334685,-0.0164842,0.93286,0.0688268,-0.231727,-0.0350649,47.5983945,0,0.007,-0.073,-0.018,0.018,-122.8307536,103.0,0.0,0.0,81.7,24.6,24.8,0.904,unknown_ride_id,25,2025-09-17 01:22:09.607000+00:00,2025-09-16 18:22:09.607000-07:00,97.0,,,,,,,,,,,,
4929689,0.0,0,-0.001,0,0.0,0.0,0.0,0.0181903,0.346055,0.354415,-0.334352,-0.0141199,0.932871,-0.00702322,-0.0223888,-0.100825,47.5983945,0,0.007,-0.073,-0.018,0.018,-122.8307536,103.0,0.0,0.0,81.7,24.5,24.8,0.904,unknown_ride_id,26,2025-09-17 01:22:09.689000+00:00,2025-09-16 18:22:09.689000-07:00,82.0,,,,,,,,,,,,
4929784,0.0,0,-0.001,0,0.0,0.0,0.0,0.0182443,0.346041,0.354512,-0.334224,-0.0145929,0.93281,-0.00702322,0.117604,-0.102258,47.5983945,0,0.008,-0.073,-0.018,0.018,-122.8307536,103.0,0.0,0.0,81.7,24.6,24.8,0.904,unknown_ride_id,27,2025-09-17 01:22:09.784000+00:00,2025-09-16 18:22:09.784000-07:00,95.0,,,,,,,,,,,,
4929871,0.0,0,-0.001,0,0.0,0.0,0.0,0.0182208,0.345974,0.354553,-0.330855,-0.0198534,0.932754,-0.000905395,0.25831,-0.0339622,47.5983945,0,0.006,-0.073,-0.018,0.018,-122.8307536,103.0,0.0,0.0,81.7,24.5,24.8,0.904,unknown_ride_id,28,2025-09-17 01:22:09.871000+00:00,2025-09-16 18:22:09.871000-07:00,87.0,,,,,,,,,,,,
4929964,0.0,0,-0.001,0,0.0,0.0,0.0,0.0181988,0.346022,0.35465,-0.337499,-0.013599,0.932672,-0.0645196,0.119094,0.0433166,47.5983945,0,0.007,-0.073,-0.018,0.018,-122.8307536,103.0,0.0,0.0,81.7,24.5,24.8,0.904,unknown_ride_id,29,2025-09-17 01:22:09.964000+00:00,2025-09-16 18:22:09.964000-07:00,93.0,,,,,,,,,,,,
4930048,0.0,0,-0.001,0,0.0,0.0,0.0,0.018216,0.345982,0.354748,-0.331657,-0.012513,0.932567,-0.00702322,0.0476075,-0.101541,47.5983945,0,0.007,-0.072,-0.018,0.018,-122.8307536,103.0,0.0,0.0,81.7,24.5,24.8,0.904,unknown_ride_id,30,2025-09-17 01:22:10.048000+00:00,2025-09-16 18:22:10.048000-07:00,84.0,,,,,,,,,,,,
4930189,0.0,0,-0.001,0,0.0,0.0,0.0,0.0182179,0.345956,0.354803,-0.335546,-0.0149494,0.932487,0.00521243,-0.0909579,0.0393483,47.5983945,0,0.007,-0.073,-0.018,0.018,-122.8307536,103.0,0.0,0.0,81.7,24.5,24.8,0.904,unknown_ride_id,31,2025-09-17 01:22:10.189000+00:00,2025-09-16 18:22:10.189000-07:00,141.0,,,,,,,,,,,,
4930276,0.0,0,-0.001,0,0.0,0.0,0.0,0.0182315,0.34599,0.354894,-0.336587,-0.0140376,0.932419,0.062709,0.0475449,-0.107659,47.5983945,0,0.007,-0.073,-0.018,0.018,-122.8307536,103.0,0.0,0.0,81.7,24.5,24.8,0.904,unknown_ride_id,32,2025-09-17 01:22:10.276000+00:00,2025-09-16 18:22:10.276000-07:00,87.0,,,,,,,,,,,,
4930373,0.0,0,-0.001,0,0.0,0.0,0.0,0.0182126,0.345975,0.354915,-0.334028,-0.0159768,0.932364,-0.000905395,-0.0916715,-0.0303801,47.5983945,0,0.007,-0.072,-0.018,0.018,-122.8307536,103.0,0.0,0.0,81.7,24.5,24.8,0.904,unknown_ride_id,33,2025-09-17 01:22:10.373000+00:00,2025-09-16 18:22:10.373000-07:00,97.0,,,,,,,,,,,,
4930458,0.0,0,-0.001,0,0.0,0.0,0.0,0.0182185,0.345962,0.354991,-0.331742,-0.0178906,0.932351,-0.146487,-0.0222636,-0.08859,47.5983945,0,0.008,-0.073,-0.018,0.018,-122.8307536,103.0,0.0,0.0,81.7,24.6,24.8,0.904,unknown_ride_id,34,2025-09-17 01:22:10.458000+00:00,2025-09-16 18:22:10.458000-07:00,85.0,,,,,,,,,,,,
4930544,0.0,0,-0.001,0,0.0,0.0,0.0,0.018169,0.345948,0.355019,-0.337184,-0.0160592,0.932361,0.0688268,0.118255,-0.0386469,47.5983945,0,0.007,-0.073,-0.018,0.018,-122.8307536,103.0,0.0,0.0,81.7,24.5,24.8,0.904,unknown_ride_id,35,2025-09-17 01:22:10.544000+00:00,2025-09-16 18:22:10.544000-07:00,86.0,,,,,,,,,,,,
4930634,0.0,0,-0.001,0,0.0,0.0,0.0,0.0181042,0.345952,0.355052,-0.335785,-0.0145464,0.932393,0.00521243,-0.0209615,0.0386319,47.5983945,0,0.007,-0.073,-0.018,0.018,-122.8307536,103.0,0.0,0.0,81.7,24.5,24.8,0.904,unknown_ride_id,36,2025-09-17 01:22:10.634000+00:00,2025-09-16 18:22:10.634000-07:00,90.0,,,,,,,,,,,,
4930728,0.0,0,-0.001,0,0.0,0.0,0.0,0.0181837,0.345956,0.355169,-0.337329,-0.0169949,0.932454,-0.0706375,-0.0916089,-0.0242627,47.5983945,0,0.007,-0.073,-0.018,0.018,-122.8307536,103.0,0.0,0.0,81.7,24.5,24.8,0.904,unknown_ride_id,37,2025-09-17 01:22:10.728000+00:00,2025-09-16 18:22:10.728000-07:00,94.0,,,,,,,,,,,,
4930811,0.0,0,-0.001,0,0.0,0.0,0.0,0.0181449,0.345947,0.35525,-0.330813,-0.0159446,0.932518,0.0688268,-0.0217378,-0.0372141,47.5983945,0,0.008,-0.073,-0.018,0.018,-122.8307536,103.0,0.0,0.0,81.7,24.5,24.8,0.904,unknown_ride_id,38,2025-09-17 01:22:10.811000+00:00,2025-09-16 18:22:10.811000-07:00,83.0,,,,,,,,,,,,
4930910,0.0,0,-0.001,0,0.0,0.0,0.0,0.0180972,0.345942,0.355334,-0.336561,-0.0144655,0.932547,-0.0706375,0.11838,-0.0264119,47.5983945,0,0.006,-0.073,-0.018,0.018,-122.8307536,103.0,0.0,0.0,81.7,24.5,24.8,0.904,unknown_ride_id,39,2025-09-17 01:22:10.910000+00:00,2025-09-16 18:22:10.910000-07:00,99.0,,,,,,,,,,,,
4931045,0.0,0,-0.001,0,0.0,0.0,0.0,0.0181352,0.345924,0.355468,-0.338685,-0.0180148,0.932595,-0.0767553,0.0476701,-0.095424,47.5983945,0,0.007,-0.073,-0.018,0.018,-122.8307536,103.0,0.0,0.0,81.7,24.6,24.8,0.904,unknown_ride_id,40,2025-09-17 01:22:11.045000+00:00,2025-09-16 18:22:11.045000-07:00,135.0,,,,,,,,,,,,
4931130,0.0,0,-0.001,0,0.0,0.0,0.0,0.0181301,0.345961,0.355572,-0.332697,-0.0125772,0.932635,-0.000905395,0.0483212,-0.031813,0.0,0,0.007,-0.073,-0.018,0.018,0.0,0.0,0.0,0.0,81.7,24.5,24.8,0.904,unknown_ride_id,41,2025-09-17 01:22:11.130000+00:00,2025-09-16 18:22:11.130000-07:00,85.0,,,,,,,,,,,,
4931220,0.0,0,-0.001,0,0.0,0.0,0.0,0.0181445,0.345947,0.355654,-0.338088,-0.0150173,0.932635,-0.00702322,-0.0223888,-0.100825,0.0,0,0.007,-0.073,-0.018,0.018,0.0,0.0,0.0,0.0,81.7,24.5,24.8,0.904,unknown_ride_id,42,2025-09-17 01:22:11.220000+00:00,2025-09-16 18:22:11.220000-07:00,90.0,,,,,,,,,,,,
4931317,0.0,0,-0.001,0,0.0,0.0,0.0,0.0181827,0.345944,0.355737,-0.337798,-0.0175376,0.93265,-0.0828731,0.0469564,-0.165152,0.0,0,0.007,-0.072,-0.018,0.018,0.0,0.0,0.0,0.0,81.7,24.6,24.8,0.904,unknown_ride_id,43,2025-09-17 01:22:11.317000+00:00,2025-09-16 18:22:11.317000-07:00,97.0,,,,,,,,,,,,
4931396,0.0,0,-0.001,0,0.0,0.0,0.0,0.0181687,0.345957,0.355795,-0.330326,-0.0110653,0.93266,-0.00702322,-0.0223888,-0.100825,0.0,0,0.007,-0.073,-0.018,0.018,0.0,0.0,0.0,0.0,81.7,24.5,24.8,0.904,unknown_ride_id,44,2025-09-17 01:22:11.396000+00:00,2025-09-16 18:22:11.396000-07:00,79.0,,,,,,,,,,,,
4931491,0.0,0,-0.001,0,0.0,0.0,0.0,0.0181931,0.34597,0.355857,-0.332425,-0.0121146,0.932654,-0.0828731,-0.0230399,-0.164436,0.0,0,0.007,-0.073,-0.018,0.018,0.0,0.0,0.0,0.0,81.7,24.6,24.8,0.904,unknown_ride_id,45,2025-09-17 01:22:11.491000+00:00,2025-09-16 18:22:11.491000-07:00,95.0,,,,,,,,,,,,
4931580,0.0,0,-0.001,0,0.0,0.0,0.0,0.018179,0.34595,0.355928,-0.334599,-0.0130585,0.932634,-0.0706375,0.0483838,-0.0256955,0.0,0,0.007,-0.073,-0.018,0.018,0.0,0.0,0.0,0.0,81.7,24.5,24.8,0.904,unknown_ride_id,46,2025-09-17 01:22:11.580000+00:00,2025-09-16 18:22:11.580000-07:00,89.0,,,,,,,,,,,,
4931671,0.0,0,-0.001,0,0.0,0.0,0.0,0.0181448,0.34597,0.355999,-0.337943,-0.0189613,0.932597,0.00521243,-0.0209615,0.0386319,0.0,0,0.007,-0.072,-0.018,0.018,0.0,0.0,0.0,0.0,81.7,24.5,24.8,0.904,unknown_ride_id,47,2025-09-17 01:22:11.671000+00:00,2025-09-16 18:22:11.671000-07:00,91.0,,,,,,,,,,,,
4931763,0.0,0,-0.001,0,0.0,0.0,0.0,0.018182,0.345976,0.356083,-0.333815,-0.0164399,0.932574,-0.00702322,-0.0223888,-0.100825,0.0,0,0.007,-0.073,-0.018,0.018,0.0,0.0,0.0,0.0,81.7,24.5,24.8,0.904,unknown_ride_id,48,2025-09-17 01:22:11.763000+00:00,2025-09-16 18:22:11.763000-07:00,92.0,,,,,,,,,,,,
4931852,0.0,0,-0.001,0,0.0,0.0,0.0,0.0182236,0.34596,0.356162,-0.337473,-0.0159787,0.932565,-0.0767553,-0.0223262,-0.0947075,0.0,0,0.007,-0.073,-0.018,0.018,0.0,0.0,0.0,0.0,81.7,24.6,24.8,0.904,unknown_ride_id,49,2025-09-17 01:22:11.852000+00:00,2025-09-16 18:22:11.852000-07:00,89.0,,,,,,,,,,,,
4931954,0.0,0,-0.001,0,0.0,0.0,0.0,0.0181948,0.345986,0.356186,-0.334412,-0.0179735,0.932581,-0.00702322,-0.0223888,-0.100825,0.0,0,0.007,-0.072,-0.018,0.018,0.0,0.0,0.0,0.0,81.7,24.5,24.8,0.904,unknown_ride_id,50,2025-09-17 01:22:11.954000+00:00,2025-09-16 18:22:11.954000-07:00,102.0,,,,,,,,,,,,
4932033,0.0,0,-0.001,0,0.0,0.0,0.0,0.0181716,0.345944,0.356239,-0.337815,-0.0150426,0.932582,-0.0706375,-0.0216126,-0.0249791,0.0,0,0.007,-0.073,-0.018,0.018,0.0,0.0,0.0,0.0,81.7,24.5,24.8,0.904,unknown_ride_id,51,2025-09-17 01:22:12.033000+00:00,2025-09-16 18:22:12.033000-07:00,79.0,,,,,,,,,,,,
4932166,0.0,0,-0.001,0,0.0,0.0,0.0,0.018252,0.345905,0.356329,-0.33367,-0.0174561,0.932572,-0.0767553,-0.0223262,-0.0947075,0.0,0,0.006,-0.073,-0.018,0.018,0.0,0.0,0.0,0.0,81.7,24.5,24.8,0.904,unknown_ride_id,52,2025-09-17 01:22:12.166000+00:00,2025-09-16 18:22:12.166000-07:00,133.0,,,,,,,,,,,,
4932296,0.0,0,-0.001,0,0.0,0.0,0.0,0.018273,0.345967,0.356437,-0.33767,-0.0199626,0.93255,-0.000905395,0.118317,-0.0325294,47.59843108,0,0.007,-0.073,-0.018,0.018,-122.83069908,-1.20405252,0.0,0.0,81.7,24.5,24.8,0.904,unknown_ride_id,53,2025-09-17 01:22:12.296000+00:00,2025-09-16 18:22:12.296000-07:00,130.0,,,,,,,,,,,,
4932441,0.0,0,-0.001,0,0.0,0.0,0.0,0.0182364,0.345964,0.356533,-0.337431,-0.0149978,0.932529,-0.0828731,0.0469564,-0.165152,47.59843108,0,0.007,-0.073,-0.018,0.018,-122.83069908,-1.20405252,0.0,0.0,81.7,24.5,24.8,0.904,unknown_ride_id,54,2025-09-17 01:22:12.441000+00:00,2025-09-16 18:22:12.441000-07:00,145.0,,,,,,,,,,,,
4932531,0.0,0,-0.001,0,0.0,0.0,0.0,0.0183089,0.345945,0.35665,-0.336143,-0.015019,0.932491,0.0688268,0.0482585,-0.0379305,47.59843108,0,0.007,-0.073,-0.018,0.018,-122.83069908,-1.20405252,0.0,0.0,81.7,24.6,24.8,0.904,unknown_ride_id,55,2025-09-17 01:22:12.531000+00:00,2025-09-16 18:22:12.531000-07:00,90.0,,,,,,,,,,,,
4932616,0.0,0,-0.001,0,0.0,0.0,0.0,0.0182235,0.345946,0.35666,-0.336015,-0.01598,0.932533,-0.0645196,-0.0908953,0.0454658,47.59843108,0,0.007,-0.073,-0.018,0.018,-122.83069908,-1.20405252,0.0,0.0,81.7,24.5,24.8,0.904,unknown_ride_id,56,2025-09-17 01:22:12.616000+00:00,2025-09-16 18:22:12.616000-07:00,85.0,,,,,,,,,,,,
4932702,0.0,0,-0.001,0,0.0,0.0,0.0,0.0182871,0.345953,0.35674,-0.333798,-0.0121033,0.932628,-0.146487,-0.0222636,-0.08859,47.59843108,0,0.007,-0.073,-0.018,0.018,-122.83069908,-1.20405252,0.0,0.0,81.7,24.6,24.8,0.904,unknown_ride_id,57,2025-09-17 01:22:12.702000+00:00,2025-09-16 18:22:12.702000-07:00,86.0,,,,,,,,,,,,
4932793,0.0,0,-0.001,0,0.0,0.0,0.0,0.0182824,0.345941,0.356803,-0.336015,-0.0150041,0.932676,-0.00702322,0.117604,-0.102258,47.59843108,0,0.006,-0.073,-0.018,0.018,-122.83069908,-1.20405252,0.0,0.0,81.7,24.5,24.8,0.904,unknown_ride_id,58,2025-09-17 01:22:12.793000+00:00,2025-09-16 18:22:12.793000-07:00,91.0,,,,,,,,,,,,
4932884,0.0,0,-0.001,0,0.0,0.0,0.0,0.0182358,0.345918,0.356843,-0.33297,-0.011088,0.932714,-0.000905395,0.0483212,-0.031813,47.59843108,0,0.007,-0.072,-0.018,0.018,-122.83069908,-1.20405252,0.0,0.0,81.7,24.5,24.8,0.904,unknown_ride_id,59,2025-09-17 01:22:12.884000+00:00,2025-09-16 18:22:12.884000-07:00,91.0,,,,,,,,,,,,
4932971,0.0,0,-0.001,0,0.0,0.0,0.0,0.0182587,0.345886,0.356911,-0.332442,-0.0169391,0.932695,-0.0706375,-0.0216126,-0.0249791,47.59843108,0,0.007,-0.072,-0.018,0.018,-122.83069908,-1.20405252,0.0,0.0,81.7,24.5,24.8,0.904,unknown_ride_id,60,2025-09-17 01:22:12.971000+00:00,2025-09-16 18:22:12.971000-07:00,87.0,,,,,,,,,,,,
4933105,0.0,0,-0.001,0,0.0,0.0,0.0,0.0183134,0.345919,0.357002,-0.336211,-0.016548,0.932688,-0.0645196,-0.0908953,0.0454658,47.59843108,0,0.008,-0.073,-0.018,0.018,-122.83069908,-1.20405252,0.0,0.0,81.7,24.5,24.8,0.904,unknown_ride_id,61,2025-09-17 01:22:13.105000+00:00,2025-09-16 18:22:13.105000-07:00,134.0,,,,,,,,,,,,
4933198,0.0,0,-0.001,0,0.0,0.0,0.0,0.0183489,0.345927,0.357093,-0.332612,-0.0140312,0.932673,0.062709,-0.0924478,-0.106226,47.59843108,0,0.007,-0.073,-0.018,0.018,-122.83069908,-1.20405252,0.0,0.0,81.7,24.5,24.8,0.904,unknown_ride_id,62,2025-09-17 01:22:13.198000+00:00,2025-09-16 18:22:13.198000-07:00,93.0,,,,,,,,,,,,
4933294,0.0,0,-0.001,0,0.0,0.0,0.0,0.0183524,0.345947,0.357135,-0.337798,-0.0170496,0.932621,-0.00702322,-0.0923852,-0.100109,47.59842243,0,0.007,-0.072,-0.018,0.018,-122.83074666,77.65791324,3.90335035,0.0,81.7,24.6,24.8,0.904,unknown_ride_id,63,2025-09-17 01:22:13.294000+00:00,2025-09-16 18:22:13.294000-07:00,96.0,,,,,,,,,,,,
4933380,0.0,0,-0.001,0,0.0,0.0,0.0,0.0183884,0.345965,0.357241,-0.333883,-0.0116253,0.932546,0.00521243,-0.0909579,0.0393483,47.59842243,0,0.007,-0.072,-0.018,0.018,-122.83074666,77.65791324,3.90335035,0.0,81.7,24.5,24.8,0.904,unknown_ride_id,64,2025-09-17 01:22:13.380000+00:00,2025-09-16 18:22:13.380000-07:00,86.0,,,,,,,,,,,,
4933466,0.0,0,-0.001,0,0.0,0.0,0.0,0.0183456,0.345967,0.357277,-0.3339,-0.014498,0.932548,0.062709,-0.0224515,-0.106943,47.59842243,0,0.007,-0.073,-0.018,0.018,-122.83074666,77.65791324,3.90335035,0.0,81.7,24.6,24.8,0.904,unknown_ride_id,65,2025-09-17 01:22:13.466000+00:00,2025-09-16 18:22:13.466000-07:00,86.0,,,,,,,,,,,,
4933565,0.0,0,-0.001,0,0.0,0.0,0.0,0.0182819,0.34595,0.357293,-0.333567,-0.0160374,0.932601,0.0749446,0.0489722,0.031798,47.59842243,0,0.007,-0.073,-0.018,0.018,-122.83074666,77.65791324,3.90335035,0.0,81.7,24.6,24.8,0.904,unknown_ride_id,66,2025-09-17 01:22:13.565000+00:00,2025-09-16 18:22:13.565000-07:00,99.0,,,,,,,,,,,,
4933658,0.0,0,-0.001,0,0.0,0.0,0.0,0.0184089,0.345932,0.357398,-0.33071,-0.0174537,0.932669,-0.0192589,0.0461802,-0.240998,47.59842243,0,0.007,-0.073,-0.018,0.018,-122.83074666,77.65791324,3.90335035,0.0,81.7,24.6,24.8,0.904,unknown_ride_id,67,2025-09-17 01:22:13.658000+00:00,2025-09-16 18:22:13.658000-07:00,93.0,,,,,,,,,,,,
4933741,0.0,0,-0.001,0,0.0,0.0,0.0,0.0184008,0.345923,0.3574,-0.334301,-0.0169274,0.932745,0.00521243,-0.0909579,0.0393483,47.59842243,0,0.007,-0.073,-0.018,0.018,-122.83074666,77.65791324,3.90335035,0.0,81.7,24.5,24.8,0.904,unknown_ride_id,68,2025-09-17 01:22:13.741000+00:00,2025-09-16 18:22:13.741000-07:00,83.0,,,,,,,,,,,,
4933831,0.0,0,-0.001,0,0.0,0.0,0.0,0.0182277,0.345925,0.357373,-0.337687,-0.0101479,0.932768,0.00521243,-0.0209615,0.0386319,47.59842243,0,0.007,-0.072,-0.018,0.018,-122.83074666,77.65791324,3.90335035,0.0,81.7,24.6,24.8,0.904,unknown_ride_id,69,2025-09-17 01:22:13.831000+00:00,2025-09-16 18:22:13.831000-07:00,90.0,,,,,,,,,,,,
4933969,0.0,0,-0.001,0,0.0,0.0,0.0,0.0183476,0.345928,0.357477,-0.331,-0.0139574,0.93278,0.062709,-0.0924478,-0.106226,47.59842243,0,0.007,-0.073,-0.018,0.018,-122.83074666,77.65791324,3.90335035,0.0,81.7,24.5,24.8,0.904,unknown_ride_id,70,2025-09-17 01:22:13.969000+00:00,2025-09-16 18:22:13.969000-07:00,138.0,,,,,,,,,,,,
4934052,0.0,0,-0.001,0,0.0,0.0,0.0,0.0183476,0.345928,0.357477,-0.331,-0.0139574,0.93278,0.062709,-0.0924478,-0.106226,47.59842243,0,0.007,-0.072,-0.018,0.018,-122.83074666,77.65791324,3.90335035,0.0,81.7,24.5,24.8,0.904,unknown_ride_id,71,2025-09-17 01:22:14.052000+00:00,2025-09-16 18:22:14.052000-07:00,83.0,,,,,,,,,,,,
4934195,0.0,0,-0.001,0,0.0,0.0,0.0,0.0181827,0.345926,0.357461,-0.339844,-0.0155388,0.932835,-0.0767553,0.0476701,-0.095424,47.59842243,0,0.007,-0.073,-0.018,0.018,-122.83074666,77.65791324,3.90335035,0.0,81.7,24.5,24.8,0.904,unknown_ride_id,72,2025-09-17 01:22:14.195000+00:00,2025-09-16 18:22:14.195000-07:00,143.0,,,,,,,,,,,,
4934287,0.0,0,-0.001,0,0.0,0.0,0.0,0.018359,0.345895,0.357606,-0.335128,-0.0150149,0.932828,-0.000905395,-0.0216752,-0.0310966,47.59841652,0,0.008,-0.072,-0.018,0.018,-122.83078827,146.65106561,3.71264029,0.0,81.7,24.6,24.8,0.904,unknown_ride_id,73,2025-09-17 01:22:14.287000+00:00,2025-09-16 18:22:14.287000-07:00,92.0,,,,,,,,,,,,
4934367,0.0,0,-0.001,0,0.0,0.0,0.0,0.0182883,0.345891,0.357589,-0.333184,-0.0159926,0.932823,0.138559,-0.0917967,-0.0426152,47.59841652,0,0.007,-0.073,-0.018,0.018,-122.83078827,146.65106561,3.71264029,0.0,81.7,24.5,24.8,0.904,unknown_ride_id,74,2025-09-17 01:22:14.367000+00:00,2025-09-16 18:22:14.367000-07:00,80.0,,,,,,,,,,,,
4934505,0.0,0,-0.001,0,0.0,0.0,0.0,0.0182023,0.345921,0.357574,-0.337627,-0.0141019,0.932766,-0.210102,0.048509,-0.0134605,47.59841652,0,0.007,-0.073,-0.018,0.018,-122.83078827,146.65106561,3.71264029,0.0,81.7,24.6,24.8,0.904,unknown_ride_id,75,2025-09-17 01:22:14.505000+00:00,2025-09-16 18:22:14.505000-07:00,138.0,,,,,,,,,,,,
4934592,0.0,0,-0.001,0,0.0,0.0,0.0,0.0183498,0.345897,0.357686,-0.339546,-0.0194077,0.932647,-0.0706375,-0.0216126,-0.0249791,47.59841652,0,0.007,-0.073,-0.018,0.018,-122.83078827,146.65106561,3.71264029,0.0,81.7,24.5,24.8,0.904,unknown_ride_id,76,2025-09-17 01:22:14.592000+00:00,2025-09-16 18:22:14.592000-07:00,87.0,,,,,,,,,,,,
4934731,0.0,0,-0.001,0,0.0,0.0,0.0,0.0182775,0.345944,0.35771,-0.329516,-0.0097926,0.93262,0.0113302,-0.0902442,0.109077,47.59841652,0,0.008,-0.073,-0.018,0.018,-122.83078827,146.65106561,3.71264029,0.0,81.7,24.6,24.8,0.904,unknown_ride_id,77,2025-09-17 01:22:14.731000+00:00,2025-09-16 18:22:14.731000-07:00,139.0,,,,,,,,,,,,
4934815,0.0,0,-0.001,0,0.0,0.0,0.0,0.0183308,0.34591,0.357785,-0.339572,-0.017028,0.932628,0.062709,-0.0924478,-0.106226,47.59841652,0,0.007,-0.073,-0.018,0.018,-122.83078827,146.65106561,3.71264029,0.0,81.7,24.6,24.8,0.904,unknown_ride_id,78,2025-09-17 01:22:14.815000+00:00,2025-09-16 18:22:14.815000-07:00,84.0,,,,,,,,,,,,
4934905,0.0,0,-0.001,0,0.0,0.0,0.0,0.0183438,0.345914,0.357826,-0.338557,-0.01556,0.932701,-0.000905395,-0.0916715,-0.0303801,47.59841652,0,0.007,-0.072,-0.018,0.018,-122.83078827,146.65106561,3.71264029,0.0,81.7,24.6,24.8,0.904,unknown_ride_id,79,2025-09-17 01:22:14.905000+00:00,2025-09-16 18:22:14.905000-07:00,90.0,,,,,,,,,,,,
4934999,0.0,0,-0.001,0,0.0,0.0,0.0,0.0182104,0.345881,0.357811,-0.337857,-0.0140716,0.932747,-0.000905395,0.0483212,-0.031813,47.59841652,0,0.007,-0.073,-0.018,0.018,-122.83078827,146.65106561,3.71264029,0.0,81.7,24.6,24.8,0.904,unknown_ride_id,80,2025-09-17 01:22:14.999000+00:00,2025-09-16 18:22:14.999000-07:00,94.0,,,,,,,,,,,,
4935130,0.0,0,-0.001,0,0.0,0.0,0.0,0.0182702,0.34588,0.357857,-0.334437,-0.0180336,0.932762,-0.152605,0.187012,-0.160468,47.59841652,0,0.007,-0.073,-0.018,0.018,-122.83078827,146.65106561,3.71264029,0.0,81.7,24.6,24.8,0.904,unknown_ride_id,81,2025-09-17 01:22:15.130000+00:00,2025-09-16 18:22:15.130000-07:00,131.0,,,,,,,,,,,,
4935266,0.0,0,-0.001,0,0.0,0.0,0.0,0.0182954,0.345904,0.357946,-0.339239,-0.0180794,0.932754,0.0749446,0.0489722,0.031798,47.59842651,0,0.007,-0.072,-0.018,0.018,-122.83086452,158.66540226,3.60981178,0.0,81.7,24.6,24.8,0.904,unknown_ride_id,82,2025-09-17 01:22:15.266000+00:00,2025-09-16 18:22:15.266000-07:00,136.0,,,,,,,,,,,,
4935355,0.0,0,-0.001,0,0.0,0.0,0.0,0.0182083,0.345877,0.357958,-0.335512,-0.0179875,0.932753,-0.146487,-0.09226,-0.0878736,47.59842651,0,0.007,-0.073,-0.018,0.018,-122.83086452,158.66540226,3.60981178,0.0,81.7,24.6,24.8,0.904,unknown_ride_id,83,2025-09-17 01:22:15.355000+00:00,2025-09-16 18:22:15.355000-07:00,89.0,,,,,,,,,,,,
4935448,0.0,0,-0.001,0,0.0,0.0,0.0,0.0183069,0.345887,0.358025,-0.33587,-0.0160203,0.932816,-0.013141,0.0468938,-0.17127,47.59842651,0,0.007,-0.073,-0.018,0.018,-122.83086452,158.66540226,3.60981178,0.0,81.7,24.5,24.8,0.903,unknown_ride_id,84,2025-09-17 01:22:15.448000+00:00,2025-09-16 18:22:15.448000-07:00,93.0,,,,,,,,,,,,
4935537,0.0,0,-0.001,0,0.0,0.0,0.0,0.0182622,0.345903,0.358038,-0.337098,-0.0116575,0.932817,0.0688268,0.0482585,-0.0379305,47.59842651,0,0.007,-0.072,-0.018,0.018,-122.83086452,158.66540226,3.60981178,0.0,81.7,24.5,24.8,0.903,unknown_ride_id,85,2025-09-17 01:22:15.537000+00:00,2025-09-16 18:22:15.537000-07:00,89.0,,,,,,,,,,,,
4935630,0.0,0,-0.001,0,0.0,0.0,0.0,0.0182733,0.345872,0.358077,-0.338113,-0.0155654,0.932697,-0.146487,-0.0222636,-0.08859,47.59842651,0,0.007,-0.073,-0.018,0.018,-122.83086452,158.66540226,3.60981178,0.0,81.7,24.6,24.8,0.903,unknown_ride_id,86,2025-09-17 01:22:15.630000+00:00,2025-09-16 18:22:15.630000-07:00,93.0,,,,,,,,,,,,
4935762,0.0,0,-0.001,0,0.0,0.0,0.0,0.0183516,0.345913,0.358125,-0.335785,-0.0174742,0.932712,0.0749446,0.0489722,0.031798,47.59842651,0,0.007,-0.073,-0.018,0.018,-122.83086452,158.66540226,3.60981178,0.0,81.7,24.6,24.8,0.903,unknown_ride_id,87,2025-09-17 01:22:15.762000+00:00,2025-09-16 18:22:15.762000-07:00,132.0,,,,,,,,,,,,
4935860,0.0,0,-0.001,0,0.0,0.0,0.0,0.0182624,0.345882,0.358129,-0.334574,-0.0144623,0.932736,-0.0706375,-0.0916089,-0.0242627,47.59842651,0,0.007,-0.073,-0.018,0.018,-122.83086452,158.66540226,3.60981178,0.0,81.7,24.5,24.8,0.903,unknown_ride_id,88,2025-09-17 01:22:15.860000+00:00,2025-09-16 18:22:15.860000-07:00,98.0,,,,,,,,,,,,
4935952,0.0,0,-0.001,0,0.0,0.0,0.0,0.0183525,0.345879,0.358213,-0.330369,-0.01595,0.932714,-0.000905395,-0.0216752,-0.0310966,47.59842651,0,0.007,-0.073,-0.018,0.018,-122.83086452,158.66540226,3.60981178,0.0,81.7,24.5,24.8,0.903,unknown_ride_id,89,2025-09-17 01:22:15.952000+00:00,2025-09-16 18:22:15.952000-07:00,92.0,,,,,,,,,,,,
4936032,0.0,0,-0.001,0,0.0,0.0,0.0,0.0183525,0.345879,0.358213,-0.330369,-0.01595,0.932714,-0.000905395,-0.0216752,-0.0310966,47.59842651,0,0.007,-0.073,-0.018,0.018,-122.83086452,158.66540226,3.60981178,0.0,81.7,24.6,24.8,0.903,unknown_ride_id,90,2025-09-17 01:22:16.032000+00:00,2025-09-16 18:22:16.032000-07:00,80.0,,,,,,,,,,,,
4936121,0.0,0,-0.001,0,0.0,0.0,0.0,0.018353,0.345877,0.358255,-0.340851,-0.0149396,0.93269,-0.000905395,-0.0916715,-0.0303801,47.59842651,0,0.007,-0.072,-0.018,0.018,-122.83086452,158.66540226,3.60981178,0.0,81.7,24.6,24.8,0.903,unknown_ride_id,91,2025-09-17 01:22:16.121000+00:00,2025-09-16 18:22:16.121000-07:00,89.0,,,,,,,,,,,,
4936218,0.0,0,-0.001,0,0.0,0.0,0.0,0.0183081,0.345896,0.358276,-0.336697,-0.0150837,0.932657,-0.14037,-0.0215499,-0.0188616,47.59842651,0,0.007,-0.073,-0.018,0.018,-122.83086452,158.66540226,3.60981178,0.0,81.7,24.6,24.8,0.903,unknown_ride_id,92,2025-09-17 01:22:16.218000+00:00,2025-09-16 18:22:16.218000-07:00,97.0,,,,,,,,,,,,
4936350,0.0,0,-0.001,0,0.0,0.0,0.0,0.0184022,0.345864,0.358354,-0.331512,-0.016945,0.932595,-0.0767553,-0.0923226,-0.0939911,47.59841129,0,0.007,-0.073,-0.018,0.018,-122.83088555,126.93813086,3.37482309,0.0,81.7,24.6,24.8,0.903,unknown_ride_id,93,2025-09-17 01:22:16.350000+00:00,2025-09-16 18:22:16.350000-07:00,132.0,,,,,,,,,,,,
4936487,0.0,0,-0.001,0,0.0,0.0,0.0,0.0183175,0.345848,0.358383,-0.336271,-0.0169858,0.932575,-0.000905395,0.0483212,-0.031813,47.59841129,0,0.007,-0.073,-0.018,0.018,-122.83088555,126.93813086,3.37482309,0.0,81.7,24.6,24.8,0.903,unknown_ride_id,94,2025-09-17 01:22:16.487000+00:00,2025-09-16 18:22:16.487000-07:00,137.0,,,,,,,,,,,,
4936574,0.0,0,-0.001,0,0.0,0.0,0.0,0.0182972,0.345849,0.358445,-0.33593,-0.016946,0.932602,-0.0706375,0.0483838,-0.0256955,47.59841129,0,0.007,-0.073,-0.018,0.018,-122.83088555,126.93813086,3.37482309,0.0,81.7,24.6,24.8,0.903,unknown_ride_id,95,2025-09-17 01:22:16.574000+00:00,2025-09-16 18:22:16.574000-07:00,87.0,,,,,,,,,,,,
4936663,0.0,0,-0.001,0,0.0,0.0,0.0,0.0182972,0.345849,0.358445,-0.33593,-0.016946,0.932602,-0.0706375,0.0483838,-0.0256955,47.59841129,0,0.007,-0.072,-0.018,0.018,-122.83088555,126.93813086,3.37482309,0.0,81.7,24.5,24.8,0.903,unknown_ride_id,96,2025-09-17 01:22:16.663000+00:00,2025-09-16 18:22:16.663000-07:00,89.0,,,,,,,,,,,,
4936750,0.0,0,-0.001,0,0.0,0.0,0.0,0.0184163,0.345879,0.358557,-0.335324,-0.0150949,0.932638,0.138559,0.048196,-0.044048,47.59841129,0,0.006,-0.072,-0.018,0.018,-122.83088555,126.93813086,3.37482309,0.0,81.7,24.6,24.8,0.903,unknown_ride_id,97,2025-09-17 01:22:16.750000+00:00,2025-09-16 18:22:16.750000-07:00,87.0,,,,,,,,,,,,
4936850,0.0,0,-0.001,0,0.0,0.0,0.0,0.0183361,0.345885,0.35856,-0.34103,-0.0140988,0.932658,-0.0706375,-0.0216126,-0.0249791,47.59841129,0,0.007,-0.072,-0.018,0.018,-122.83088555,126.93813086,3.37482309,0.0,81.7,24.6,24.8,0.903,unknown_ride_id,98,2025-09-17 01:22:16.850000+00:00,2025-09-16 18:22:16.850000-07:00,100.0,,,,,,,,,,,,
4936985,0.0,0,-0.001,0,0.0,0.0,0.0,0.0183733,0.345858,0.358611,-0.328552,-0.0154787,0.932659,-0.0645196,0.0490974,0.044033,47.59841129,0,0.007,-0.072,-0.018,0.018,-122.83088555,126.93813086,3.37482309,0.0,81.7,24.5,24.8,0.903,unknown_ride_id,99,2025-09-17 01:22:16.985000+00:00,2025-09-16 18:22:16.985000-07:00,135.0,,,,,,,,,,,,
4937070,0.0,0,-0.001,0,0.0,0.0,0.0,0.0183891,0.345858,0.35865,-0.336228,-0.014541,0.932615,-0.00702322,0.0476075,-0.101541,47.59841129,0,0.007,-0.072,-0.018,0.018,-122.83088555,126.93813086,3.37482309,0.0,81.7,24.6,24.8,0.903,unknown_ride_id,100,2025-09-17 01:22:17.070000+00:00,2025-09-16 18:22:17.070000-07:00,85.0,,,,,,,,,,,,
4937158,0.0,0,-0.001,0,0.0,0.0,0.0,0.0183723,0.345862,0.358671,-0.341286,-0.0131527,0.932576,-0.146487,0.117729,-0.0900229,47.59841129,0,0.007,-0.072,-0.018,0.018,-122.83088555,126.93813086,3.37482309,0.0,81.7,24.6,24.8,0.903,unknown_ride_id,101,2025-09-17 01:22:17.158000+00:00,2025-09-16 18:22:17.158000-07:00,88.0,,,,,,,,,,,,
4937247,0.0,0,-0.001,0,0.0,0.0,0.0,0.0183552,0.345859,0.358737,-0.339162,-0.0139952,0.932565,-0.0767553,-0.0223262,-0.0947075,47.59841129,0,0.007,-0.073,-0.018,0.018,-122.83088555,126.93813086,3.37482309,0.0,81.7,24.6,24.8,0.903,unknown_ride_id,102,2025-09-17 01:22:17.247000+00:00,2025-09-16 18:22:17.247000-07:00,89.0,,,,,,,,,,,,
4937386,0.0,0,-0.001,0,0.0,0.0,0.0,0.0184013,0.345867,0.358791,-0.33187,-0.0144897,0.932576,-0.0706375,-0.0216126,-0.0249791,47.59840523,0,0.007,-0.073,-0.018,0.018,-122.83091098,128.46774396,3.19928479,0.0,81.7,24.6,24.8,0.903,unknown_ride_id,103,2025-09-17 01:22:17.386000+00:00,2025-09-16 18:22:17.386000-07:00,139.0,,,,,,,,,,,,
4937476,0.0,0,-0.001,0,0.0,0.0,0.0,0.0183839,0.345863,0.358826,-0.337473,-0.0159787,0.932588,0.062709,0.0475449,-0.107659,47.59840523,0,0.007,-0.073,-0.018,0.018,-122.83091098,128.46774396,3.19928479,0.0,81.7,24.6,24.8,0.903,unknown_ride_id,104,2025-09-17 01:22:17.476000+00:00,2025-09-16 18:22:17.476000-07:00,90.0,,,,,,,,,,,,
4937562,0.0,0,-0.001,0,0.0,0.0,0.0,0.0183361,0.345905,0.358848,-0.336689,-0.0120405,0.932586,-0.0645196,-0.0208989,0.0447494,47.59840523,0,0.007,-0.072,-0.018,0.018,-122.83091098,128.46774396,3.19928479,0.0,81.7,24.5,24.8,0.903,unknown_ride_id,105,2025-09-17 01:22:17.562000+00:00,2025-09-16 18:22:17.562000-07:00,86.0,,,,,,,,,,,,
4937655,0.0,0,-0.001,0,0.0,0.0,0.0,0.0183669,0.345898,0.35888,-0.334898,-0.0140692,0.932585,-0.134252,-0.0208363,0.0508669,47.59840523,0,0.007,-0.073,-0.018,0.018,-122.83091098,128.46774396,3.19928479,0.0,81.7,24.6,24.8,0.903,unknown_ride_id,106,2025-09-17 01:22:17.655000+00:00,2025-09-16 18:22:17.655000-07:00,93.0,,,,,,,,,,,,
4937747,0.0,0,-0.001,0,0.0,0.0,0.0,0.0184719,0.345874,0.35891,-0.334838,-0.0170473,0.932613,-0.0828731,0.0469564,-0.165152,47.59840523,0,0.007,-0.073,-0.018,0.018,-122.83091098,128.46774396,3.19928479,0.0,81.7,24.6,24.8,0.903,unknown_ride_id,107,2025-09-17 01:22:17.747000+00:00,2025-09-16 18:22:17.747000-07:00,92.0,,,,,,,,,,,,
4937835,0.0,0,-0.001,0,0.0,0.0,0.0,0.0184263,0.345889,0.35893,-0.333158,-0.0139806,0.932588,0.0749446,0.0489722,0.031798,47.59840523,0,0.007,-0.073,-0.018,0.018,-122.83091098,128.46774396,3.19928479,0.0,81.7,24.6,24.8,0.903,unknown_ride_id,108,2025-09-17 01:22:17.835000+00:00,2025-09-16 18:22:17.835000-07:00,88.0,,,,,,,,,,,,
4937935,0.0,0,-0.001,0,0.0,0.0,0.0,0.0183119,0.345922,0.358939,-0.335026,-0.0145721,0.932604,-0.0645196,-0.0908953,0.0454658,47.59840523,0,0.006,-0.074,-0.018,0.018,-122.83091098,128.46774396,3.19928479,0.0,81.7,24.6,24.8,0.903,unknown_ride_id,109,2025-09-17 01:22:17.935000+00:00,2025-09-16 18:22:17.935000-07:00,100.0,,,,,,,,,,,,
4938056,0.0,0,-0.001,0,0.0,0.0,0.0,0.0184006,0.345903,0.359013,-0.339998,-0.0156138,0.932604,-0.000905395,-0.0216752,-0.0310966,47.59840523,0,0.007,-0.073,-0.018,0.018,-122.83091098,128.46774396,3.19928479,0.0,81.7,24.6,24.8,0.903,unknown_ride_id,110,2025-09-17 01:22:18.056000+00:00,2025-09-16 18:22:18.056000-07:00,121.0,,,,,,,,,,,,
4938155,0.0,0,-0.001,0,0.0,0.0,0.0,0.0185097,0.34587,0.359084,-0.336169,-0.0155671,0.932608,-0.000905395,-0.0916715,-0.0303801,47.59840523,0,0.006,-0.073,-0.018,0.018,-122.83091098,128.46774396,3.19928479,0.0,81.7,24.6,24.8,0.903,unknown_ride_id,111,2025-09-17 01:22:18.155000+00:00,2025-09-16 18:22:18.155000-07:00,99.0,,,,,,,,,,,,
4938197,0.0,0,-0.001,0,0.0,0.0,0.0,0.0183331,0.345889,0.359075,-0.33883,-0.0155347,0.932573,-0.146487,0.0477327,-0.0893065,47.59840523,0,0.006,-0.074,-0.018,0.018,-122.83091098,128.46774396,3.19928479,0.0,81.7,24.6,24.8,0.903,unknown_ride_id,112,2025-09-17 01:22:18.197000+00:00,2025-09-16 18:22:18.197000-07:00,42.0,,,,,,,,,,,,
4938290,0.0,0,-0.001,0,0.0,0.0,0.0,0.0184009,0.345878,0.359145,-0.336314,-0.0165028,0.932536,-0.0706375,-0.0216126,-0.0249791,47.59840523,0,0.007,-0.072,-0.018,0.018,-122.83091098,128.46774396,3.19928479,0.0,81.7,24.6,24.8,0.903,unknown_ride_id,113,2025-09-17 01:22:18.290000+00:00,2025-09-16 18:22:18.290000-07:00,93.0,,,,,,,,,,,,
4938420,0.0,0,-0.001,0,0.0,0.0,0.0,0.0184668,0.345877,0.359182,-0.336527,-0.0140878,0.932496,-0.14037,0.0484464,-0.019578,47.59839767,0,0.006,-0.073,-0.018,0.018,-122.8309232,121.62693611,3.06066942,0.0,81.7,24.6,24.8,0.903,unknown_ride_id,114,2025-09-17 01:22:18.420000+00:00,2025-09-16 18:22:18.420000-07:00,130.0,,,,,,,,,,,,
4938509,0.0,0,-0.001,0,0.0,0.0,0.0,0.0183756,0.345858,0.359226,-0.340203,-0.0121076,0.932433,-0.0828731,-0.0930362,-0.16372,47.59839767,0,0.007,-0.072,-0.018,0.018,-122.8309232,121.62693611,3.06066942,0.0,81.7,24.6,24.8,0.903,unknown_ride_id,115,2025-09-17 01:22:18.509000+00:00,2025-09-16 18:22:18.509000-07:00,89.0,,,,,,,,,,,,
4938603,0.0,0,-0.001,0,0.0,0.0,0.0,0.0184558,0.345863,0.359323,-0.332143,-0.0154404,0.932417,-0.00702322,-0.0223888,-0.100825,47.59839767,0,0.007,-0.073,-0.018,0.018,-122.8309232,121.62693611,3.06066942,0.0,81.7,24.6,24.8,0.903,unknown_ride_id,116,2025-09-17 01:22:18.603000+00:00,2025-09-16 18:22:18.603000-07:00,94.0,,,,,,,,,,,,
4938695,0.0,0,-0.001,0,0.0,0.0,0.0,0.0184,0.34584,0.359355,-0.333627,-0.0154992,0.932475,0.202173,0.0474197,-0.119894,47.59839767,0,0.007,-0.073,-0.018,0.018,-122.8309232,121.62693611,3.06066942,0.0,81.7,24.6,24.8,0.903,unknown_ride_id,117,2025-09-17 01:22:18.695000+00:00,2025-09-16 18:22:18.695000-07:00,92.0,,,,,,,,,,,,
4938776,0.0,0,-0.001,0,0.0,0.0,0.0,0.0184177,0.345831,0.359396,-0.333388,-0.0168781,0.932551,-0.00702322,-0.0923852,-0.100109,47.59839767,0,0.007,-0.074,-0.018,0.018,-122.8309232,121.62693611,3.06066942,0.0,81.7,24.6,24.8,0.903,unknown_ride_id,118,2025-09-17 01:22:18.776000+00:00,2025-09-16 18:22:18.776000-07:00,81.0,,,,,,,,,,,,
4938867,0.0,0,-0.001,0,0.0,0.0,0.0,0.0185305,0.345875,0.359459,-0.3361,-0.016478,0.932605,-0.134252,-0.0208363,0.0508669,47.59839767,0,0.007,-0.073,-0.018,0.018,-122.8309232,121.62693611,3.06066942,0.0,81.7,24.6,24.8,0.903,unknown_ride_id,119,2025-09-17 01:22:18.867000+00:00,2025-09-16 18:22:18.867000-07:00,91.0,,,,,,,,,,,,
4938958,0.0,0,-0.001,0,0.0,0.0,0.0,0.0185402,0.345868,0.359499,-0.340945,-0.0145769,0.932633,0.0688268,-0.0217378,-0.0372141,47.59839767,0,0.007,-0.072,-0.018,0.018,-122.8309232,121.62693611,3.06066942,0.0,81.7,24.6,24.8,0.903,unknown_ride_id,120,2025-09-17 01:22:18.958000+00:00,2025-09-16 18:22:18.958000-07:00,91.0,,,,,,,,,,,,
4939048,0.0,0,-0.001,0,0.0,0.0,0.0,0.0184402,0.34593,0.359483,-0.339776,-0.0149857,0.932708,0.062709,-0.0224515,-0.106943,47.59839767,0,0.006,-0.073,-0.018,0.018,-122.8309232,121.62693611,3.06066942,0.0,81.7,24.6,24.8,0.903,unknown_ride_id,121,2025-09-17 01:22:19.048000+00:00,2025-09-16 18:22:19.048000-07:00,90.0,,,,,,,,,,,,
4939180,0.0,0,-0.001,0,0.0,0.0,0.0,0.0185177,0.345961,0.359579,-0.335802,-0.0174191,0.932706,-0.228455,-0.0236283,-0.22193,47.59839767,0,0.006,-0.073,-0.018,0.018,-122.8309232,121.62693611,3.06066942,0.0,81.7,24.6,24.8,0.903,unknown_ride_id,122,2025-09-17 01:22:19.180000+00:00,2025-09-16 18:22:19.180000-07:00,132.0,,,,,,,,,,,,
4939272,0.0,0,-0.001,0,0.0,0.0,0.0,0.018692,0.345964,0.359693,-0.335469,-0.0189585,0.932733,0.214409,-0.0911457,0.0209958,47.59839767,0,0.007,-0.073,-0.018,0.018,-122.8309232,121.62693611,3.06066942,0.0,81.7,24.6,24.8,0.903,unknown_ride_id,123,2025-09-17 01:22:19.272000+00:00,2025-09-16 18:22:19.272000-07:00,92.0,,,,,,,,,,,,
4939363,0.0,0,-0.001,0,0.0,0.0,0.0,0.0182306,0.346034,0.359575,-0.334267,-0.013134,0.932794,0.0871803,-0.0895932,0.172688,47.59839791,0,0.007,-0.074,-0.018,0.018,-122.83094382,129.57074942,3.16225243,0.0,81.7,24.6,24.8,0.903,unknown_ride_id,124,2025-09-17 01:22:19.363000+00:00,2025-09-16 18:22:19.363000-07:00,91.0,,,,,,,,,,,,
4939456,0.0,0,-0.001,0,0.0,0.0,0.0,0.0183605,0.34614,0.359654,-0.336749,-0.0186198,0.932854,-0.285952,0.39784,-0.0806535,47.59839791,0,0.007,-0.073,-0.018,0.018,-122.83094382,129.57074942,3.16225243,0.0,81.7,24.6,24.8,0.903,unknown_ride_id,125,2025-09-17 01:22:19.456000+00:00,2025-09-16 18:22:19.456000-07:00,93.0,,,,,,,,,,,,
4939549,0.0,0,-0.001,0,0.0,0.0,0.0,0.0184319,0.345939,0.359715,-0.339009,-0.0187999,0.932522,0.208291,0.188126,-0.0515983,47.59839791,0,0.007,-0.072,-0.018,0.018,-122.83094382,129.57074942,3.16225243,0.0,81.7,24.6,24.8,0.903,unknown_ride_id,126,2025-09-17 01:22:19.549000+00:00,2025-09-16 18:22:19.549000-07:00,93.0,,,,,,,,,,,,
4939638,0.0,0,-0.001,0,0.0,0.0,0.0,0.0178561,0.345944,0.35952,-0.331102,-0.0139122,0.932444,0.220527,-0.160428,0.0914407,47.59839791,0,0.007,-0.073,-0.018,0.018,-122.83094382,129.57074942,3.16225243,0.0,81.7,24.5,24.8,0.903,unknown_ride_id,127,2025-09-17 01:22:19.638000+00:00,2025-09-16 18:22:19.638000-07:00,89.0,,,,,,,,,,,,
4939726,0.0,0,-0.001,0,0.0,0.0,0.0,0.0181362,0.34584,0.359663,-0.332322,-0.0172417,0.932341,-0.513502,-0.234081,-0.265039,47.59839791,0,0.007,-0.073,-0.018,0.018,-122.83094382,129.57074942,3.16225243,0.0,81.7,24.6,24.8,0.903,unknown_ride_id,128,2025-09-17 01:22:19.726000+00:00,2025-09-16 18:22:19.726000-07:00,88.0,,,,,,,,,,,,
4939813,0.0,0,-0.001,0,0.0,0.0,0.0,0.0187698,0.345716,0.359918,-0.338232,-0.0183928,0.932218,0.0749446,-0.510998,0.0375292,47.59839791,0,0.007,-0.074,-0.018,0.018,-122.83094382,129.57074942,3.16225243,0.0,81.7,24.6,24.8,0.903,unknown_ride_id,129,2025-09-17 01:22:19.813000+00:00,2025-09-16 18:22:19.813000-07:00,87.0,,,,,,,,,,,,
4939904,0.0,0,-0.001,0,0.0,0.0,0.0,0.0180806,0.345843,0.359677,-0.33732,-0.0113097,0.932394,0.232762,-0.159001,0.230898,47.59839791,0,0.006,-0.072,-0.018,0.018,-122.83094382,129.57074942,3.16225243,0.0,81.7,24.6,24.8,0.903,unknown_ride_id,130,2025-09-17 01:22:19.904000+00:00,2025-09-16 18:22:19.904000-07:00,91.0,,,,,,,,,,,,
4939996,0.0,0,-0.001,0,0.0,0.0,0.0,0.0181811,0.345818,0.359729,-0.335043,-0.0167546,0.932472,-0.734934,0.114662,-0.389725,47.59839791,0,0.007,-0.073,-0.018,0.018,-122.83094382,129.57074942,3.16225243,0.0,81.7,24.6,24.8,0.903,unknown_ride_id,131,2025-09-17 01:22:19.996000+00:00,2025-09-16 18:22:19.996000-07:00,92.0,,,,,,,,,,,,
4940082,0.0,0,-0.001,0,0.0,0.0,0.0,0.019343,0.345718,0.360205,-0.332842,-0.0232724,0.932503,-0.152605,0.466997,-0.163333,47.59839791,0,0.007,-0.073,-0.018,0.018,-122.83094382,129.57074942,3.16225243,0.0,81.7,24.6,24.8,0.903,unknown_ride_id,132,2025-09-17 01:22:20.082000+00:00,2025-09-16 18:22:20.082000-07:00,86.0,,,,,,,,,,,,
4940173,0.0,0,-0.001,0,0.0,0.0,0.0,0.0183101,0.345287,0.359776,-0.335793,-0.0241354,0.932231,2.25256,-0.782871,0.833069,47.59839791,0,0.007,-0.074,-0.018,0.018,-122.83094382,129.57074942,3.16225243,0.0,81.7,24.6,24.8,0.903,unknown_ride_id,133,2025-09-17 01:22:20.173000+00:00,2025-09-16 18:22:20.173000-07:00,91.0,,,,,,,,,,,,
4940265,0.0,0,-0.001,0,0.0,0.0,0.0,0.0142161,0.346151,0.358338,-0.341713,0.020182,0.933156,1.01205,0.891683,0.292316,47.59839791,0,0.007,-0.073,-0.018,0.018,-122.83094382,129.57074942,3.16225243,0.0,81.7,24.6,24.8,0.903,unknown_ride_id,134,2025-09-17 01:22:20.265000+00:00,2025-09-16 18:22:20.265000-07:00,92.0,,,,,,,,,,,,
4940360,0.0,0,-0.001,0,0.0,0.0,0.0,0.0174395,0.345918,0.359578,-0.337994,-0.0241635,0.933037,-3.93774,0.311705,-1.65673,47.59836899,0,0.007,-0.073,-0.018,0.018,-122.83092369,124.96232095,2.89435863,0.0,81.7,24.6,24.8,0.903,unknown_ride_id,135,2025-09-17 01:22:20.360000+00:00,2025-09-16 18:22:20.360000-07:00,95.0,,,,,,,,,,,,
4940449,0.0,0,-0.001,0,0.0,0.0,0.0,0.022174,0.345905,0.361391,-0.332569,-0.0481844,0.933015,0.144677,-0.371068,0.0299789,47.59836899,0,0.007,-0.073,-0.018,0.018,-122.83092369,124.96232095,2.89435863,0.0,81.7,24.6,24.8,0.903,unknown_ride_id,136,2025-09-17 01:22:20.449000+00:00,2025-09-16 18:22:20.449000-07:00,89.0,,,,,,,,,,,,
4940531,0.0,0,-0.001,0,0.0,0.0,0.0,0.0191809,0.34579,0.360379,-0.342379,-0.00512526,0.932816,1.22737,-1.34767,0.366617,47.59836899,0,0.007,-0.074,-0.018,0.018,-122.83092369,124.96232095,2.89435863,0.0,81.7,24.6,24.8,0.903,unknown_ride_id,137,2025-09-17 01:22:20.531000+00:00,2025-09-16 18:22:20.531000-07:00,82.0,,,,,,,,,,,,
4940623,0.0,0,-0.005,0,0.0,0.0,0.0,0.0161657,0.3387,0.357416,-0.330832,-0.00979646,0.929565,3.383,-11.1788,4.21337,47.59836899,0,0.018,-0.151,-0.018,0.018,-122.83092369,124.96232095,2.89435863,0.0,81.7,24.6,24.8,0.903,unknown_ride_id,138,2025-09-17 01:22:20.623000+00:00,2025-09-16 18:22:20.623000-07:00,92.0,,,,,,,,,,,,
4940713,0.0,-100,0.0,0,0.42,0.03,0.44,0.00844323,0.299826,0.354625,-0.297484,0.0021741,0.918237,3.126,-36.0985,-2.46601,47.59836899,0,-0.008,-0.216,-0.018,0.018,-122.83092369,124.96232095,2.89435863,0.0,81.7,24.6,24.8,0.903,unknown_ride_id,139,2025-09-17 01:22:20.713000+00:00,2025-09-16 18:22:20.713000-07:00,90.0,,,,,,,,,,,,
4940806,-0.004,0,0.0,0,1.3,0.07,1.19,0.00529761,0.239746,0.357971,-0.249508,0.0127562,0.907915,0.131197,-34.6172,-1.37515,47.59836899,0,0.082,0.136,-0.028,0.028,-122.83092369,124.96232095,2.89435863,0.0,81.7,24.6,24.8,0.903,unknown_ride_id,140,2025-09-17 01:22:20.806000+00:00,2025-09-16 18:22:20.806000-07:00,93.0,,,,,,,,,,,,
4940891,0.0,0,0.0,0,0.61,0.55,0.24,0.00984346,0.186089,0.357972,-0.186772,-0.00655674,0.90564,-5.38863,-39.007,0.629801,47.59836899,0,0.079,0.137,-0.028,0.028,-122.83092369,124.96232095,2.89435863,0.0,81.7,24.6,24.8,0.903,unknown_ride_id,141,2025-09-17 01:22:20.891000+00:00,2025-09-16 18:22:20.891000-07:00,85.0,,,,,,,,,,,,
4941026,0.0,0,0.0,0,-0.09,0.65,-0.09,0.0164379,0.124702,0.356735,-0.0974756,-0.0192323,0.9081,-2.06964,-36.7816,-0.808537,47.59836899,0,0.079,0.137,-0.028,0.028,-122.83092369,124.96232095,2.89435863,0.0,81.7,24.6,24.8,0.903,unknown_ride_id,142,2025-09-17 01:22:21.026000+00:00,2025-09-16 18:22:21.026000-07:00,135.0,,,,,,,,,,,,
4941164,0.0,0,0.0,0,-0.59,0.72,-0.22,0.0128342,0.0535452,0.35883,-0.0255201,-0.0300006,0.926204,5.22045,-25.4278,0.473547,47.59836899,0,0.078,0.137,-0.028,0.028,-122.83092369,124.96232095,2.89435863,0.0,81.7,24.6,24.8,0.903,unknown_ride_id,143,2025-09-17 01:22:21.164000+00:00,2025-09-16 18:22:21.164000-07:00,138.0,,,,,,,,,,,,
4941262,0.0,95,0.0,0,-1.11,1.01,-0.38,0.0075456,0.016256,0.358111,0.00973891,0.0516567,0.942697,-3.26733,-16.413,-1.05247,47.59836899,0,-0.028,0.148,-0.028,0.028,-122.83092369,124.96232095,2.89435863,0.0,81.7,24.6,24.8,0.903,unknown_ride_id,144,2025-09-17 01:22:21.262000+00:00,2025-09-16 18:22:21.262000-07:00,98.0,,,,,,,,,,,,
4941343,0.105,-114,0.0,0,-0.47,0.7,-0.34,0.0213541,0.00683629,0.35605,0.0360142,-0.0319175,0.964198,-11.1042,3.37904,3.92999,47.59834119,0,0.057,0.143,-0.028,0.047,-122.83094303,118.81724912,2.96683812,0.0,81.7,24.6,24.8,0.903,unknown_ride_id,145,2025-09-17 01:22:21.343000+00:00,2025-09-16 18:22:21.343000-07:00,81.0,,,,,,,,,,,,
4941432,-0.109,0,0.0,0,1.02,0.6,0.82,0.0327236,0.0085507,0.349039,-0.0174264,0.0158417,0.981613,-3.29174,-0.275693,2.50896,47.59834119,0,-0.074,0.139,-0.037,0.056,-122.83094303,118.81724912,2.96683812,0.0,81.7,24.6,24.8,0.903,unknown_ride_id,146,2025-09-17 01:22:21.432000+00:00,2025-09-16 18:22:21.432000-07:00,89.0,,,,,,,,,,,,
4941566,0.0,0,0.0,0,1.01,0.83,0.5,0.0312316,0.00937007,0.352241,-0.016855,-0.0622247,0.9937,5.03199,0.284234,-4.34079,47.59834119,0,-0.075,0.14,-0.037,0.056,-122.83094303,118.81724912,2.96683812,0.0,81.7,24.6,24.8,0.903,unknown_ride_id,147,2025-09-17 01:22:21.566000+00:00,2025-09-16 18:22:21.566000-07:00,134.0,,,,,,,,,,,,
4941655,0.0,0,0.0,0,-1.04,1.07,-0.22,0.0136933,0.0177419,0.358905,0.0100967,-0.0398957,1.0064,8.46484,11.0417,0.237268,47.59834119,0,-0.076,0.142,-0.037,0.056,-122.83094303,118.81724912,2.96683812,0.0,81.7,24.6,24.8,0.903,unknown_ride_id,148,2025-09-17 01:22:21.655000+00:00,2025-09-16 18:22:21.655000-07:00,89.0,,,,,,,,,,,,
4941747,0.0,0,0.0,0,-1.12,1.09,-0.27,0.00250735,0.0477774,0.35699,-0.00567316,0.0149488,1.01681,3.08079,26.7321,1.18151,47.59834119,0,-0.075,0.142,-0.037,0.056,-122.83094303,118.81724912,2.96683812,0.0,81.7,24.6,24.8,0.903,unknown_ride_id,149,2025-09-17 01:22:21.747000+00:00,2025-09-16 18:22:21.747000-07:00,92.0,,,,,,,,,,,,
4941837,0.0,0,0.0,0,-1.07,1.06,-0.16,0.00215628,0.0960671,0.35482,-0.0654766,0.0336324,1.02625,-4.0111,35.8323,1.14842,47.59834119,0,-0.075,0.142,-0.037,0.056,-122.83094303,118.81724912,2.96683812,0.0,81.7,24.6,24.8,0.903,unknown_ride_id,150,2025-09-17 01:22:21.837000+00:00,2025-09-16 18:22:21.837000-07:00,90.0,,,,,,,,,,,,
4941929,0.0,0,0.0,0,-0.42,1.02,-0.02,0.0102681,0.153119,0.354134,-0.142278,-0.0140884,1.03208,-5.60639,38.7664,0.555633,47.59834119,0,-0.075,0.142,-0.037,0.056,-122.83094303,118.81724912,2.96683812,0.0,81.7,24.6,24.8,0.903,unknown_ride_id,151,2025-09-17 01:22:21.929000+00:00,2025-09-16 18:22:21.929000-07:00,92.0,,,,,,,,,,,,
4942062,0.0,0,0.0,0,0.92,0.95,0.13,0.0160846,0.213289,0.355574,-0.214175,-0.0227707,1.03201,-1.38456,36.5025,-1.75924,47.59834119,0,-0.075,0.141,-0.037,0.056,-122.83094303,118.81724912,2.96683812,0.0,81.7,24.6,24.8,0.903,unknown_ride_id,152,2025-09-17 01:22:22.062000+00:00,2025-09-16 18:22:22.062000-07:00,133.0,,,,,,,,,,,,
4942201,0.0,0,0.0,0,0.0,1.0,0.01,0.0111066,0.286815,0.356946,-0.293304,-0.00514591,1.0183,4.12921,26.3733,0.320204,47.59834119,0,-0.075,0.141,-0.037,0.056,-122.83094303,118.81724912,2.96683812,0.0,81.7,24.6,24.8,0.903,unknown_ride_id,153,2025-09-17 01:22:22.201000+00:00,2025-09-16 18:22:22.201000-07:00,139.0,,,,,,,,,,,,
4942292,0.0,0,0.0,0,0.98,0.79,0.69,0.00572702,0.338824,0.354042,-0.365655,0.207923,0.994257,-14.2507,-1.55168,0.95372,47.59834119,0,-0.075,0.139,-0.037,0.056,-122.83094303,118.81724912,2.96683812,0.0,81.7,24.6,24.8,0.903,unknown_ride_id,154,2025-09-17 01:22:22.292000+00:00,2025-09-16 18:22:22.292000-07:00,91.0,,,,,,,,,,,,
4942384,0.0,0,0.0,0,-0.39,1.06,-0.15,0.0120624,0.337256,0.355712,-0.306984,0.0077743,0.969118,-4.74886,1.20081,-3.70284,47.59835585,0,-0.075,0.142,-0.037,0.056,-122.83101101,113.65877279,2.73354101,0.0,81.7,24.6,24.8,0.903,unknown_ride_id,155,2025-09-17 01:22:22.384000+00:00,2025-09-16 18:22:22.384000-07:00,92.0,,,,,,,,,,,,
4942471,0.0,0,0.0,0,0.39,0.93,0.35,0.018651,0.337014,0.360301,-0.326923,-0.0681614,0.950378,-0.969847,-0.674504,-2.2584,47.59835585,0,-0.074,0.141,-0.037,0.056,-122.83101101,113.65877279,2.73354101,0.0,81.7,24.6,24.8,0.903,unknown_ride_id,156,2025-09-17 01:22:22.471000+00:00,2025-09-16 18:22:22.471000-07:00,87.0,,,,,,,,,,,,
4942565,0.0,0,0.0,0,2.14,0.86,1.96,0.0211338,0.328054,0.361863,-0.364221,-0.0594647,0.93357,0.950874,-17.7345,-0.214406,47.59835585,0,-0.076,0.138,-0.037,0.056,-122.83101101,113.65877279,2.73354101,0.0,81.7,24.6,24.8,0.903,unknown_ride_id,157,2025-09-17 01:22:22.565000+00:00,2025-09-16 18:22:22.565000-07:00,94.0,,,,,,,,,,,,
4942648,0.0,0,0.0,0,1.72,1.24,1.15,0.0158063,0.284397,0.36013,-0.309142,-0.00152034,0.91336,4.8412,-36.2105,0.265818,47.59835585,0,-0.076,0.139,-0.037,0.056,-122.83101101,113.65877279,2.73354101,0.0,81.7,24.6,24.8,0.903,unknown_ride_id,158,2025-09-17 01:22:22.648000+00:00,2025-09-16 18:22:22.648000-07:00,83.0,,,,,,,,,,,,
4942736,0.0,0,0.0,0,1.21,1.14,0.38,0.0072171,0.227117,0.360021,-0.223036,0.00868324,0.899189,3.8368,-36.7811,-0.764579,47.59835585,0,-0.076,0.14,-0.037,0.056,-122.83101101,113.65877279,2.73354101,0.0,81.7,24.6,24.8,0.903,unknown_ride_id,159,2025-09-17 01:22:22.736000+00:00,2025-09-16 18:22:22.736000-07:00,88.0,,,,,,,,,,,,
4942832,0.0,-8,0.0,0,1.08,0.61,0.95,0.00509344,0.170482,0.360862,-0.148282,0.00785576,0.894864,-2.25193,-36.6464,-1.28583,47.59835585,0,-0.125,0.069,-0.037,0.056,-122.83101101,113.65877279,2.73354101,0.0,81.7,24.6,24.8,0.903,unknown_ride_id,160,2025-09-17 01:22:22.832000+00:00,2025-09-16 18:22:22.832000-07:00,96.0,,,,,,,,,,,,
4942919,-0.005,0,0.0,0,0.98,0.05,1.75,0.0110892,0.110565,0.361765,-0.0872763,-0.0404233,0.897807,-2.90886,-38.7328,0.0580634,47.59835585,0,-0.159,0.004,-0.047,0.065,-122.83101101,113.65877279,2.73354101,0.0,81.7,24.6,24.8,0.903,unknown_ride_id,161,2025-09-17 01:22:22.919000+00:00,2025-09-16 18:22:22.919000-07:00,87.0,,,,,,,,,,,,
4943005,0.0,0,0.0,0,0.98,0.3,1.59,0.0125804,0.0516092,0.359997,-0.0272766,-0.00437369,0.906334,0.987582,-35.7892,0.388797,47.59835585,0,-0.159,0.005,-0.047,0.065,-122.83101101,113.65877279,2.73354101,0.0,81.7,24.6,24.8,0.903,unknown_ride_id,162,2025-09-17 01:22:23.005000+00:00,2025-09-16 18:22:23.005000-07:00,86.0,,,,,,,,,,,,
4943097,0.0,0,0.0,0,0.72,0.52,0.88,0.0144074,-0.00826266,0.363423,0.0621737,-0.0283998,0.931908,-6.7613,-9.91745,-2.49894,47.59835585,0,-0.16,0.007,-0.047,0.065,-122.83101101,113.65877279,2.73354101,0.0,81.7,24.6,24.8,0.903,unknown_ride_id,163,2025-09-17 01:22:23.097000+00:00,2025-09-16 18:22:23.097000-07:00,92.0,,,,,,,,,,,,
4943190,0.0,0,0.0,0,0.93,0.42,1.41,0.0281066,-0.0120783,0.361072,0.031699,-0.0541248,0.957181,-6.43456,2.6828,4.30042,47.59835585,0,-0.16,0.005,-0.047,0.065,-122.83101101,113.65877279,2.73354101,0.0,81.7,24.6,24.8,0.903,unknown_ride_id,164,2025-09-17 01:22:23.190000+00:00,2025-09-16 18:22:23.190000-07:00,93.0,,,,,,,,,,,,
4943320,0.0,0,0.0,0,0.78,0.5,0.94,0.0283415,0.00687545,0.357451,0.0255677,-0.0164968,0.988774,5.69997,18.4256,-3.32017,47.59834429,0,-0.16,0.007,-0.047,0.065,-122.83110041,114.88993656,3.69736838,0.0,81.7,24.6,24.8,0.903,unknown_ride_id,165,2025-09-17 01:22:23.320000+00:00,2025-09-16 18:22:23.320000-07:00,130.0,,,,,,,,,,,,
4943415,0.0,0,0.0,0,0.54,0.58,0.38,0.0151135,0.048728,0.365982,0.000749215,-0.0477651,1.00956,10.4662,35.5033,-3.63205,47.59834429,0,-0.16,0.008,-0.047,0.065,-122.83110041,114.88993656,3.69736838,0.0,81.7,24.6,24.8,0.903,unknown_ride_id,166,2025-09-17 01:22:23.415000+00:00,2025-09-16 18:22:23.415000-07:00,95.0,,,,,,,,,,,,
4943501,0.0,0,0.0,0,0.75,0.51,0.87,0.00225794,0.111219,0.367501,-0.0827558,-0.00407154,1.0268,5.03697,43.8881,1.67757,47.59834429,0,-0.16,0.007,-0.047,0.065,-122.83110041,114.88993656,3.69736838,0.0,81.7,24.6,24.8,0.903,unknown_ride_id,167,2025-09-17 01:22:23.501000+00:00,2025-09-16 18:22:23.501000-07:00,86.0,,,,,,,,,,,,
4943594,0.0,0,0.0,0,0.92,0.44,1.4,-0.00185171,0.178982,0.361923,-0.192955,0.0362351,1.0355,-0.437599,39.9155,3.39319,47.59834429,0,-0.16,0.005,-0.047,0.065,-122.83110041,114.88993656,3.69736838,0.0,81.7,24.6,24.8,0.903,unknown_ride_id,168,2025-09-17 01:22:23.594000+00:00,2025-09-16 18:22:23.594000-07:00,93.0,,,,,,,,,,,,
4943682,0.0,0,0.0,0,0.94,0.49,1.33,-0.0015133,0.236131,0.359306,-0.25866,0.0444092,1.03341,-1.58396,33.1523,-0.793914,47.59834429,0,-0.16,0.005,-0.047,0.065,-122.83110041,114.88993656,3.69736838,0.0,81.7,24.6,24.8,0.903,unknown_ride_id,169,2025-09-17 01:22:23.682000+00:00,2025-09-16 18:22:23.682000-07:00,88.0,,,,,,,,,,,,
4943771,0.0,0,0.0,0,0.98,0.54,1.37,0.00279964,0.281979,0.363509,-0.299854,-0.00169413,1.02281,-2.75598,24.0308,-2.84645,47.59834429,0,-0.16,0.006,-0.047,0.065,-122.83110041,114.88993656,3.69736838,0.0,81.7,24.6,24.8,0.903,unknown_ride_id,170,2025-09-17 01:22:23.771000+00:00,2025-09-16 18:22:23.771000-07:00,89.0,,,,,,,,,,,,
4943861,0.0,0,0.0,0,0.84,0.53,1.07,0.00846718,0.313314,0.366162,-0.328109,-0.0379309,1.00668,-1.89223,17.9763,0.653363,47.59834429,0,-0.16,0.006,-0.047,0.065,-122.83110041,114.88993656,3.69736838,0.0,81.7,24.6,24.8,0.903,unknown_ride_id,171,2025-09-17 01:22:23.861000+00:00,2025-09-16 18:22:23.861000-07:00,90.0,,,,,,,,,,,,
4943996,0.0,0,0.0,0,0.88,0.57,1.26,0.010842,0.334932,0.365244,-0.280451,-0.0363627,0.988197,2.11553,-2.75056,0.0922321,47.59834429,0,-0.161,0.006,-0.047,0.065,-122.83110041,114.88993656,3.69736838,0.0,81.7,24.6,24.8,0.903,unknown_ride_id,172,2025-09-17 01:22:23.996000+00:00,2025-09-16 18:22:23.996000-07:00,135.0,,,,,,,,,,,,
4944093,0.0,0,0.0,0,0.56,0.48,0.69,0.0161245,0.336408,0.367432,-0.336356,-0.0134964,0.956026,-1.44817,-0.59473,-1.3037,47.59834429,0,-0.16,0.007,-0.047,0.065,-122.83110041,114.88993656,3.69736838,0.0,81.7,24.6,24.8,0.903,unknown_ride_id,173,2025-09-17 01:22:24.093000+00:00,2025-09-16 18:22:24.093000-07:00,97.0,,,,,,,,,,,,
4944179,0.0,0,0.0,0,0.76,0.52,0.87,0.0204325,0.336576,0.369041,-0.330122,-0.040232,0.940982,-0.398509,-0.0970678,-0.557621,47.59834429,0,-0.16,0.007,-0.047,0.065,-122.83110041,114.88993656,3.69736838,0.0,81.7,24.6,24.8,0.903,unknown_ride_id,174,2025-09-17 01:22:24.179000+00:00,2025-09-16 18:22:24.179000-07:00,86.0,,,,,,,,,,,,
4944266,0.0,0,0.0,0,0.73,0.51,0.87,0.0195931,0.336724,0.36872,-0.340629,-0.018989,0.930589,1.74608,0.335368,0.655243,47.59834429,0,-0.16,0.007,-0.047,0.065,-122.83110041,114.88993656,3.69736838,0.0,81.7,24.6,24.8,0.903,unknown_ride_id,175,2025-09-17 01:22:24.266000+00:00,2025-09-16 18:22:24.266000-07:00,87.0,,,,,,,,,,,,
4944364,0.0,0,0.0,0,0.73,0.51,0.88,0.0172962,0.337056,0.367898,-0.341183,0.0046549,0.923926,-0.000905395,0.0483212,-0.031813,47.59831776,0,-0.16,0.007,-0.047,0.065,-122.8310556,109.35849086,3.17474103,0.0,81.7,24.6,24.8,0.903,unknown_ride_id,176,2025-09-17 01:22:24.364000+00:00,2025-09-16 18:22:24.364000-07:00,98.0,,,,,,,,,,,,
4944450,0.0,0,0.0,0,0.74,0.51,0.87,0.0183854,0.337488,0.368427,-0.339811,-0.0149589,0.920259,-0.968601,-0.657965,-0.642406,47.59831776,0,-0.16,0.007,-0.047,0.065,-122.8310556,109.35849086,3.17474103,0.0,81.7,24.6,24.8,0.903,unknown_ride_id,177,2025-09-17 01:22:24.450000+00:00,2025-09-16 18:22:24.450000-07:00,86.0,,,,,,,,,,,,
4944540,0.0,0,0.0,0,0.71,0.51,0.87,0.0184448,0.337155,0.368588,-0.338958,-0.0114436,0.918611,-1.27076,0.89589,0.703379,47.59831776,0,-0.16,0.007,-0.047,0.065,-122.8310556,109.35849086,3.17474103,0.0,81.7,24.6,24.8,0.903,unknown_ride_id,178,2025-09-17 01:22:24.540000+00:00,2025-09-16 18:22:24.540000-07:00,90.0,,,,,,,,,,,,
4944636,0.0,0,0.0,0,0.77,0.52,0.87,0.0178855,0.337383,0.368218,-0.331793,0.00569762,0.918604,-1.9265,-0.514955,-0.349009,47.59831776,0,-0.161,0.008,-0.047,0.065,-122.8310556,109.35849086,3.17474103,0.0,81.7,24.6,24.8,0.903,unknown_ride_id,179,2025-09-17 01:22:24.636000+00:00,2025-09-16 18:22:24.636000-07:00,96.0,,,,,,,,,,,,
4944721,0.0,0,0.0,0,0.83,0.52,0.89,0.0218108,0.337316,0.369658,-0.329951,-0.00938612,0.919715,-2.60303,-0.660093,-0.850346,47.59831776,0,-0.161,0.009,-0.047,0.065,-122.8310556,109.35849086,3.17474103,0.0,81.7,24.6,24.8,0.903,unknown_ride_id,180,2025-09-17 01:22:24.721000+00:00,2025-09-16 18:22:24.721000-07:00,85.0,,,,,,,,,,,,
4944805,0.0,0,0.0,0,0.84,0.52,0.93,0.0264895,0.337099,0.37146,-0.334599,-0.0242819,0.921471,-2.84282,-0.523481,-1.18207,47.59831776,0,-0.161,0.009,-0.047,0.065,-122.8310556,109.35849086,3.17474103,0.0,81.7,24.6,24.8,0.903,unknown_ride_id,181,2025-09-17 01:22:24.805000+00:00,2025-09-16 18:22:24.805000-07:00,84.0,,,,,,,,,,,,
4944897,0.0,0,0.001,0,0.22,0.15,0.26,0.0292624,0.336621,0.372652,-0.328015,-0.0368297,0.9234,0.062709,0.467523,-0.111957,47.59831776,0,-0.068,0.061,-0.047,0.065,-122.8310556,109.35849086,3.17474103,0.0,81.7,24.6,24.7,0.903,unknown_ride_id,182,2025-09-17 01:22:24.897000+00:00,2025-09-16 18:22:24.897000-07:00,92.0,,,,,,,,,,,,
4945034,0.0,0,0.001,0,0.0,0.0,0.0,0.0273026,0.337243,0.37216,-0.33662,-0.0222229,0.926053,2.11309,0.267199,0.834558,47.59831776,0,-0.006,0.073,-0.047,0.065,-122.8310556,109.35849086,3.17474103,0.0,81.7,24.6,24.7,0.903,unknown_ride_id,183,2025-09-17 01:22:25.034000+00:00,2025-09-16 18:22:25.034000-07:00,137.0,,,,,,,,,,,,
