ms_today;input_voltage;temp_mos_max;temp_mos_1;temp_mos_2;temp_mos_3;temp_motor;current_motor;current_in;d_axis_current;q_axis_current;erpm;duty_cycle;amp_hours_used;amp_hours_charged;watt_hours_used;watt_hours_charged;tachometer;tachometer_abs;encoder_position;fault_code;vesc_id;d_axis_voltage;q_axis_voltage;ms_today_setup;amp_hours_setup;amp_hours_charged_setup;watt_hours_setup;watt_hours_charged_setup;battery_level;battery_wh_tot;current_in_setup;current_motor_setup;speed_meters_per_sec;tacho_meters;tacho_abs_meters;num_vescs;ms_today_imu;roll;pitch;yaw;accX;accY;accZ;gyroX;gyroY;gyroZ;gnss_posTime;gnss_lat;gnss_lon;gnss_alt;gnss_gVel;gnss_vVel;gnss_hAcc;gnss_vAcc;
74775492;81.2;28.9;22.2;0;29;31.8;0.01;0;0.04;-0.01;0;0.001;0.5864;0.1513;46.1994;12.5592;219824;221024;295.2;0;1;-0.024;-0.006;74775313;0.5864;0.1513;46.1994;12.5592;0.87;547.303;0;0;0;2071.79;2083.1;1;74731215;0.0771008;0.294474;-2.05104;-0.289883;-0.0749009;0.947631;-0.0461662;-0.0887543;0.254651;74773999;47.59970308;-122.83272404;114.92099579;0.00000000;0.00000000;4.07750034;3.40514898;
74775591;81.2;28.9;22.2;0;29;31.8;0;0;0;0;0;0.001;0.5864;0.1513;46.1994;12.5592;219824;221024;295.2;0;1;0.062;0.041;74775493;0.5864;0.1513;46.1994;12.5592;0.87;547.303;0;0;0;2071.79;2083.1;1;74775498;0.0565538;0.295636;-1.98135;-0.286617;-0.0576693;0.949628;-0.134252;0.119156;0.0494341;74774999;47.59970458;-122.83272754;114.18449890;0.00000000;0.00000000;4.08479738;3.33380461;
74775674;81.2;28.9;22.2;0;28.9;31.8;0;0;0;0;0;0.001;0.5864;0.1513;46.1994;12.5592;219824;221024;295.2;0;1;0.062;0.041;74775592;0.5864;0.1513;46.1994;12.5592;0.87;547.303;0;0;0;2071.79;2083.1;1;74775592;0.0557377;0.296775;-1.98184;-0.289875;-0.062872;0.949924;0.948437;0.68247;0.370311;74774999;47.59970458;-122.83272754;114.18449890;0.00000000;0.00000000;4.08479738;3.33380461;
74775767;81.2;28.9;22.2;0;28.9;31.8;0;0;0;0;0;0.001;0.5864;0.1513;46.1994;12.5592;219824;221024;295.2;0;1;0.062;0.041;74775674;0.5864;0.1513;46.1994;12.5592;0.87;547.303;0;0;0;2071.79;2083.1;1;74775686;0.0546;0.297224;-1.98232;-0.290753;-0.0520105;0.949585;0.16303;0.0510506;0.234866;74774999;47.59970458;-122.83272754;114.18449890;0.00000000;0.00000000;4.08479738;3.33380461;
74775855;81.2;28.9;22.3;0;28.9;31.8;0;0;0;0;0;0.001;0.5864;0.1513;46.1994;12.5592;219824;221024;295.2;0;1;0.063;0.041;74775854;0.5864;0.1513;46.1994;12.5592;0.87;547.303;0;0;0;2071.79;2083.1;1;74775768;0.0545437;0.297369;-1.98253;-0.291956;-0.0592989;0.94921;0.0749446;0.188965;0.0303652;74774999;47.59970458;-122.83272754;114.18449890;0.00000000;0.00000000;4.08479738;3.33380461;
74775946;81.2;28.9;22.1;0;28.9;31.8;0;0;0;0;0;0.001;0.5864;0.1513;46.1994;12.5592;219824;221024;295.2;0;1;0.062;0.041;74775854;0.5864;0.1513;46.1994;12.5592;0.87;547.303;0;0;0;2071.79;2083.1;1;74775856;0.0544929;0.297453;-1.98281;-0.284323;-0.0548739;0.948918;0.0871803;0.120396;0.170539;74774999;47.59970458;-122.83272754;114.18449890;0.00000000;0.00000000;4.08479738;3.33380461;
74776092;81.2;28.9;22.2;0;28.8;31.8;0;0;0;0;0;0.001;0.5864;0.1513;46.1994;12.5592;219824;221024;295.2;0;1;0.062;0.041;74775946;0.5864;0.1513;46.1994;12.5592;0.87;547.303;0;0;0;2071.79;2083.1;1;74775947;0.0545768;0.297414;-1.98303;-0.292587;-0.0548665;0.948628;-0.128134;0.0498737;0.119879;74774999;47.59970458;-122.83272754;114.18449890;0.00000000;0.00000000;4.08479738;3.33380461;
74776185;81.2;28.9;22.1;0;28.9;31.8;0;0;0;0;0;0.001;0.5864;0.1513;46.1994;12.5592;219824;221024;295.2;0;1;0.062;0.041;74776093;0.5864;0.1513;46.1994;12.5592;0.87;547.303;0;0;0;2071.79;2083.1;1;74776094;0.0550139;0.29703;-1.98332;-0.294728;-0.0539688;0.948182;0.0174481;-0.439512;0.182387;74774999;47.59970458;-122.83272754;114.18449890;0.00000000;0.00000000;4.08479738;3.33380461;
74776264;81.2;28.9;22.2;0;29;31.8;0;0;0;0;0;0.001;0.5864;0.1513;46.1994;12.5592;219824;221024;295.2;0;1;0.062;0.04;74776186;0.5864;0.1513;46.1994;12.5592;0.87;547.303;0;0;0;2071.79;2083.1;1;74776217;0.0548998;0.296229;-1.98373;-0.295546;-0.0563327;0.94778;0.0113302;-0.230237;0.11051;74774999;47.59970458;-122.83272754;114.18449890;0.00000000;0.00000000;4.08479738;3.33380461;
74776356;81.2;28.9;22.2;0;28.9;31.8;0;0;0;0;0;0.001;0.5864;0.1513;46.1994;12.5592;219824;221024;295.2;0;1;0.062;0.041;74776355;0.5864;0.1513;46.1994;12.5592;0.87;547.303;0;0;0;2071.79;2083.1;1;74776309;0.0550451;0.295825;-1.98396;-0.289261;-0.0513483;0.947908;0.0113302;-0.230237;0.11051;74774999;47.59970458;-122.83272754;114.18449890;0.00000000;0.00000000;4.08479738;3.33380461;
74776442;81.2;28.9;22.2;0;28.9;31.8;0;0;0;0;0;0.001;0.5864;0.1513;46.1994;12.5592;219824;221024;295.2;0;1;0.062;0.041;74776355;0.5864;0.1513;46.1994;12.5592;0.87;547.303;0;0;0;2071.79;2083.1;1;74776398;0.0551662;0.29566;-1.98418;-0.289585;-0.0529072;0.948304;0.0174481;-0.0895306;0.178805;74774999;47.59970458;-122.83272754;114.18449890;0.00000000;0.00000000;4.08479738;3.33380461;
74776531;81.2;28.9;22.2;0;28.8;31.8;0;0;0;0;0;0.001;0.5864;0.1513;46.1994;12.5592;219824;221024;295.2;0;1;0.062;0.041;74776443;0.5864;0.1513;46.1994;12.5592;0.87;547.303;0;0;0;2071.79;2083.1;1;74776486;0.0553671;0.295543;-1.98438;-0.289551;-0.0496017;0.9403;-0.203984;-0.370755;0.0605664;74774999;47.59970458;-122.83272754;114.18449890;0.00000000;0.00000000;4.08479738;3.33380461;
74776713;81.2;28.9;22.1;0;28.8;31.8;0;0;0;0;0;0.001;0.5864;0.1513;46.1994;12.5592;219824;221024;295.2;0;1;0.062;0.04;74776626;0.5864;0.1513;46.1994;12.5592;0.87;547.303;0;0;0;2071.79;2083.1;1;74776625;0.0559505;0.294782;-1.98452;-0.286259;-0.0576847;0.948545;-0.134252;-0.300822;0.0537325;74775999;47.59970273;-122.83273462;113.27616614;0.00000000;0.00000000;3.91601706;3.33700156;
74776854;81.2;28.9;22.3;0;28.9;31.8;0;0;0;0;0;0.001;0.5864;0.1513;46.1994;12.5592;219824;221024;295.2;0;1;0.062;0.04;74776714;0.5864;0.1513;46.1994;12.5592;0.87;547.303;0;0;0;2071.79;2083.1;1;74776756;0.0562753;0.294312;-1.98494;-0.28706;-0.0547361;0.949131;-0.134252;-0.230825;0.0530161;74775999;47.59970273;-122.83273462;113.27616614;0.00000000;0.00000000;3.91601706;3.33700156;
74776990;81.2;28.9;22;0;28.9;31.8;0;0;0;0;0;0.001;0.5864;0.1513;46.1994;12.5592;219824;221024;295.2;0;1;0.062;0.04;74776856;0.5864;0.1513;46.1994;12.5592;0.87;547.303;0;0;0;2071.79;2083.1;1;74776857;0.0563052;0.294347;-1.9852;-0.285133;-0.0578963;0.949576;0.0174481;-0.29952;0.180955;74775999;47.59970273;-122.83273462;113.27616614;0.00000000;0.00000000;3.91601706;3.33700156;
74777071;81.2;28.9;22.1;0;28.9;31.8;0;0;0;0;0;0.001;0.5864;0.1513;46.1994;12.5592;219824;221024;295.2;0;1;0.062;0.04;74777070;0.5864;0.1513;46.1994;12.5592;0.87;547.303;0;0;0;2071.79;2083.1;1;74776992;0.0564923;0.293686;-1.98558;-0.288604;-0.0540545;0.949572;-0.273716;-0.440689;0.0674003;74775999;47.59970273;-122.83273462;113.27616614;0.00000000;0.00000000;3.91601706;3.33700156;
74777205;81.2;28.9;22.1;0;28.9;31.8;0;0;0;0;0;0.001;0.5864;0.1513;46.1994;12.5592;219824;221024;295.2;0;1;0.062;0.04;74777205;0.5864;0.1513;46.1994;12.5592;0.87;547.303;0;0;0;2071.79;2083.1;1;74777072;0.0569979;0.292562;-1.98577;-0.286984;-0.0543534;0.94918;-0.495148;-0.511925;-0.0529877;74775999;47.59970273;-122.83273462;113.27616614;0.00000000;0.00000000;3.91601706;3.33700156;
74777303;81.2;28.9;22;0;28.9;31.8;0;0;0;0;0;0.001;0.5864;0.1513;46.1994;12.5592;219824;221024;295.2;0;1;0.063;0.041;74777205;0.5864;0.1513;46.1994;12.5592;0.87;547.303;0;0;0;2071.79;2083.1;1;74777207;0.0590807;0.291208;-1.98563;-0.284613;-0.0635769;0.949246;-0.558763;-0.511149;0.0228582;74775999;47.59970273;-122.83273462;113.27616614;0.00000000;0.00000000;3.91601706;3.33700156;
74777394;81.2;28.9;22.1;0;28.9;31.8;0;0;0;0;0;0.001;0.5864;0.1513;46.1994;12.5592;219824;221024;295.2;0;1;0.062;0.041;74777393;0.5864;0.1513;46.1994;12.5592;0.87;547.303;0;0;0;2071.79;2083.1;1;74777304;0.059242;0.290738;-1.98586;-0.285406;-0.0549431;0.949708;0.0296837;-0.1581;0.318979;74775999;47.59970273;-122.83273462;113.27616614;0.00000000;0.00000000;3.91601706;3.33700156;
74777481;81.2;28.9;22;0;28.9;31.8;0;0;0;0;0;0.001;0.5864;0.1513;46.1994;12.5592;219824;221024;295.2;0;1;0.062;0.041;74777393;0.5864;0.1513;46.1994;12.5592;0.87;547.303;0;0;0;2071.79;2083.1;1;74777395;0.0593359;0.289983;-1.98613;-0.281474;-0.0570957;0.949836;0.150795;-0.440351;0.100424;74775999;47.59970273;-122.83273462;113.27616614;0.00000000;0.00000000;3.91601706;3.33700156;
74777564;81.2;28.9;22.1;0;28.9;31.8;0;0;0;0;0;0.001;0.5864;0.1513;46.1994;12.5592;219824;221024;295.2;0;1;0.062;0.041;74777482;0.5864;0.1513;46.1994;12.5592;0.87;547.303;0;0;0;2071.79;2083.1;1;74777483;0.0590401;0.290052;-1.9865;-0.287495;-0.056365;0.950546;0.23888;0.191694;0.297044;74775999;47.59970273;-122.83273462;113.27616614;0.00000000;0.00000000;3.91601706;3.33700156;
74777658;81.2;28.9;22;0;28.8;31.8;0;0;0;0;0;0.001;0.5864;0.1513;46.1994;12.5592;219824;221024;295.2;0;1;0.062;0.041;74777572;0.5864;0.1513;46.1994;12.5592;0.87;547.303;0;0;0;2071.79;2083.1;1;74777573;0.0587559;0.289956;-1.98684;-0.284195;-0.0607147;0.950851;0.302494;-0.369053;0.226929;74776999;47.59970137;-122.83273673;112.84768384;0.00000000;0.00000000;3.76863337;3.22370696;
74777747;81.2;28.9;22.2;0;28.9;31.8;0;0;0;0;0;0.001;0.5864;0.1513;46.1994;12.5592;219824;221024;295.2;0;1;0.062;0.041;74777658;0.5864;0.1513;46.1994;12.5592;0.87;547.303;0;0;0;2071.79;2083.1;1;74777659;0.0578099;0.289938;-1.98732;-0.283393;-0.0539038;0.951155;0.593659;0.262091;0.335469;74776999;47.59970137;-122.83273673;112.84768384;0.00000000;0.00000000;3.76863337;3.22370696;
74777881;81.2;28.9;22.2;0;28.9;31.8;0;0;0;0;0;0.001;0.5864;0.1513;46.1994;12.5592;219824;221024;295.2;0;1;0.062;0.041;74777749;0.5864;0.1513;46.1994;12.5592;0.87;547.303;0;0;0;2071.79;2083.1;1;74777749;0.0573421;0.289996;-1.98768;-0.284826;-0.0557942;0.951317;0.0235659;-0.0188206;0.247817;74776999;47.59970137;-122.83273673;112.84768384;0.00000000;0.00000000;3.76863337;3.22370696;
74777968;81.2;28.9;22.1;0;28.9;31.8;0;0;0;0;0;0.001;0.5864;0.1513;46.1994;12.5592;219824;221024;295.2;0;1;0.062;0.041;74777882;0.5864;0.1513;46.1994;12.5592;0.87;547.303;0;0;0;2071.79;2083.1;1;74777883;0.0571591;0.290248;-1.98812;-0.28121;-0.0513806;0.951547;0.0994159;-0.0181695;0.311428;74776999;47.59970137;-122.83273673;112.84768384;0.00000000;0.00000000;3.76863337;3.22370696;
74778067;81.2;28.9;22.2;0;28.9;31.8;0;0;0;0;0;0.001;0.5864;0.1513;46.1994;12.5592;219824;221024;295.2;0;1;0.062;0.041;74777969;0.5864;0.1513;46.1994;12.5592;0.87;547.303;0;0;0;2071.79;2083.1;1;74777970;0.0568612;0.290528;-1.98848;-0.282651;-0.0504586;0.951691;0.0871803;0.330385;0.168389;74776999;47.59970137;-122.83273673;112.84768384;0.00000000;0.00000000;3.76863337;3.22370696;
74778163;81.2;28.9;22.1;0;28.9;31.8;0;0;0;0;0;0.001;0.5864;0.1513;46.1994;12.5592;219824;221024;295.2;0;1;0.062;0.041;74778068;0.5864;0.1513;46.1994;12.5592;0.87;547.303;0;0;0;2071.79;2083.1;1;74778069;0.0567515;0.290916;-1.98876;-0.2855;-0.0567345;0.951748;0.0810624;0.259675;0.0993773;74776999;47.59970137;-122.83273673;112.84768384;0.00000000;0.00000000;3.76863337;3.22370696;
74778244;81.2;28.9;22.1;0;28.9;31.8;0;0;0;0;0;0.001;0.5864;0.1513;46.1994;12.5592;219824;221024;295.2;0;1;0.062;0.041;74778164;0.5864;0.1513;46.1994;12.5592;0.87;547.301;0;0;0;2071.79;2083.1;1;74778165;0.0565738;0.291305;-1.98904;-0.286583;-0.05046;0.951723;0.308612;0.331624;0.289494;74776999;47.59970137;-122.83273673;112.84768384;0.00000000;0.00000000;3.76863337;3.22370696;
74778335;81.2;28.9;22.1;0;28.9;31.8;0;0;0;0;0;0.001;0.5864;0.1513;46.1994;12.5592;219824;221024;295.2;0;1;0.062;0.041;74778286;0.5864;0.1513;46.1994;12.5592;0.87;547.301;0;0;0;2071.79;2083.1;1;74778288;0.056202;0.291659;-1.98937;-0.284109;-0.0568009;0.951567;0.0871803;0.190392;0.169822;74776999;47.59970137;-122.83273673;112.84768384;0.00000000;0.00000000;3.76863337;3.22370696;
74778422;81.2;28.9;22.1;0;28.9;31.8;0;0;0;0;0;0.001;0.5864;0.1513;46.1994;12.5592;219824;221024;295.2;0;1;0.062;0.04;74778381;0.5864;0.1513;46.1994;12.5592;0.87;547.301;0;0;0;2071.79;2083.1;1;74778382;0.0558119;0.292167;-1.98978;-0.284792;-0.0524887;0.951366;0.169148;0.121761;0.303878;74776999;47.59970137;-122.83273673;112.84768384;0.00000000;0.00000000;3.76863337;3.22370696;
74778514;81.2;28.9;22.2;0;28.9;31.8;0;0;0;0;0;0.001;0.5864;0.1513;46.1994;12.5592;219824;221024;295.2;0;1;0.062;0.04;74778465;0.5864;0.1513;46.1994;12.5592;0.87;547.301;0;0;0;2071.79;2083.1;1;74778466;0.0556583;0.292252;-1.99004;-0.282924;-0.054337;0.951024;0.156912;0.0503369;0.165138;74776999;47.59970137;-122.83273673;112.84768384;0.00000000;0.00000000;3.76863337;3.22370696;
74778604;81.2;28.9;22.2;0;28.9;31.8;0;0;0;0;0;0.001;0.5864;0.1513;46.1994;12.5592;219824;221024;295.2;0;1;0.062;0.04;74778555;0.5864;0.1513;46.1994;12.5592;0.87;547.301;0;0;0;2071.79;2083.1;1;74778555;0.055348;0.292527;-1.99042;-0.28944;-0.0553873;0.950895;0.220527;0.329546;0.0864259;74777999;47.59970233;-122.83274103;112.06990922;0.00000000;0.00000000;3.80327797;3.26645589;
74778693;81.2;28.9;22.1;0;28.8;31.8;0;0;0;0;0;0.001;0.5864;0.1513;46.1994;12.5592;219824;221024;295.2;0;1;0.062;0.04;74778649;0.5864;0.1513;46.1994;12.5592;0.87;547.301;0;0;0;2071.79;2083.1;1;74778650;0.055269;0.292648;-1.9907;-0.284613;-0.0557694;0.95069;0.0113302;-0.0902442;0.109077;74777999;47.59970233;-122.83274103;112.06990922;0.00000000;0.00000000;3.80327797;3.26645589;
74778780;81.2;28.9;22.2;0;28.9;31.8;0;0;0;0;0;0.001;0.5864;0.1513;46.1994;12.5592;219824;221024;295.2;0;1;0.062;0.041;74778734;0.5864;0.1513;46.1994;12.5592;0.87;547.301;0;0;0;2071.79;2083.1;1;74778741;0.0553544;0.292779;-1.99092;-0.283854;-0.0533552;0.950576;-0.122016;0.260576;0.187458;74777999;47.59970233;-122.83274103;112.06990922;0.00000000;0.00000000;3.80327797;3.26645589;
74778878;81.2;28.9;22.2;0;28.9;31.8;0;0;0;0;0;0.001;0.5864;0.1513;46.1994;12.5592;219824;221024;295.2;0;1;0.062;0.041;74778826;0.5864;0.1513;46.1994;12.5592;0.87;547.301;0;0;0;2071.79;2083.1;1;74778833;0.0559196;0.293195;-1.99102;-0.286455;-0.0602046;0.950628;-0.849927;0.257634;-0.100009;74777999;47.59970233;-122.83274103;112.06990922;0.00000000;0.00000000;3.80327797;3.26645589;
74778964;81.2;28.9;22.2;0;28.9;31.8;0;0;0;0;0;0.001;0.5864;0.1513;46.1994;12.5592;219824;221024;295.2;0;1;0.062;0.041;74778917;0.5864;0.1513;46.1994;12.5592;0.87;547.301;0;0;0;2071.79;2083.1;1;74778918;0.0563217;0.293527;-1.99114;-0.28764;-0.0612045;0.95052;0.0113302;0.329734;0.104778;74777999;47.59970233;-122.83274103;112.06990922;0.00000000;0.00000000;3.80327797;3.26645589;
74779050;81.2;28.9;22;0;28.9;31.8;0;0;0;0;0;0.001;0.5864;0.1513;46.1994;12.5592;219824;221024;295.2;0;1;0.062;0.041;74779013;0.5864;0.1513;46.1994;12.5592;0.87;547.301;0;0;0;2071.79;2083.1;1;74779014;0.0563848;0.293457;-1.99137;-0.290557;-0.0607139;0.95007;-0.052284;-0.369453;0.187788;74777999;47.59970233;-122.83274103;112.06990922;0.00000000;0.00000000;3.80327797;3.26645589;
74779138;81.2;28.9;21.9;0;28.9;31.8;0;0;0;0;0;0.001;0.5864;0.1513;46.1994;12.5592;219824;221024;295.2;0;1;0.061;0.04;74779093;0.5864;0.1513;46.1994;12.5592;0.87;547.301;0;0;0;2071.79;2083.1;1;74779096;0.0561152;0.293573;-1.99168;-0.291086;-0.0543748;0.950005;0.308612;0.331624;0.289494;74777999;47.59970233;-122.83274103;112.06990922;0.00000000;0.00000000;3.80327797;3.26645589;
74779232;81.2;28.9;21.9;0;28.9;31.8;0;0;0;0;0;0.001;0.5864;0.1513;46.1994;12.5592;219824;221024;295.2;0;1;0.062;0.04;74779184;0.5864;0.1513;46.1994;12.5592;0.87;547.301;0;0;0;2071.79;2083.1;1;74779185;0.0560742;0.293692;-1.99194;-0.286924;-0.0583074;0.949914;-0.0584018;-0.0901816;0.115194;74777999;47.59970233;-122.83274103;112.06990922;0.00000000;0.00000000;3.80327797;3.26645589;
74779318;81.2;28.9;22.2;0;28.8;31.8;0;0;0;0;0;0.001;0.5864;0.1513;46.1994;12.5592;219824;221024;295.2;0;1;0.062;0.041;74779278;0.5864;0.1513;46.1994;12.5592;0.87;547.301;0;0;0;2071.79;2083.1;1;74779278;0.0561127;0.293913;-1.99218;-0.286566;-0.0578348;0.949943;0.0871803;0.0503995;0.171255;74777999;47.59970233;-122.83274103;112.06990922;0.00000000;0.00000000;3.80327797;3.26645589;
74779418;81.2;28.9;22;0;28.9;31.8;0;0;0;0;0;0.001;0.5864;0.1513;46.1994;12.5592;219824;221024;295.2;0;1;0.062;0.041;74779365;0.5864;0.1513;46.1994;12.5592;0.87;547.301;0;0;0;2071.79;2083.1;1;74779417;0.0561024;0.293857;-1.99242;-0.288041;-0.0587543;0.949719;0.0871803;-0.229586;0.174121;74777999;47.59970233;-122.83274103;112.06990922;0.00000000;0.00000000;3.80327797;3.26645589;
74779500;81.2;28.9;22.1;0;28.9;31.8;0;0;0;0;0;0.001;0.5864;0.1513;46.1994;12.5592;219824;221024;295.2;0;1;0.062;0.04;74779453;0.5864;0.1513;46.1994;12.5592;0.87;547.301;0;0;0;2071.79;2083.1;1;74779417;0.0561024;0.293857;-1.99242;-0.288041;-0.0587543;0.949719;0.0871803;-0.229586;0.174121;74777999;47.59970233;-122.83274103;112.06990922;0.00000000;0.00000000;3.80327797;3.26645589;
74779594;81.2;28.9;22.1;0;28.9;31.8;0;0;0;0;0;0.001;0.5864;0.1513;46.1994;12.5592;219824;221024;295.2;0;1;0.061;0.04;74779543;0.5864;0.1513;46.1994;12.5592;0.87;547.301;0;0;0;2071.79;2083.1;1;74779501;0.0558756;0.293732;-1.99285;-0.290114;-0.0543757;0.949502;-0.128134;-0.160115;0.122028;74778999;47.59970343;-122.83274230;111.31698860;0.00000000;0.00000000;3.75170183;3.31367230;
74779690;81.2;28.9;22.2;0;28.9;31.8;0;0;0;0;0;0.001;0.5864;0.1513;46.1994;12.5592;219824;221024;295.2;0;1;0.062;0.041;74779690;0.5864;0.1513;46.1994;12.5592;0.87;547.296;0;0;0;2071.79;2083.1;1;74779595;0.0557411;0.293511;-1.99314;-0.28637;-0.052875;0.949358;0.302494;-0.22906;0.225497;74778999;47.59970343;-122.83274230;111.31698860;0.00000000;0.00000000;3.75170183;3.31367230;
74779775;81.2;28.9;22.3;0;28.9;31.8;0;0;0;0;0;0.001;0.5864;0.1513;46.1994;12.5592;219824;221024;295.2;0;1;0.062;0.04;74779690;0.5864;0.1513;46.1994;12.5592;0.87;547.296;0;0;0;2071.79;2083.1;1;74779691;0.0553948;0.293424;-1.99353;-0.287598;-0.053392;0.949417;0.16303;0.191043;0.233433;74778999;47.59970343;-122.83274230;111.31698860;0.00000000;0.00000000;3.75170183;3.31367230;
74779860;81.2;28.9;22;0;28.9;31.8;0;0;0;0;0;0.001;0.5864;0.1513;46.1994;12.5592;219824;221024;295.2;0;1;0.062;0.04;74779776;0.5864;0.1513;46.1994;12.5592;0.87;547.287;0;0;0;2071.79;2083.1;1;74779776;0.0554195;0.293546;-1.99375;-0.284792;-0.0559046;0.949628;0.0749446;-0.0910205;0.0332308;74778999;47.59970343;-122.83274230;111.31698860;0.00000000;0.00000000;3.75170183;3.31367230;
74779950;81.2;28.9;22;0;28.9;31.8;0;0;0;0;0;0.001;0.5864;0.1513;46.1994;12.5592;219824;221024;295.2;0;1;0.062;0.04;74779861;0.5864;0.1513;46.1994;12.5592;0.87;547.285;0;0;0;2071.79;2083.1;1;74779862;0.0556868;0.293424;-1.99395;-0.286344;-0.0552548;0.949685;-0.41318;0.119407;0.0739041;74778999;47.59970343;-122.83274230;111.31698860;0.00000000;0.00000000;3.75170183;3.31367230;
74780039;81.2;28.9;22.1;0;28.9;31.8;0;0;0;0;0;0.001;0.5864;0.1513;46.1994;12.5592;219824;221024;295.2;0;1;0.062;0.04;74779951;0.5864;0.1513;46.1994;12.5592;0.87;547.282;0;0;0;2071.79;2083.1;1;74779951;0.0567216;0.293774;-1.99387;-0.288306;-0.067683;0.950092;-0.052284;0.0505247;0.18349;74778999;47.59970343;-122.83274230;111.31698860;0.00000000;0.00000000;3.75170183;3.31367230;
74780175;81.2;28.9;22.1;0;28.9;31.8;0;0;0;0;0;0.001;0.5864;0.1513;46.1994;12.5592;219824;221024;295.2;0;1;0.062;0.04;74780175;0.5864;0.1513;46.1994;12.5592;0.87;547.281;0;0;0;2071.79;2083.1;1;74780041;0.0566912;0.293768;-1.99414;-0.286796;-0.0641482;0.950097;0.16303;0.121047;0.23415;74778999;47.59970343;-122.83274230;111.31698860;0.00000000;0.00000000;3.75170183;3.31367230;
74780321;81.2;28.9;22;0;28.8;31.8;0;0;0;0;0;0.001;0.5864;0.1513;46.1994;12.5592;219824;221024;295.2;0;1;0.062;0.041;74780265;0.5864;0.1513;46.1994;12.5592;0.87;547.28;0;0;0;2071.79;2083.1;1;74780176;0.0560938;0.293605;-1.99471;-0.285039;-0.0528913;0.950016;0.359991;0.119432;0.0763401;74778999;47.59970343;-122.83274230;111.31698860;0.00000000;0.00000000;3.75170183;3.31367230;
74780399;81.2;28.9;22;0;28.9;31.8;0;0;0;0;0;0.001;0.5864;0.1513;46.1994;12.5592;219824;221024;295.2;0;1;0.062;0.041;74780355;0.5864;0.1513;46.1994;12.5592;0.87;547.269;0;0;0;2071.79;2083.1;1;74780321;0.0553092;0.293607;-1.99526;-0.286054;-0.0533833;0.95;0.0994159;-0.158162;0.312861;74778999;47.59970343;-122.83274230;111.31698860;0.00000000;0.00000000;3.75170183;3.31367230;
74780534;81.2;28.9;22;0;28.9;31.8;0;0;0;0;0;0.001;0.5864;0.1513;46.1994;12.5592;219824;221024;295.2;0;1;0.062;0.041;74780455;0.5864;0.1513;46.1994;12.5592;0.87;547.269;0;0;0;2071.79;2083.1;1;74780400;0.0551038;0.293633;-1.99554;-0.287154;-0.0563252;0.950065;0.0932981;-0.0188832;0.2417;74778999;47.59970343;-122.83274230;111.31698860;0.00000000;0.00000000;3.75170183;3.31367230;
74780623;81.2;28.9;22;0;29;31.8;0;0;0;0;0;0.001;0.5864;0.1513;46.1994;12.5592;219824;221024;295.2;0;1;0.062;0.041;74780540;0.5864;0.1513;46.1994;12.5592;0.87;547.268;0;0;0;2071.79;2083.1;1;74780540;0.0554321;0.293689;-1.99586;-0.287018;-0.0537551;0.950181;-0.273716;0.189278;0.0609527;74779999;47.59970582;-122.83274294;110.40339408;0.00000000;0.00000000;3.71699739;3.35532212;
74780763;81.2;28.9;22.1;0;28.9;31.8;0;0;0;0;0;0.001;0.5864;0.1513;46.1994;12.5592;219824;221024;295.2;0;1;0.062;0.04;74780624;0.5864;0.1513;46.1994;12.5592;0.87;547.266;0;0;0;2071.79;2083.1;1;74780625;0.0555642;0.293771;-1.9961;-0.288741;-0.0568268;0.950155;0.00521243;-0.160954;0.0400647;74779999;47.59970582;-122.83274294;110.40339408;0.00000000;0.00000000;3.71699739;3.35532212;
74780899;81.2;28.9;22.1;0;28.9;31.8;0;0;0;0;0;0.001;0.5864;0.1513;46.1994;12.5592;219824;221024;295.2;0;1;0.062;0.041;74780765;0.5864;0.1513;46.1994;12.5592;0.87;547.263;0;0;0;2071.79;2083.1;1;74780766;0.0555749;0.293466;-1.99646;-0.287239;-0.0524314;0.949918;0.0174481;-0.159527;0.179522;74779999;47.59970582;-122.83274294;110.40339408;0.00000000;0.00000000;3.71699739;3.35532212;
74780996;81.2;28.9;22.2;0;28.8;31.8;0;0;0;0;0;0.001;0.5864;0.1513;46.1994;12.5592;219824;221024;295.2;0;1;0.061;0.04;74780900;0.5864;0.1513;46.1994;12.5592;0.87;547.261;0;0;0;2071.79;2083.1;1;74780900;0.0563667;0.293446;-1.99661;-0.288067;-0.0597904;0.950024;-0.197866;0.189929;0.124564;74779999;47.59970582;-122.83274294;110.40339408;0.00000000;0.00000000;3.71699739;3.35532212;
74781074;81.2;28.9;22.2;0;28.9;31.8;0;0;0;0;0;0.001;0.5864;0.1513;46.1994;12.5592;219824;221024;295.2;0;1;0.062;0.041;74780996;0.5864;0.1513;46.1994;12.5592;0.87;547.259;0;0;0;2071.79;2083.1;1;74780997;0.0563606;0.293543;-1.99686;-0.287828;-0.0518978;0.950097;-0.052284;-0.0194716;0.184206;74779999;47.59970582;-122.83274294;110.40339408;0.00000000;0.00000000;3.71699739;3.35532212;
74781169;81.2;28.9;22.2;0;28.8;31.8;0;0;0;0;0;0.001;0.5864;0.1513;46.1994;12.5592;219824;221024;295.2;0;1;0.062;0.041;74781075;0.5864;0.1513;46.1994;12.5592;0.87;547.253;0;0;0;2071.79;2083.1;1;74781076;0.0563246;0.293445;-1.99715;-0.290327;-0.0592803;0.949979;-0.052284;-0.0894679;0.184923;74779999;47.59970582;-122.83274294;110.40339408;0.00000000;0.00000000;3.71699739;3.35532212;
74781299;81.2;28.9;22.2;0;28.9;31.8;0;0;0;0;0;0.001;0.5864;0.1513;46.1994;12.5592;219824;221024;295.2;0;1;0.062;0.04;74781255;0.5864;0.1513;46.1994;12.5592;0.87;547.253;0;0;0;2071.79;2083.1;1;74781170;0.056475;0.293202;-1.99738;-0.287811;-0.0553688;0.949851;-0.0584018;-0.0901816;0.115194;74779999;47.59970582;-122.83274294;110.40339408;0.00000000;0.00000000;3.71699739;3.35532212;
74781390;81.2;28.9;22.2;0;28.9;31.8;0;0;0;0;0;0.001;0.5864;0.1513;46.1994;12.5592;219824;221024;295.2;0;1;0.062;0.041;74781344;0.5864;0.1513;46.1994;12.5592;0.87;547.253;0;0;0;2071.79;2083.1;1;74781300;0.0565251;0.292889;-1.99773;-0.281909;-0.0514051;0.949895;0.0174481;-0.0895306;0.178805;74779999;47.59970582;-122.83274294;110.40339408;0.00000000;0.00000000;3.71699739;3.35532212;
74781483;81.2;28.9;24.2;0;28.8;31.8;0;0;0;0;0;0.001;0.5864;0.1513;46.1994;12.5592;219824;221024;295.2;0;1;0.063;0.041;74781442;0.5864;0.1513;46.1994;12.5592;0.87;547.25;0;0;0;2071.79;2083.1;1;74781391;0.0563123;0.292676;-1.99804;-0.280937;-0.0577496;0.949921;0.150795;-0.300358;0.098991;74779999;47.59970582;-122.83274294;110.40339408;0.00000000;0.00000000;3.71699739;3.35532212;
74781573;81.2;28.9;24.6;0;28.9;31.8;0;0;0;0;0;0.001;0.5864;0.1513;46.1994;12.5592;219824;221024;295.2;0;1;0.063;0.041;74781525;0.5864;0.1513;46.1994;12.5592;0.87;547.243;0;0;0;2071.79;2083.1;1;74781484;0.0559689;0.292571;-1.99841;-0.285568;-0.0563116;0.950066;0.0174481;0.0504621;0.177373;74780999;47.59970420;-122.83274313;109.78443162;0.00000000;0.00000000;3.76750708;3.48933744;
74781660;81.2;28.9;24.7;0;28.9;31.8;0;0;0;0;0;0.001;0.5864;0.1513;46.1994;12.5592;219824;221024;295.2;0;1;0.062;0.04;74781613;0.5864;0.1513;46.1994;12.5592;0.87;547.241;0;0;0;2071.79;2083.1;1;74781573;0.0557044;0.292523;-1.99879;-0.289525;-0.0553973;0.950161;0.169148;-0.158225;0.306744;74780999;47.59970420;-122.83274313;109.78443162;0.00000000;0.00000000;3.76750708;3.48933744;
74781750;81.2;28.9;24.7;0;28.9;31.8;0;0;0;0;0;0.001;0.5864;0.1513;46.1994;12.5592;219824;221024;295.2;0;1;0.062;0.041;74781703;0.5864;0.1513;46.1994;12.5592;0.87;547.24;0;0;0;2071.79;2083.1;1;74781660;0.0556735;0.292279;-1.99904;-0.285713;-0.0533435;0.9501;-0.128134;-0.0201226;0.120595;74780999;47.59970420;-122.83274313;109.78443162;0.00000000;0.00000000;3.76750708;3.48933744;
74781840;81.2;28.9;24.9;0;28.8;31.8;0;0;0;0;0;0.001;0.5864;0.1513;46.1994;12.5592;219824;221024;295.2;0;1;0.062;0.04;74781839;0.5864;0.1513;46.1994;12.5592;0.87;547.24;0;0;0;2071.79;2083.1;1;74781750;0.0559823;0.292033;-1.99923;-0.285056;-0.053812;0.950061;-0.279834;-0.161417;-0.00519376;74780999;47.59970420;-122.83274313;109.78443162;0.00000000;0.00000000;3.76750708;3.48933744;
74781977;81.2;28.9;24.7;0;28.8;31.8;0;0;0;0;0;0.001;0.5864;0.1513;46.1994;12.5592;219824;221024;295.2;0;1;0.063;0.041;74781934;0.5864;0.1513;46.1994;12.5592;0.87;547.24;0;0;0;2071.79;2083.1;1;74781886;0.0561436;0.291676;-1.99956;-0.287137;-0.0505247;0.950061;-0.0645196;-0.440877;0.0490478;74780999;47.59970420;-122.83274313;109.78443162;0.00000000;0.00000000;3.76750708;3.48933744;
74782065;81.2;28.9;24.6;0;28.8;31.8;0;0;0;0;0;0.001;0.5864;0.1513;46.1994;12.5592;219824;221024;295.2;0;1;0.062;0.04;74782025;0.5864;0.1513;46.1994;12.5592;0.87;547.24;0;0;0;2071.79;2083.1;1;74781978;0.0561776;0.290988;-1.99983;-0.281764;-0.057789;0.949922;-0.0645196;-0.160892;0.0461822;74780999;47.59970420;-122.83274313;109.78443162;0.00000000;0.00000000;3.76750708;3.48933744;
74782153;81.2;28.9;24.7;0;28.9;31.8;0;0;0;0;0;0.001;0.5864;0.1513;46.1994;12.5592;219824;221024;295.2;0;1;0.062;0.041;74782116;0.5864;0.1513;46.1994;12.5592;0.87;547.24;0;0;0;2071.79;2083.1;1;74782065;0.0562743;0.290618;-2.00008;-0.283768;-0.0552972;0.950083;-0.18563;-0.368614;0.269752;74780999;47.59970420;-122.83274313;109.78443162;0.00000000;0.00000000;3.76750708;3.48933744;
74782242;81.2;28.9;24.8;0;28.9;31.8;0;0;0;0;0;0.001;0.5864;0.1513;46.1994;12.5592;219824;221024;295.2;0;1;0.062;0.041;74782200;0.5864;0.1513;46.1994;12.5592;0.87;547.24;0;0;0;2071.79;2083.1;1;74782155;0.0564576;0.290327;-2.0003;-0.28434;-0.0567706;0.950355;0.156912;-0.0196594;0.165854;74780999;47.59970420;-122.83274313;109.78443162;0.00000000;0.00000000;3.76750708;3.48933744;
74782333;81.2;28.9;24.9;0;28.9;31.8;0;0;0;0;0;0.001;0.5864;0.1513;46.1994;12.5592;219824;221024;295.2;0;1;0.062;0.041;74782290;0.5864;0.1513;46.1994;12.5592;0.87;547.239;0;0;0;2071.79;2083.1;1;74782243;0.056476;0.290374;-2.00056;-0.283197;-0.0572396;0.950786;0.0932981;-0.0188832;0.2417;74780999;47.59970420;-122.83274313;109.78443162;0.00000000;0.00000000;3.76750708;3.48933744;
74782469;81.2;28.9;24.9;0;28.8;31.8;0;0;0;0;0;0.001;0.5864;0.1513;46.1994;12.5592;219824;221024;295.2;0;1;0.062;0.04;74782434;0.5864;0.1513;46.1994;12.5592;0.87;547.239;0;0;0;2071.79;2083.1;1;74782433;0.0562017;0.290754;-2.00089;-0.283205;-0.0510112;0.951233;0.169148;0.191757;0.303162;74780999;47.59970420;-122.83274313;109.78443162;0.00000000;0.00000000;3.76750708;3.48933744;
74782559;81.2;28.8;24.8;0;28.8;31.8;0;0;0;0;0;0.001;0.5864;0.1513;46.1994;12.5592;219824;221024;295.2;0;1;0.062;0.041;74782517;0.5864;0.1513;46.1994;12.5592;0.87;547.239;0;0;0;2071.79;2083.1;1;74782517;0.0561784;0.291186;-2.00137;-0.284877;-0.0588424;0.951457;0.0235659;0.191168;0.245668;74780999;47.59970420;-122.83274313;109.78443162;0.00000000;0.00000000;3.76750708;3.48933744;
74782651;81.2;28.9;24.9;0;28.8;31.8;0;0;0;0;0;0.001;0.5864;0.1513;46.1994;12.5592;219824;221024;295.2;0;1;0.062;0.04;74782608;0.5864;0.1513;46.1994;12.5592;0.87;547.234;0;0;0;2071.79;2083.1;1;74782609;0.0561477;0.291413;-2.00167;-0.286037;-0.0568543;0.951353;0.0113302;0.119745;0.106928;74781999;47.59970327;-122.83274270;109.03855662;0.00000000;0.00000000;3.80978251;3.58235931;
74782739;81.2;28.9;24.9;0;28.9;31.8;0;0;0;0;0;0.001;0.5864;0.1513;46.1994;12.5592;219824;221024;295.2;0;1;0.062;0.041;74782697;0.5864;0.1513;46.1994;12.5592;0.869;547.229;0;0;0;2071.79;2083.1;1;74782698;0.0560995;0.291795;-2.00196;-0.285338;-0.0524381;0.951329;0.00521243;0.189027;0.0364827;74781999;47.59970327;-122.83274270;109.03855662;0.00000000;0.00000000;3.80978251;3.58235931;
74782829;81.2;28.9;25.8;0;28.8;31.8;0;0;0;0;0;0.001;0.5864;0.1513;46.1994;12.5592;219824;221024;295.2;0;1;0.062;0.041;74782793;0.5864;0.1513;46.1994;12.5592;0.869;547.229;0;0;0;2071.79;2083.1;1;74782793;0.0563931;0.292114;-2.00213;-0.284007;-0.0568461;0.951227;-0.197866;0.259925;0.123847;74781999;47.59970327;-122.83274270;109.03855662;0.00000000;0.00000000;3.80978251;3.58235931;
74782918;81.2;28.9;25.7;0;28.8;31.8;0;0;0;0;0;0.001;0.5864;0.1513;46.1994;12.5592;219824;221024;295.2;0;1;0.062;0.04;74782876;0.5864;0.1513;46.1994;12.5592;0.869;547.229;0;0;0;2071.79;2083.1;1;74782876;0.0565752;0.292234;-2.00232;-0.284809;-0.0587772;0.950855;-0.134252;-0.300822;0.0537325;74781999;47.59970327;-122.83274270;109.03855662;0.00000000;0.00000000;3.80978251;3.58235931;
74783009;81.2;28.9;25.7;0;29;31.8;0;0;0;0;0;0.001;0.5864;0.1513;46.1994;12.5592;219824;221024;295.2;0;1;0.062;0.04;74782964;0.5864;0.1513;46.1994;12.5592;0.869;547.229;0;0;0;2071.79;2083.1;1;74782965;0.0564785;0.292135;-2.00263;-0.289065;-0.0613136;0.95047;0.0810624;0.119682;0.10081;74781999;47.59970327;-122.83274270;109.03855662;0.00000000;0.00000000;3.80978251;3.58235931;
74783145;81.2;28.9;25.7;0;28.8;31.8;0;0;0;0;0;0.001;0.5864;0.1513;46.1994;12.5592;219824;221024;295.2;0;1;0.062;0.04;74783106;0.5864;0.1513;46.1994;12.5592;0.869;547.229;0;0;0;2071.79;2083.1;1;74783107;0.0566812;0.292218;-2.00283;-0.284809;-0.0553614;0.950294;-0.210102;0.048509;-0.0134605;74781999;47.59970327;-122.83274270;109.03855662;0.00000000;0.00000000;3.80978251;3.58235931;
74783239;81.2;28.9;25.8;0;28.9;31.8;0;0;0;0;0;0.001;0.5864;0.1513;46.1994;12.5592;219824;221024;295.2;0;1;0.062;0.041;74783190;0.5864;0.1513;46.1994;12.5592;0.869;547.229;0;0;0;2071.79;2083.1;1;74783238;0.0576927;0.292265;-2.00314;-0.287495;-0.0583169;0.950015;0.0174481;0.400444;0.173791;74781999;47.59970327;-122.83274270;109.03855662;0.00000000;0.00000000;3.80978251;3.58235931;
74783326;81.2;28.8;25.8;0;28.8;31.8;0;0;0;0;0;0.001;0.5864;0.1513;46.1994;12.5592;219824;221024;295.2;0;1;0.062;0.04;74783285;0.5864;0.1513;46.1994;12.5592;0.869;547.229;0;0;0;2071.79;2083.1;1;74783238;0.0576927;0.292265;-2.00314;-0.287495;-0.0583169;0.950015;0.0174481;0.400444;0.173791;74781999;47.59970327;-122.83274270;109.03855662;0.00000000;0.00000000;3.80978251;3.58235931;
74783416;81.2;28.9;25.8;0;28.9;31.8;0;0;0;0;0;0.001;0.5864;0.1513;46.1994;12.5592;219824;221024;295.2;0;1;0.062;0.041;74783368;0.5864;0.1513;46.1994;12.5592;0.869;547.229;0;0;0;2071.79;2083.1;1;74783326;0.0577049;0.292301;-2.00343;-0.282506;-0.0597703;0.949908;0.156912;-0.369641;0.169436;74781999;47.59970327;-122.83274270;109.03855662;0.00000000;0.00000000;3.80978251;3.58235931;
74783503;81.2;28.9;25.8;0;28.8;31.8;0;0;0;0;0;0.001;0.5864;0.1513;46.1994;12.5592;219824;221024;295.2;0;1;0.062;0.04;74783460;0.5864;0.1513;46.1994;12.5592;0.869;547.229;0;0;0;2071.79;2083.1;1;74783416;0.0573177;0.292248;-2.00378;-0.287606;-0.0598509;0.949854;0.448077;0.12151;0.279408;74781999;47.59970327;-122.83274270;109.03855662;0.00000000;0.00000000;3.80978251;3.58235931;
74783598;81.2;28.8;25.9;0;28.8;31.8;0;0;0;0;0;0.001;0.5864;0.1513;46.1994;12.5592;219824;221024;295.2;0;1;0.061;0.04;74783552;0.5864;0.1513;46.1994;12.5592;0.869;547.229;0;0;0;2071.79;2083.1;1;74783505;0.0569286;0.292176;-2.00414;-0.289986;-0.0592405;0.949794;0.156912;-0.159652;0.167287;74782999;47.59970138;-122.83274203;108.81295401;0.00000000;0.00000000;3.82674336;3.58927369;
74783685;81.2;28.9;25.9;0;28.8;31.8;0;0;0;0;0;0.001;0.5864;0.1513;46.1994;12.5592;219824;221024;295.2;0;1;0.062;0.04;74783638;0.5864;0.1513;46.1994;12.5592;0.869;547.229;0;0;0;2071.79;2083.1;1;74783599;0.0565146;0.292154;-2.0045;-0.285704;-0.0593697;0.949854;0.31473;0.0523527;0.362088;74782999;47.59970138;-122.83274203;108.81295401;0.00000000;0.00000000;3.82674336;3.58927369;
74783773;81.2;28.9;25.9;0;28.9;31.8;0;0;0;0;0;0.001;0.5864;0.1513;46.1994;12.5592;219824;221024;295.2;0;1;0.062;0.04;74783730;0.5864;0.1513;46.1994;12.5592;0.869;547.229;0;0;0;2071.79;2083.1;1;74783685;0.0561789;0.291967;-2.00488;-0.282839;-0.055303;0.949901;0.232762;-0.0890047;0.230181;74782999;47.59970138;-122.83274203;108.81295401;0.00000000;0.00000000;3.82674336;3.58927369;
74783910;81.2;28.8;25.9;0;28.9;31.8;0;0;0;0;0;0.001;0.5864;0.1513;46.1994;12.5592;219824;221024;295.2;0;1;0.062;0.04;74783822;0.5864;0.1513;46.1994;12.5592;0.869;547.229;0;0;0;2071.79;2083.1;1;74783781;0.0559723;0.29194;-2.00523;-0.281065;-0.0582525;0.950116;0.0296837;-0.0181069;0.317546;74782999;47.59970138;-122.83274203;108.81295401;0.00000000;0.00000000;3.82674336;3.58927369;
74783999;81.2;28.9;25.9;0;28.9;31.8;0;0;0;0;0;0.001;0.5864;0.1513;46.1994;12.5592;219824;221024;295.2;0;1;0.062;0.04;74783912;0.5864;0.1513;46.1994;12.5592;0.869;547.229;0;0;0;2071.79;2083.1;1;74783911;0.0557627;0.291918;-2.00555;-0.284041;-0.0538079;0.950199;0.232762;-0.0190084;0.229465;74782999;47.59970138;-122.83274203;108.81295401;0.00000000;0.00000000;3.82674336;3.58927369;
74784091;81.2;28.9;26;0;28.8;31.8;0;0;0;0;0;0.001;0.5864;0.1513;46.1994;12.5592;219824;221024;295.2;0;1;0.062;0.041;74784007;0.5864;0.1513;46.1994;12.5592;0.869;547.229;0;0;0;2071.79;2083.1;1;74784008;0.055759;0.291959;-2.00594;-0.284212;-0.0509;0.95038;-0.122016;0.120584;0.188891;74782999;47.59970138;-122.83274203;108.81295401;0.00000000;0.00000000;3.82674336;3.58927369;
74784223;81.2;28.9;25.9;0;28.8;31.8;0;0;0;0;0;0.001;0.5864;0.1513;46.1994;12.5592;219824;221024;295.2;0;1;0.062;0.04;74784091;0.5864;0.1513;46.1994;12.5592;0.869;547.229;0;0;0;2071.79;2083.1;1;74784092;0.0559786;0.292057;-2.00616;-0.286608;-0.0563759;0.950533;-0.191748;0.0506499;0.195725;74782999;47.59970138;-122.83274203;108.81295401;0.00000000;0.00000000;3.82674336;3.58927369;
74784325;81.2;28.9;25.9;0;28.8;31.8;0;0;0;0;0;0.001;0.5864;0.1513;46.1994;12.5592;219824;221024;295.2;0;1;0.062;0.041;74784223;0.5864;0.1513;46.1994;12.5592;0.869;547.229;0;0;0;2071.79;2083.1;1;74784225;0.0563811;0.292236;-2.0063;-0.287009;-0.0592933;0.950709;-0.0645196;0.259086;0.0418838;74782999;47.59970138;-122.83274203;108.81295401;0.00000000;0.00000000;3.82674336;3.58927369;
74784404;81.2;28.9;25.9;0;28.9;31.8;0;0;0;0;0;0.001;0.5864;0.1513;46.1994;12.5592;219824;221024;295.2;0;1;0.062;0.041;74784326;0.5864;0.1513;46.1994;12.5592;0.869;547.229;0;0;0;2071.79;2083.1;1;74784327;0.0567378;0.292194;-2.00655;-0.286694;-0.05297;0.950612;-0.052284;0.0505247;0.18349;74782999;47.59970138;-122.83274203;108.81295401;0.00000000;0.00000000;3.82674336;3.58927369;
74784494;81.2;28.9;26;0;28.8;31.8;0;0;0;0;0;0.001;0.5864;0.1513;46.1994;12.5592;219824;221024;295.2;0;1;0.063;0.041;74784406;0.5864;0.1513;46.1994;12.5592;0.869;547.228;0;0;0;2071.79;2083.1;1;74784406;0.0568357;0.29205;-2.00676;-0.287231;-0.054756;0.950452;0.0174481;0.0504621;0.177373;74782999;47.59970138;-122.83274203;108.81295401;0.00000000;0.00000000;3.82674336;3.58927369;
74784596;81.2;28.9;25.9;0;28.8;31.8;0;0;0;0;0;0.001;0.5864;0.1513;46.1994;12.5592;219824;221024;295.2;0;1;0.062;0.04;74784495;0.5864;0.1513;46.1994;12.5592;0.869;547.228;0;0;0;2071.79;2083.1;1;74784495;0.0568529;0.292307;-2.00699;-0.287009;-0.0500218;0.95057;0.0174481;0.120458;0.176656;74783999;47.59970643;-122.83273888;108.11059976;0.00000000;0.00000000;3.74505401;3.48456979;
74784674;81.2;28.8;25.9;0;28.9;31.8;0;0;0;0;0;0.001;0.5864;0.1513;46.1994;12.5592;219824;221024;295.2;0;1;0.062;0.04;74784597;0.5864;0.1513;46.1994;12.5592;0.869;547.228;0;0;0;2071.79;2083.1;1;74784597;0.0567411;0.291513;-2.00736;-0.291342;-0.0339097;0.949863;-0.0584018;-0.860141;0.123075;74783999;47.59970643;-122.83273888;108.11059976;0.00000000;0.00000000;3.74505401;3.48456979;
74784774;81.2;28.8;26;0;28.8;31.8;0;0;0;0;0;0.001;0.5864;0.1513;46.1994;12.5592;219824;221024;295.2;0;1;0.061;0.04;74784675;0.5864;0.1513;46.1994;12.5592;0.869;547.228;0;0;0;2071.79;2083.1;1;74784675;0.0568862;0.290756;-2.00754;-0.282557;-0.0600928;0.949649;-0.197866;0.119933;0.12528;74783999;47.59970643;-122.83273888;108.11059976;0.00000000;0.00000000;3.74505401;3.48456979;
74784859;81.2;28.9;25.9;0;28.8;31.8;0;0;0;0;0;0.001;0.5864;0.1513;46.1994;12.5592;219824;221024;295.2;0;1;0.061;0.041;74784774;0.5864;0.1513;46.1994;12.5592;0.869;547.228;0;0;0;2071.79;2083.1;1;74784775;0.0566459;0.291382;-2.0079;-0.287129;-0.0513854;0.950448;0.232762;0.470966;0.22445;74783999;47.59970643;-122.83273888;108.11059976;0.00000000;0.00000000;3.74505401;3.48456979;
74784948;81.2;28.9;26.1;0;28.8;31.8;0;0;0;0;0;0.001;0.5864;0.1513;46.1994;12.5592;219824;221024;295.2;0;1;0.062;0.041;74784860;0.5864;0.1513;46.1994;12.5592;0.869;547.228;0;0;0;2071.79;2083.1;1;74784860;0.0568397;0.292816;-2.008;-0.291249;-0.0514351;0.951486;-0.255363;0.891382;0.262974;74783999;47.59970643;-122.83273888;108.11059976;0.00000000;0.00000000;3.74505401;3.48456979;
74785039;81.2;28.8;25.9;0;28.8;31.8;0;0;0;0;0;0.001;0.5864;0.1513;46.1994;12.5592;219824;221024;295.2;0;1;0.062;0.042;74784950;0.5864;0.1513;46.1994;12.5592;0.869;547.228;0;0;0;2071.79;2083.1;1;74784951;0.0573761;0.292956;-2.00811;-0.28376;-0.0620135;0.951152;-0.115898;0.681268;0.252888;74783999;47.59970643;-122.83273888;108.11059976;0.00000000;0.00000000;3.74505401;3.48456979;
74785128;81.2;28.8;25.9;0;28.8;31.8;0;0;0;0;0;0.001;0.5864;0.1513;46.1994;12.5592;219824;221024;295.2;0;1;0.062;0.041;74785091;0.5864;0.1513;46.1994;12.5592;0.869;547.228;0;0;0;2071.79;2083.1;1;74785092;0.0569002;0.294515;-2.00854;-0.290233;-0.0589529;0.951355;-0.134252;-0.650803;0.0573146;74783999;47.59970643;-122.83273888;108.11059976;0.00000000;0.00000000;3.74505401;3.48456979;
74785219;81.2;28.8;25.9;0;28.8;31.8;0;0;0;0;0;0.001;0.5864;0.1513;46.1994;12.5592;219824;221024;295.2;0;1;0.062;0.041;74785218;0.5864;0.1513;46.1994;12.5592;0.869;547.228;0;0;0;2071.79;2083.1;1;74785219;0.0557563;0.295395;-2.00916;-0.291206;-0.0521203;0.951067;0.872587;0.821811;0.305268;74783999;47.59970643;-122.83273888;108.11059976;0.00000000;0.00000000;3.74505401;3.48456979;
74785314;81.2;28.8;25.9;0;28.9;31.8;0;0;0;0;0;0.001;0.5864;0.1513;46.1994;12.5592;219824;221024;295.2;0;1;0.062;0.04;74785218;0.5864;0.1513;46.1994;12.5592;0.869;547.228;0;0;0;2071.79;2083.1;1;74785219;0.0557563;0.295395;-2.00916;-0.291206;-0.0521203;0.951067;0.872587;0.821811;0.305268;74783999;47.59970643;-122.83273888;108.11059976;0.00000000;0.00000000;3.74505401;3.48456979;
74785405;81.2;28.8;26;0;28.8;31.8;0;0;0;0;0;0.001;0.5864;0.1513;46.1994;12.5592;219824;221024;295.2;0;1;0.062;0.041;74785351;0.5864;0.1513;46.1994;12.5592;0.869;547.228;0;0;0;2071.79;2083.1;1;74785352;0.0549751;0.29604;-2.00963;-0.287273;-0.0513451;0.950585;0.156912;0.260326;0.162988;74783999;47.59970643;-122.83273888;108.11059976;0.00000000;0.00000000;3.74505401;3.48456979;
74785484;81.2;28.9;25.9;0;28.8;31.8;0;0;0;0;0;0.001;0.5864;0.1513;46.1994;12.5592;219824;221024;295.2;0;1;0.062;0.041;74785444;0.5864;0.1513;46.1994;12.5592;0.869;547.228;0;0;0;2071.79;2083.1;1;74785445;0.0549608;0.296522;-2.00999;-0.288869;-0.0597696;0.949817;-0.191748;-0.159339;0.197874;74783999;47.59970643;-122.83273888;108.11059976;0.00000000;0.00000000;3.74505401;3.48456979;
74785573;81.2;28.8;25.8;0;28.9;31.8;0;0;0;0;0;0.001;0.5864;0.1513;46.1994;12.5592;219824;221024;295.2;0;1;0.062;0.041;74785536;0.5864;0.1513;46.1994;12.5592;0.869;547.228;0;0;0;2071.79;2083.1;1;74785536;0.0548808;0.296222;-2.01029;-0.290787;-0.0494603;0.949054;0.226645;-0.019722;0.159736;74784999;47.59970957;-122.83274001;107.62023610;0.00000000;0.00000000;3.71509075;3.42757607;
74785667;81.2;28.9;25.9;0;28.8;31.8;0;0;0;0;0;0.001;0.5864;0.1513;46.1994;12.5592;219824;221024;295.2;0;1;0.062;0.041;74785619;0.5864;0.1513;46.1994;12.5592;0.869;547.228;0;0;0;2071.79;2083.1;1;74785619;0.054631;0.295945;-2.0106;-0.284843;-0.0518353;0.94856;-0.197866;-0.440038;0.131011;74784999;47.59970957;-122.83274001;107.62023610;0.00000000;0.00000000;3.71509075;3.42757607;
74785757;81.2;28.8;25.9;0;28.8;31.8;0;0;0;0;0;0.001;0.5864;0.1513;46.1994;12.5592;219824;221024;295.2;0;1;0.062;0.04;74785708;0.5864;0.1513;46.1994;12.5592;0.869;547.228;0;0;0;2071.79;2083.1;1;74785715;0.0549458;0.295609;-2.01076;-0.289909;-0.0486104;0.948358;-0.122016;-0.019409;0.190324;74784999;47.59970957;-122.83274001;107.62023610;0.00000000;0.00000000;3.71509075;3.42757607;
74785843;81.2;28.9;26;0;28.8;31.8;0;0;0;0;0;0.001;0.5864;0.1513;46.1994;12.5592;219824;221024;295.2;0;1;0.062;0.041;74785800;0.5864;0.1513;46.1994;12.5592;0.869;547.228;0;0;0;2071.79;2083.1;1;74785800;0.0552789;0.295347;-2.01093;-0.292314;-0.0607475;0.948301;-0.14037;-0.371532;-0.0152796;74784999;47.59970957;-122.83274001;107.62023610;0.00000000;0.00000000;3.71509075;3.42757607;
74785938;81.2;28.9;26;0;28.9;31.8;0;0;0;0;0;0.001;0.5864;0.1513;46.1994;12.5592;219824;221024;295.2;0;1;0.062;0.041;74785892;0.5864;0.1513;46.1994;12.5592;0.869;547.228;0;0;0;2071.79;2083.1;1;74785892;0.0554508;0.295057;-2.01115;-0.290984;-0.0592998;0.948325;0.0113302;-0.0202479;0.10836;74784999;47.59970957;-122.83274001;107.62023610;0.00000000;0.00000000;3.71509075;3.42757607;
74786074;81.2;28.9;26;0;28.8;31.8;0;0;0;0;0;0.001;0.5864;0.1513;46.1994;12.5592;219824;221024;295.2;0;1;0.062;0.041;74785985;0.5864;0.1513;46.1994;12.5592;0.869;547.228;0;0;0;2071.79;2083.1;1;74785985;0.0555879;0.295142;-2.01134;-0.289875;-0.0562426;0.948638;-0.128134;0.11987;0.119163;74784999;47.59970957;-122.83274001;107.62023610;0.00000000;0.00000000;3.71509075;3.42757607;
74786159;81.2;28.9;26;0;28.8;31.8;0;0;0;0;0;0.001;0.5864;0.1513;46.1994;12.5592;219824;221024;295.2;0;1;0.062;0.041;74786117;0.5864;0.1513;46.1994;12.5592;0.869;547.228;0;0;0;2071.79;2083.1;1;74786159;0.0561257;0.295801;-2.01163;-0.286327;-0.0553099;0.949273;-0.26148;-0.0892801;0.203275;74784999;47.59970957;-122.83274001;107.62023610;0.00000000;0.00000000;3.71509075;3.42757607;
74786255;81.2;28.9;26;0;28.9;31.8;0;0;0;0;0;0.001;0.5864;0.1513;46.1994;12.5592;219824;221024;295.2;0;1;0.063;0.041;74786206;0.5864;0.1513;46.1994;12.5592;0.869;547.228;0;0;0;2071.79;2083.1;1;74786159;0.0561257;0.295801;-2.01163;-0.286327;-0.0553099;0.949273;-0.26148;-0.0892801;0.203275;74784999;47.59970957;-122.83274001;107.62023610;0.00000000;0.00000000;3.71509075;3.42757607;
74786345;81.2;28.8;26;0;28.8;31.8;0;0;0;0;0;0.001;0.5864;0.1513;46.1994;12.5592;219824;221024;295.2;0;1;0.063;0.041;74786295;0.5864;0.1513;46.1994;12.5592;0.869;547.228;0;0;0;2071.79;2083.1;1;74786256;0.0564573;0.295409;-2.01183;-0.285099;-0.0499132;0.949037;-0.267598;-0.369979;0.136412;74784999;47.59970957;-122.83274001;107.62023610;0.00000000;0.00000000;3.71509075;3.42757607;
74786432;81.2;28.9;26;0;28.9;31.8;0;0;0;0;0;0.001;0.5864;0.1513;46.1994;12.5592;219824;221024;295.2;0;1;0.062;0.041;74786385;0.5864;0.1513;46.1994;12.5592;0.869;547.228;0;0;0;2071.79;2083.1;1;74786345;0.0572766;0.294555;-2.0119;-0.289269;-0.0563434;0.948653;-0.495148;-0.651918;-0.0515549;74784999;47.59970957;-122.83274001;107.62023610;0.00000000;0.00000000;3.71509075;3.42757607;
74786524;81.2;28.8;26;0;28.8;31.8;0;0;0;0;0;0.001;0.5864;0.1513;46.1994;12.5592;219824;221024;295.2;0;1;0.062;0.041;74786476;0.5864;0.1513;46.1994;12.5592;0.869;547.228;0;0;0;2071.79;2083.1;1;74786433;0.0579607;0.293763;-2.01195;-0.284092;-0.0539282;0.948559;-0.495148;-0.441929;-0.0537042;74784999;47.59970957;-122.83274001;107.62023610;0.00000000;0.00000000;3.71509075;3.42757607;
74786611;81.2;28.8;25.9;0;28.8;31.8;0;0;0;0;0;0.001;0.5864;0.1513;46.1994;12.5592;219824;221024;295.2;0;1;0.062;0.041;74786571;0.5864;0.1513;46.1994;12.5592;0.869;547.228;0;0;0;2071.79;2083.1;1;74786525;0.0589574;0.292785;-2.01197;-0.284919;-0.0605135;0.948467;-0.279834;-0.441403;-0.00232815;74785999;47.59971019;-122.83274099;107.24339833;0.00000000;0.00000000;3.68919277;3.38137650;
74786703;81.2;28.8;26;0;28.8;31.8;0;0;0;0;0;0.001;0.5864;0.1513;46.1994;12.5592;219824;221024;295.2;0;1;0.062;0.041;74786661;0.5864;0.1513;46.1994;12.5592;0.869;547.228;0;0;0;2071.79;2083.1;1;74786612;0.0586631;0.293377;-2.01233;-0.283965;-0.0568411;0.949553;0.530044;0.822838;0.405584;74785999;47.59971019;-122.83274099;107.24339833;0.00000000;0.00000000;3.68919277;3.38137650;
74786799;81.2;28.8;26;0;28.8;31.8;0;0;0;0;0;0.001;0.5864;0.1513;46.1994;12.5592;219824;221024;295.2;0;1;0.062;0.04;74786754;0.5864;0.1513;46.1994;12.5592;0.869;547.228;0;0;0;2071.79;2083.1;1;74786704;0.0581572;0.293914;-2.01276;-0.284621;-0.0588125;0.950107;-0.0461662;-0.0887543;0.254651;74785999;47.59971019;-122.83274099;107.24339833;0.00000000;0.00000000;3.68919277;3.38137650;
74786882;81.2;28.8;26.1;0;28.8;31.8;0;0;0;0;0;0.001;0.5864;0.1513;46.1994;12.5592;219824;221024;295.2;0;1;0.062;0.041;74786836;0.5864;0.1513;46.1994;12.5592;0.869;547.228;0;0;0;2071.79;2083.1;1;74786835;0.0576088;0.29359;-2.0133;-0.288894;-0.0588538;0.949903;0.669509;-0.367225;0.405527;74785999;47.59971019;-122.83274099;107.24339833;0.00000000;0.00000000;3.68919277;3.38137650;
74786969;81.2;28.8;25.9;0;28.8;31.8;0;0;0;0;0;0.001;0.5864;0.1513;46.1994;12.5592;219824;221024;295.2;0;1;0.062;0.041;74786926;0.5864;0.1513;46.1994;12.5592;0.869;547.228;0;0;0;2071.79;2083.1;1;74786926;0.0564231;0.293109;-2.01387;-0.287802;-0.0581813;0.949664;0.657273;-0.158663;0.263921;74785999;47.59971019;-122.83274099;107.24339833;0.00000000;0.00000000;3.68919277;3.38137650;
74787059;81.2;28.8;26.1;0;28.8;31.8;0;0;0;0;0;0.001;0.5864;0.1513;46.1994;12.5592;219824;221024;295.2;0;1;0.062;0.04;74787018;0.5864;0.1513;46.1994;12.5592;0.869;547.228;0;0;0;2071.79;2083.1;1;74787019;0.0555654;0.292818;-2.01436;-0.290412;-0.0544105;0.949746;0.0932981;-0.228872;0.243849;74785999;47.59971019;-122.83274099;107.24339833;0.00000000;0.00000000;3.68919277;3.38137650;
74787203;81.2;28.8;26;0;28.8;31.8;0;0;0;0;0;0.001;0.5864;0.1513;46.1994;12.5592;219824;221024;295.2;0;1;0.062;0.041;74787107;0.5864;0.1513;46.1994;12.5592;0.869;547.228;0;0;0;2071.79;2083.1;1;74787107;0.0556521;0.292494;-2.0146;-0.285994;-0.0592892;0.949819;0.169148;-0.0182321;0.305311;74785999;47.59971019;-122.83274099;107.24339833;0.00000000;0.00000000;3.68919277;3.38137650;
74787284;81.2;28.8;26;0;28.9;31.8;0;0;0;0;0;0.001;0.5864;0.1513;46.1994;12.5592;219824;221024;295.2;0;1;0.062;0.04;74787249;0.5864;0.1513;46.1994;12.5592;0.869;547.227;0;0;0;2071.79;2083.1;1;74787250;0.0557506;0.292054;-2.01491;-0.285969;-0.0587411;0.949861;-0.203984;-0.440752;0.0612828;74785999;47.59971019;-122.83274099;107.24339833;0.00000000;0.00000000;3.68919277;3.38137650;
74787379;81.2;28.8;25.9;0;28.8;31.8;0;0;0;0;0;0.001;0.5864;0.1513;46.1994;12.5592;219824;221024;295.2;0;1;0.062;0.04;74787328;0.5864;0.1513;46.1994;12.5592;0.869;547.227;0;0;0;2071.79;2083.1;1;74787339;0.0560347;0.291323;-2.01505;-0.287726;-0.0538949;0.949672;-0.197866;-0.580031;0.132444;74785999;47.59971019;-122.83274099;107.24339833;0.00000000;0.00000000;3.68919277;3.38137650;
74787464;81.2;28.8;26;0;28.8;31.8;0;0;0;0;0;0.001;0.5864;0.1513;46.1994;12.5592;219824;221024;295.2;0;1;0.062;0.041;74787422;0.5864;0.1513;46.1994;12.5592;0.869;547.227;0;0;0;2071.79;2083.1;1;74787422;0.055757;0.290959;-2.01538;-0.281235;-0.0572965;0.949889;0.448077;0.0515138;0.280124;74785999;47.59971019;-122.83274099;107.24339833;0.00000000;0.00000000;3.68919277;3.38137650;
74787554;81.2;28.9;26;0;29;31.8;0;0;0;0;0;0.001;0.5864;0.1513;46.1994;12.5592;219824;221024;295.2;0;1;0.062;0.041;74787513;0.5864;0.1513;46.1994;12.5592;0.869;547.227;0;0;0;2071.79;2083.1;1;74787513;0.0550751;0.290822;-2.01587;-0.282369;-0.042561;0.950217;-0.279834;0.0485716;-0.00734297;74785999;47.59971019;-122.83274099;107.24339833;0.00000000;0.00000000;3.68919277;3.38137650;
74787644;81.2;28.8;26;0;28.8;31.8;0;0;0;0;0;0.001;0.5864;0.1513;46.1994;12.5592;219824;221024;295.2;0;1;0.062;0.041;74787601;0.5864;0.1513;46.1994;12.5592;0.869;547.227;0;0;0;2071.79;2083.1;1;74787601;0.0550572;0.291325;-2.01614;-0.283538;-0.0382484;0.950913;0.226644;0.33026;0.156154;74786999;47.59971308;-122.83273707;106.62231376;0.00000000;0.00000000;3.71761847;3.34913492;
74787734;81.2;28.8;26;0;28.8;31.8;0;0;0;0;0;0.001;0.5864;0.1513;46.1994;12.5592;219824;221024;295.2;0;1;0.062;0.041;74787694;0.5864;0.1513;46.1994;12.5592;0.869;547.227;0;0;0;2071.79;2083.1;1;74787694;0.054956;0.291505;-2.01641;-0.280126;-0.0488716;0.951045;0.0932981;0.0511132;0.240984;74786999;47.59971308;-122.83273707;106.62231376;0.00000000;0.00000000;3.71761847;3.34913492;
74787828;81.2;28.9;26;0;28.8;31.8;0;0;0;0;0;0.001;0.5864;0.1513;46.1994;12.5592;219824;221024;295.2;0;1;0.062;0.04;74787781;0.5864;0.1513;46.1994;12.5592;0.869;547.227;0;0;0;2071.79;2083.1;1;74787782;0.0548018;0.291629;-2.01668;-0.282685;-0.0440046;0.951069;0.169148;-0.158225;0.306744;74786999;47.59971308;-122.83273707;106.62231376;0.00000000;0.00000000;3.71761847;3.34913492;
74787920;81.2;28.8;26;0;28.8;31.8;0;0;0;0;0;0.001;0.5864;0.1513;46.1994;12.5592;219824;221024;295.2;0;1;0.063;0.04;74787879;0.5864;0.1513;46.1994;12.5592;0.869;547.227;0;0;0;2071.79;2083.1;1;74787879;0.0543092;0.291646;-2.01702;-0.284468;-0.0504419;0.950969;0.372227;-0.229123;0.219379;74786999;47.59971308;-122.83273707;106.62231376;0.00000000;0.00000000;3.71761847;3.34913492;
74788008;81.2;28.8;26;0;28.8;31.8;0;0;0;0;0;0.001;0.5864;0.1513;46.1994;12.5592;219824;221024;295.2;0;1;0.062;0.041;74787964;0.5864;0.1513;46.1994;12.5592;0.869;547.227;0;0;0;2071.79;2083.1;1;74787966;0.0537786;0.291711;-2.01735;-0.282967;-0.0626376;0.950925;0.593659;0.122099;0.336902;74786999;47.59971308;-122.83273707;106.62231376;0.00000000;0.00000000;3.71761847;3.34913492;
74788102;81.2;28.8;26;0;28.8;31.8;0;0;0;0;0;0.001;0.5864;0.1513;46.1994;12.5592;219824;221024;295.2;0;1;0.062;0.042;74788053;0.5864;0.1513;46.1994;12.5592;0.869;547.227;0;0;0;2071.79;2083.1;1;74788053;0.0525398;0.292412;-2.01802;-0.288297;-0.0504886;0.951315;0.739241;0.752654;0.387947;74786999;47.59971308;-122.83273707;106.62231376;0.00000000;0.00000000;3.71761847;3.34913492;
74788187;81.2;28.8;26;0;28.8;31.8;0;0;0;0;0;0.001;0.5864;0.1513;46.1994;12.5592;219824;221024;295.2;0;1;0.062;0.041;74788145;0.5864;0.1513;46.1994;12.5592;0.869;547.227;0;0;0;2071.79;2083.1;1;74788146;0.0516951;0.292999;-2.01853;-0.28834;-0.0519575;0.951262;0.23888;-0.088291;0.29991;74786999;47.59971308;-122.83273707;106.62231376;0.00000000;0.00000000;3.71761847;3.34913492;
74788320;81.2;28.9;26;0;28.8;31.8;0;0;0;0;0;0.001;0.5864;0.1513;46.1994;12.5592;219824;221024;295.2;0;1;0.062;0.041;74788230;0.5864;0.1513;46.1994;12.5592;0.869;547.227;0;0;0;2071.79;2083.1;1;74788235;0.0513155;0.293232;-2.01889;-0.285252;-0.0426687;0.95109;-0.052284;0.33051;0.180624;74786999;47.59971308;-122.83273707;106.62231376;0.00000000;0.00000000;3.71761847;3.34913492;
74788409;81.2;28.8;26;0;28.8;31.8;0;0;0;0;0;0.001;0.5864;0.1513;46.1994;12.5592;219824;221024;295.2;0;1;0.062;0.04;74788328;0.5864;0.1513;46.1994;12.5592;0.869;547.227;0;0;0;2071.79;2083.1;1;74788366;0.0518432;0.293199;-2.01897;-0.286054;-0.0543593;0.950471;-0.577116;0.046681;-0.192058;74786999;47.59971308;-122.83273707;106.62231376;0.00000000;0.00000000;3.71761847;3.34913492;
74788499;81.2;28.8;26;0;28.8;31.8;0;0;0;0;0;0.001;0.5864;0.1513;46.1994;12.5592;219824;221024;295.2;0;1;0.062;0.041;74788498;0.5864;0.1513;46.1994;12.5592;0.869;547.227;0;0;0;2071.79;2083.1;1;74788454;0.0520989;0.293029;-2.01911;-0.284109;-0.0509452;0.950083;-0.128134;0.0498737;0.119879;74786999;47.59971308;-122.83273707;106.62231376;0.00000000;0.00000000;3.71761847;3.34913492;
74788588;81.2;28.8;26;0;28.8;31.8;0;0;0;0;0;0.001;0.5864;0.1513;46.1994;12.5592;219824;221024;295.2;0;1;0.062;0.041;74788498;0.5864;0.1513;46.1994;12.5592;0.869;547.227;0;0;0;2071.79;2083.1;1;74788548;0.0521721;0.29338;-2.01936;-0.287606;-0.0468778;0.950179;-0.41318;0.609381;0.0688893;74787999;47.59970915;-122.83273414;107.01910089;0.00000000;0.00000000;3.65138435;3.24292254;
74788683;81.2;28.8;26;0;28.8;31.8;0;0;0;0;0;0.001;0.5864;0.1513;46.1994;12.5592;219824;221024;295.2;0;1;0.062;0.041;74788590;0.5864;0.1513;46.1994;12.5592;0.869;547.227;0;0;0;2071.79;2083.1;1;74788634;0.0528931;0.295418;-2.01934;-0.287717;-0.0498758;0.951393;-0.476795;2.15008;0.128974;74787999;47.59970915;-122.83273414;107.01910089;0.00000000;0.00000000;3.65138435;3.24292254;
74788770;81.2;28.8;26.1;0;28.9;31.8;0;0;0;0;0;0.001;0.5864;0.1513;46.1994;12.5592;219824;221024;295.2;0;1;0.062;0.04;74788683;0.5864;0.1513;46.1994;12.5592;0.869;547.227;0;0;0;2071.79;2083.1;1;74788725;0.0533373;0.296773;-2.01948;-0.292809;0.00822783;0.951241;-0.26148;-0.929236;0.211872;74787999;47.59970915;-122.83273414;107.01910089;0.00000000;0.00000000;3.65138435;3.24292254;
74788863;81.2;28.8;26;0;28.8;31.8;0;0;0;0;0;0.001;0.5864;0.1513;46.1994;12.5592;219824;221024;295.2;0;1;0.063;0.04;74788863;0.5864;0.1513;46.1994;12.5592;0.869;547.227;0;0;0;2071.79;2083.1;1;74788822;0.0542967;0.293508;-2.01958;-0.281985;-0.0287693;0.947954;0.130005;-2.88445;0.689443;74787999;47.59970915;-122.83273414;107.01910089;0.00000000;0.00000000;3.65138435;3.24292254;
74788953;81.2;28.8;26;0;28.8;31.8;0;0;0;0;0;0.001;0.5864;0.1513;46.1994;12.5592;219824;221024;295.2;0;1;0.062;0.042;74788863;0.5864;0.1513;46.1994;12.5592;0.869;547.227;0;0;0;2071.79;2083.1;1;74788904;0.0541292;0.293148;-2.01982;-0.290225;-0.0544458;0.948422;0.903176;0.82538;0.65391;74787999;47.59970915;-122.83273414;107.01910089;0.00000000;0.00000000;3.65138435;3.24292254;
74789084;81.2;28.9;26.1;0;28.8;31.8;0;0;0;0;0;0.001;0.5864;0.1513;46.1994;12.5592;219824;221024;295.2;0;1;0.062;0.041;74788954;0.5864;0.1513;46.1994;12.5592;0.869;547.227;0;0;0;2071.79;2083.1;1;74789039;0.0535196;0.294404;-2.02018;-0.290046;-0.061916;0.949644;0.0174481;0.260451;0.175223;74787999;47.59970915;-122.83273414;107.01910089;0.00000000;0.00000000;3.65138435;3.24292254;
74789179;81.2;28.8;26.1;0;28.8;31.8;0;0;0;0;0;0.001;0.5864;0.1513;46.1994;12.5592;219824;221024;295.2;0;1;0.063;0.04;74789178;0.5864;0.1513;46.1994;12.5592;0.869;547.227;0;0;0;2071.79;2083.1;1;74789131;0.0531493;0.2954;-2.02065;-0.293722;-0.0323418;0.940745;-1.31268;-0.277368;0.258555;74787999;47.59970915;-122.83273414;107.01910089;0.00000000;0.00000000;3.65138435;3.24292254;
74789271;81.2;28.8;26;0;28.9;31.8;0;0;0;0;0;0.001;0.5864;0.1513;46.1994;12.5592;219824;221024;295.2;0;1;0.062;0.04;74789178;0.5864;0.1513;46.1994;12.5592;0.869;547.227;0;0;0;2071.79;2083.1;1;74789221;0.0546098;0.294554;-2.0205;-0.287538;-0.0731633;0.949301;-0.704345;0.398215;-0.0439485;74787999;47.59970915;-122.83273414;107.01910089;0.00000000;0.00000000;3.65138435;3.24292254;
74789356;81.2;28.8;26;0;28.9;31.8;0;0;0;0;0;0.001;0.5864;0.1513;46.1994;12.5592;219824;221024;295.2;0;1;0.062;0.042;74789271;0.5864;0.1513;46.1994;12.5592;0.869;547.227;0;0;0;2071.79;2083.1;1;74789316;0.0543407;0.297503;-2.02061;-0.294762;-0.0563819;0.951466;0.429723;2.56924;0.0451485;74787999;47.59970915;-122.83273414;107.01910089;0.00000000;0.00000000;3.65138435;3.24292254;
74789443;81.2;28.8;26;0;28.9;31.8;0;0;0;0;0;0.001;0.5864;0.1513;46.1994;12.5592;219824;221024;295.2;0;1;0.061;0.04;74789357;0.5864;0.1513;46.1994;12.5592;0.869;547.227;0;0;0;2071.79;2083.1;1;74789403;0.0543522;0.299746;-2.02071;-0.297125;-0.064408;0.95166;-0.29207;-0.652819;-0.139636;74787999;47.59970915;-122.83273414;107.01910089;0.00000000;0.00000000;3.65138435;3.24292254;
74789539;81.2;28.8;26;0;28.9;31.8;0;0;0;0;0;0.001;0.5864;0.1513;46.1994;12.5592;219824;221024;295.2;0;1;0.062;0.039;74789448;0.5864;0.1513;46.1994;12.5592;0.869;547.227;0;0;0;2071.79;2083.1;1;74789490;0.0562915;0.296347;-2.02069;-0.290608;-0.0304962;0.947993;-1.19859;-1.91194;-0.0472132;74787999;47.59970915;-122.83273414;107.01910089;0.00000000;0.00000000;3.65138435;3.24292254;
74789628;81.2;28.8;26;0;28.8;31.8;0;0;0;0;0;0.001;0.5864;0.1513;46.1994;12.5592;219824;221024;295.2;0;1;0.061;0.042;74789627;0.5864;0.1513;46.1994;12.5592;0.869;547.229;0;0;0;2071.79;2083.1;1;74789583;0.056132;0.296794;-2.02072;-0.292878;-0.0992752;0.948752;0.359991;1.09938;0.0663105;74788999;47.59970677;-122.83273369;107.07045133;0.00000000;0.00000000;3.58806539;3.17514229;
74789718;81.2;28.8;26;0;28.8;31.8;0;0;0;0;0;0.001;0.5864;0.1513;46.1994;12.5592;219824;221024;295.2;0;1;0.062;0.04;74789627;0.5864;0.1513;46.1994;12.5592;0.869;547.229;0;0;0;2071.79;2083.1;1;74789671;0.0562226;0.296231;-2.02115;-0.289304;-0.072622;0.948239;-0.704345;-0.791722;-0.0317696;74788999;47.59970677;-122.83273369;107.07045133;0.00000000;0.00000000;3.58806539;3.17514229;
74789807;81.2;28.8;26;0;28.8;31.8;0;0;0;0;0;0.001;0.5864;0.1513;46.1994;12.5592;219824;221024;295.2;0;1;0.062;0.038;74789807;0.5864;0.1513;46.1994;12.5592;0.869;547.229;0;0;0;2071.79;2083.1;1;74789765;0.0573777;0.293216;-2.02123;-0.291385;-0.0754761;0.946517;-0.228455;-2.61349;-0.195423;74788999;47.59970677;-122.83273369;107.07045133;0.00000000;0.00000000;3.58806539;3.17514229;
74789898;81.2;28.8;26.1;0;28.8;31.8;0;0;0;0;0;0.001;0.5864;0.1513;46.1994;12.5592;219824;221024;295.2;0;1;0.062;0.041;74789807;0.5864;0.1513;46.1994;12.5592;0.869;547.229;0;0;0;2071.79;2083.1;1;74789853;0.0558425;0.290209;-2.02195;-0.282114;-0.0737615;0.946211;-0.49883;0.879375;-0.910175;74788999;47.59970677;-122.83273369;107.07045133;0.00000000;0.00000000;3.58806539;3.17514229;
74789987;81.2;28.8;26;0;28.8;31.8;0;0;0;0;0;0.001;0.5864;0.1513;46.1994;12.5592;219824;221024;295.2;0;1;0.062;0.041;74789898;0.5864;0.1513;46.1994;12.5592;0.869;547.229;0;0;0;2071.79;2083.1;1;74789944;0.0548061;0.290778;-2.02249;-0.28457;-0.0433628;0.948454;0.651155;0.120609;0.191327;74788999;47.59970677;-122.83273369;107.07045133;0.00000000;0.00000000;3.58806539;3.17514229;
74790076;81.2;28.8;26;0;28.8;31.8;0;0;0;0;0;0.001;0.5864;0.1513;46.1994;12.5592;219824;221024;295.2;0;1;0.062;0.039;74789988;0.5864;0.1513;46.1994;12.5592;0.869;547.229;0;0;0;2071.79;2083.1;1;74790029;0.0538176;0.288865;-2.02298;-0.281892;-0.0536143;0.948362;0.645037;-1.70001;0.140225;74788999;47.59970677;-122.83273369;107.07045133;0.00000000;0.00000000;3.58806539;3.17514229;
74790217;81.2;28.8;26;0;28.8;31.8;0;0;0;0;0;0.001;0.5864;0.1513;46.1994;12.5592;219824;221024;295.2;0;1;0.062;0.039;74790077;0.5864;0.1513;46.1994;12.5592;0.869;547.229;0;0;0;2071.79;2083.1;1;74790175;0.0523718;0.288556;-2.02362;-0.283726;-0.0529359;0.949828;1.16375;0.123025;0.427419;74788999;47.59970677;-122.83273369;107.07045133;0.00000000;0.00000000;3.58806539;3.17514229;
74790301;81.2;28.8;26;0;28.8;31.8;0;0;0;0;0;0.001;0.5864;0.1513;46.1994;12.5592;219824;221024;295.2;0;1;0.061;0.027;74790217;0.5864;0.1513;46.1994;12.5592;0.869;547.229;0;0;0;2071.79;2083.1;1;74790259;0.0511651;0.281853;-2.02448;-0.279923;-0.0449395;0.94719;-0.380155;-5.90462;-0.288974;74788999;47.59970677;-122.83273369;107.07045133;0.00000000;0.00000000;3.58806539;3.17514229;
74790393;81.2;28.8;26;0;28.8;31.8;0;0;0;0;0;0.002;0.5864;0.1513;46.1994;12.5592;219824;221024;295.2;0;1;0.059;0.017;74790301;0.5864;0.1513;46.1994;12.5592;0.869;547.229;0;0;0;2071.79;2083.1;1;74790353;0.0514166;0.264654;-2.02475;-0.267308;-0.124955;0.938833;2.07027;-16.1869;0.514813;74788999;47.59970677;-122.83273369;107.07045133;0.00000000;0.00000000;3.58806539;3.17514229;
