ms_today;input_voltage;temp_mos_max;temp_mos_1;temp_mos_2;temp_mos_3;temp_motor;current_motor;current_in;d_axis_current;q_axis_current;erpm;duty_cycle;amp_hours_used;amp_hours_charged;watt_hours_used;watt_hours_charged;tachometer;tachometer_abs;encoder_position;fault_code;vesc_id;d_axis_voltage;q_axis_voltage;ms_today_setup;amp_hours_setup;amp_hours_charged_setup;watt_hours_setup;watt_hours_charged_setup;battery_level;battery_wh_tot;current_in_setup;current_motor_setup;speed_meters_per_sec;tacho_meters;tacho_abs_meters;num_vescs;ms_today_imu;roll;pitch;yaw;accX;accY;accZ;gyroX;gyroY;gyroZ;gnss_posTime;gnss_lat;gnss_lon;gnss_alt;gnss_gVel;gnss_vVel;gnss_hAcc;gnss_vAcc;
84434485;77;34.8;34.5;0;34.8;58.5;0;0;-0.01;-0.06;0;-0.001;3.3785;0.6235;259.19;50.1928;915653;931557;115.2;0;1;0.004;-0.049;84434481;3.3785;0.6235;259.19;50.1928;0.56;352.621;0;0;0;8629.83;8779.72;1;84382462;-0.00327637;0.29101;-2.25095;-0.291913;-0.0148883;0.948235;-1.72954;0.0434008;-0.512549;84433000;47.61238885;-122.74888127;104.10543441;0.00000000;0.00000000;4.04414272;3.00000000;
84434578;77;34.7;34.5;0;34.8;58.5;0;0;0;0;0;-0.001;3.3785;0.6235;259.19;50.1928;915653;931557;115.2;0;1;-0.061;-0.041;84434481;3.3785;0.6235;259.19;50.1928;0.56;352.621;0;0;0;8629.83;8779.72;1;84434529;0.050327;0.359132;0.743522;-0.353542;-0.0535985;0.928955;0.181384;0.0531915;0.444051;84433000;47.61238885;-122.74888127;104.10543441;0.00000000;0.00000000;4.04414272;3.00000000;
84434671;77;34.8;34.4;0;34.9;58.5;0;0;0;0;0;-0.001;3.3785;0.6235;259.19;50.1928;915653;931557;115.2;0;1;-0.061;-0.042;84434578;3.3785;0.6235;259.19;50.1928;0.56;352.624;0;0;0;8629.83;8779.72;1;84434619;0.0503115;0.359368;0.74314;-0.349934;-0.052716;0.928874;-0.0461662;-0.0187579;0.253935;84433000;47.61238885;-122.74888127;104.10543441;0.00000000;0.00000000;4.04414272;3.00000000;
84434754;77;34.7;34.4;0;34.8;58.5;0;0;0;0;0;-0.001;3.3785;0.6235;259.19;50.1928;915653;931557;115.2;0;1;-0.062;-0.041;84434672;3.3785;0.6235;259.19;50.1928;0.56;352.637;0;0;0;8629.83;8779.72;1;84434710;0.0506085;0.359519;0.742843;-0.348621;-0.053653;0.928754;-0.18563;0.261353;0.263304;84433000;47.61238885;-122.74888127;104.10543441;0.00000000;0.00000000;4.04414272;3.00000000;
84434843;77;34.7;34.5;0;34.8;58.5;0;0;0;0;0;-0.001;3.3785;0.6235;259.19;50.1928;915653;931557;115.2;0;1;-0.062;-0.041;84434842;3.3785;0.6235;259.19;50.1928;0.56;352.654;0;0;0;8629.83;8779.72;1;84434809;0.0508507;0.359675;0.742516;-0.349678;-0.0541501;0.928671;-0.115898;0.051301;0.259336;84434000;47.61238885;-122.74888127;104.25885882;0.00000000;0.00000000;4.04402924;3.00000000;
84434932;77;34.7;34.4;0;34.8;58.5;0;0;0;0;0;-0.001;3.3785;0.6235;259.19;50.1928;915653;931557;115.2;0;1;-0.062;-0.042;84434842;3.3785;0.6235;259.19;50.1928;0.56;352.654;0;0;0;8629.83;8779.72;1;84434891;0.0510226;0.359439;0.742183;-0.350582;-0.0594518;0.928389;0.0174481;-0.159527;0.179522;84434000;47.61238885;-122.74888127;104.25885882;0.00000000;0.00000000;4.04402924;3.00000000;
84435028;77;34.8;34.4;0;34.7;58.5;0;0;0;0;0;-0.001;3.3785;0.6235;259.19;50.1928;915653;931557;115.2;0;1;-0.062;-0.041;84434933;3.3785;0.6235;259.19;50.1928;0.56;352.659;0;0;0;8629.83;8779.72;1;84434985;0.0510444;0.359288;0.741775;-0.350565;-0.0512114;0.928281;0.0296837;-0.1581;0.318979;84434000;47.61238885;-122.74888127;104.25885882;0.00000000;0.00000000;4.04402924;3.00000000;
84435162;77;34.7;34.5;0;34.7;58.5;0;0;0;0;0;-0.001;3.3785;0.6235;259.19;50.1928;915653;931557;115.2;0;1;-0.061;-0.042;84435029;3.3785;0.6235;259.19;50.1928;0.56;352.664;0;0;0;8629.83;8779.72;1;84435112;0.0511408;0.359156;0.741398;-0.34538;-0.0516088;0.928273;0.0296837;0.191882;0.315397;84434943;47.61145070;-122.76580860;0.00000000;0.00000000;0.00000000;899.99902344;0.00000000;
84435253;77;34.7;34.5;0;34.8;58.5;0;0;0;0;0;-0.001;3.3785;0.6235;259.19;50.1928;915653;931557;115.2;0;1;-0.061;-0.041;84435163;3.3785;0.6235;259.19;50.1928;0.56;352.691;0;0;0;8629.83;8779.72;1;84435214;0.0529395;0.358421;0.741257;-0.34143;-0.0879748;0.927869;-0.780195;0.117579;-0.104694;84434943;47.61145070;-122.76580860;0.00000000;0.00000000;0.00000000;899.99902344;0.00000000;
84435338;77;34.7;34.4;0;34.7;58.5;0;0;0;0;0;-0.001;3.3785;0.6235;259.19;50.1928;915653;931557;115.2;0;1;-0.062;-0.041;84435254;3.3785;0.6235;259.19;50.1928;0.56;352.698;0;0;0;8629.83;8779.72;1;84435297;0.0528562;0.359696;0.740708;-0.347376;-0.0632365;0.929107;-0.115898;0.401283;0.255754;84434943;47.61145070;-122.76580860;0.00000000;0.00000000;0.00000000;899.99902344;0.00000000;
84435430;77;34.7;34.4;0;34.7;58.5;0;0;0;0;0;-0.001;3.3785;0.6235;259.19;50.1928;915653;931557;115.2;0;1;-0.062;-0.041;84435339;3.3785;0.6235;259.19;50.1928;0.56;352.7;0;0;0;8629.83;8779.72;1;84435390;0.0531165;0.359624;0.740411;-0.349038;-0.0745704;0.928971;0.372227;0.330848;0.213648;84434943;47.61145070;-122.76580860;0.00000000;0.00000000;0.00000000;899.99902344;0.00000000;
84435522;77;34.7;34.4;0;34.7;58.5;0;0;0;0;0;-0.001;3.3785;0.6235;259.19;50.1928;915653;931557;115.2;0;1;-0.062;-0.042;84435521;3.3785;0.6235;259.19;50.1928;0.56;352.721;0;0;0;8629.83;8779.72;1;84435480;0.0526299;0.359893;0.73984;-0.34758;-0.0555407;0.929011;0.31473;-0.227633;0.364954;84434943;47.61145070;-122.76580860;0.00000000;0.00000000;0.00000000;899.99902344;0.00000000;
84435607;77;34.7;34.4;0;34.7;58.5;0;0;0;0;0;-0.001;3.3785;0.6235;259.19;50.1928;915653;931557;115.2;0;1;-0.062;-0.042;84435521;3.3785;0.6235;259.19;50.1928;0.56;352.721;0;0;0;8629.83;8779.72;1;84435566;0.0521195;0.359516;0.739296;-0.348621;-0.0570689;0.928632;0.39058;-0.366974;0.429997;84434943;47.61145070;-122.76580860;0.00000000;0.00000000;0.00000000;899.99902344;0.00000000;
84435699;77;34.7;34.5;0;34.7;58.5;0;0;0;0;0;-0.001;3.3785;0.6235;259.19;50.1928;915653;931557;115.2;0;1;-0.061;-0.041;84435607;3.3785;0.6235;259.19;50.1928;0.56;352.736;0;0;0;8629.83;8779.72;1;84435656;0.051808;0.359097;0.73883;-0.353337;-0.0473453;0.928424;0.169148;-0.158225;0.306744;84434943;47.61145070;-122.76580860;0.00000000;0.00000000;0.00000000;899.99902344;0.00000000;
84435793;77;34.7;34.4;0;34.7;58.5;0;0;0;0;0;-0.001;3.3785;0.6235;259.19;50.1928;915653;931557;115.2;0;1;-0.062;-0.042;84435700;3.3785;0.6235;259.19;50.1928;0.56;352.743;0;0;0;8629.83;8779.72;1;84435745;0.0516457;0.358756;0.738394;-0.347426;-0.0496099;0.928271;0.0932981;-0.228872;0.243849;84434943;47.61145070;-122.76580860;0.00000000;0.00000000;0.00000000;899.99902344;0.00000000;
84435923;77;34.7;34.4;0;34.8;58.5;0;0;0;0;0;-0.001;3.3785;0.6235;259.19;50.1928;915653;931557;115.2;0;1;-0.061;-0.042;84435922;3.3785;0.6235;259.19;50.1928;0.56;352.775;0;0;0;8629.83;8779.72;1;84435878;0.0514406;0.358379;0.737764;-0.350053;-0.0511517;0.928307;0.105534;-0.0174558;0.381157;84435000;47.61238885;-122.74888127;104.50476639;0.00000000;0.00000000;4.30361176;3.00000000;
84436011;77;34.7;34.4;0;34.7;58.5;0;0;0;0;0;-0.001;3.3785;0.6235;259.19;50.1928;915653;931557;115.2;0;1;-0.061;-0.042;84435922;3.3785;0.6235;259.19;50.1928;0.56;352.775;0;0;0;8629.83;8779.72;1;84435973;0.0511661;0.358628;0.737324;-0.351512;-0.0516384;0.928631;0.226644;0.190267;0.157587;84435000;47.61238885;-122.74888127;104.50476639;0.00000000;0.00000000;4.30361176;3.00000000;
84436112;77;34.7;34.4;0;34.7;58.5;0;0;0;0;0;-0.001;3.3785;0.6235;259.19;50.1928;915653;931557;115.2;0;1;-0.062;-0.042;84436020;3.3785;0.6235;259.19;50.1928;0.56;352.794;0;0;0;8629.83;8779.72;1;84436062;0.050874;0.358553;0.736819;-0.350284;-0.0491695;0.928662;0.169148;-0.228221;0.30746;84435000;47.61238885;-122.74888127;104.50476639;0.00000000;0.00000000;4.30361176;3.00000000;
84436236;77;34.7;34.4;0;34.7;58.5;0;0;0;0;0;-0.001;3.3785;0.6235;259.19;50.1928;915653;931557;115.2;0;1;-0.061;-0.041;84436112;3.3785;0.6235;259.19;50.1928;0.56;352.821;0;0;0;8629.83;8779.72;1;84436156;0.0507659;0.35841;0.73641;-0.349226;-0.0462326;0.928715;-0.122016;-0.019409;0.190324;84435000;47.61238885;-122.74888127;104.50476639;0.00000000;0.00000000;4.30361176;3.00000000;
84436380;77;34.7;34.4;0;34.7;58.5;0;0;0;0;0;-0.001;3.3785;0.6235;259.19;50.1928;915653;931557;115.2;0;1;-0.062;-0.042;84436237;3.3785;0.6235;259.19;50.1928;0.56;352.848;0;0;0;8629.83;8779.72;1;84436327;0.0509812;0.358421;0.735927;-0.351068;-0.0496919;0.928792;0.244998;-0.437559;0.37322;84435000;47.61238885;-122.74888127;104.50476639;0.00000000;0.00000000;4.30361176;3.00000000;
84436465;77;34.7;34.4;0;34.7;58.5;0;0;0;0;0;-0.001;3.3785;0.6235;259.19;50.1928;915653;931557;115.2;0;1;-0.062;-0.042;84436381;3.3785;0.6235;259.19;50.1928;0.561;352.871;0;0;0;8629.83;8779.72;1;84436422;0.0505303;0.357562;0.735226;-0.345405;-0.0541088;0.928502;0.175266;-0.0175184;0.375039;84435000;47.61238885;-122.74888127;104.50476639;0.00000000;0.00000000;4.30361176;3.00000000;
84436553;77;34.7;34.4;0;34.8;58.5;0;0;0;0;0;-0.001;3.3785;0.6235;259.19;50.1928;915653;931557;115.2;0;1;-0.061;-0.041;84436466;3.3785;0.6235;259.19;50.1928;0.561;352.88;0;0;0;8629.83;8779.72;1;84436506;0.0503287;0.357542;0.734812;-0.348535;-0.0487633;0.928785;0.232762;-0.0190084;0.229465;84435000;47.61238885;-122.74888127;104.50476639;0.00000000;0.00000000;4.30361176;3.00000000;
84436643;77;34.7;34.4;0;34.8;58.5;0;0;0;0;0;-0.001;3.3785;0.6235;259.19;50.1928;915653;931557;115.2;0;1;-0.061;-0.041;84436554;3.3785;0.6235;259.19;50.1928;0.561;352.897;0;0;0;8629.83;8779.72;1;84436604;0.0502916;0.357719;0.734422;-0.34781;-0.0555104;0.929216;0.0235659;0.331161;0.244235;84435000;47.61238885;-122.74888127;104.50476639;0.00000000;0.00000000;4.30361176;3.00000000;
84436738;77;34.7;34.4;0;34.7;58.5;0;0;0;0;0;-0.001;3.3785;0.6235;259.19;50.1928;915653;931557;115.2;0;1;-0.061;-0.041;84436648;3.3785;0.6235;259.19;50.1928;0.561;352.925;0;0;0;8629.83;8779.72;1;84436689;0.0501966;0.358062;0.734029;-0.346906;-0.0477688;0.929636;0.169148;0.191757;0.303162;84435000;47.61238885;-122.74888127;104.50476639;0.00000000;0.00000000;4.30361176;3.00000000;
84436822;77;34.7;34.4;0;34.7;58.5;0;0;0;0;0;-0.001;3.3785;0.6235;259.19;50.1928;915653;931557;115.2;0;1;-0.061;-0.042;84436822;3.3785;0.6235;259.19;50.1928;0.561;352.976;0;0;0;8629.83;8779.72;1;84436778;0.050073;0.358189;0.733614;-0.344902;-0.0512366;0.929724;0.23888;-0.158287;0.300626;84436000;47.61238885;-122.74888127;104.70480229;0.00000000;0.00000000;4.30346060;3.00000000;
84436913;77;34.7;34.4;0;34.7;58.5;0;0;0;0;0;-0.001;3.3785;0.6235;259.19;50.1928;915653;931557;115.2;0;1;-0.062;-0.041;84436822;3.3785;0.6235;259.19;50.1928;0.561;352.976;0;0;0;8629.83;8779.72;1;84436870;0.0497478;0.358062;0.733158;-0.348023;-0.0579752;0.929626;0.23888;0.121698;0.297761;84436000;47.61238885;-122.74888127;104.70480229;0.00000000;0.00000000;4.30346060;3.00000000;
84437003;77;34.7;34.6;0;34.7;58.5;0;0;0;0;0;-0.001;3.3785;0.6235;259.19;50.1928;915653;931557;115.2;0;1;-0.061;-0.041;84436913;3.3785;0.6235;259.19;50.1928;0.561;353.002;0;0;0;8629.83;8779.72;1;84436957;0.0493723;0.358172;0.732652;-0.350599;-0.052565;0.929694;0.320848;0.0530663;0.431816;84436000;47.61238885;-122.74888127;104.70480229;0.00000000;0.00000000;4.30346060;3.00000000;
84437094;77;34.7;34.4;0;34.7;58.5;0;0;0;0;0;-0.001;3.3785;0.6235;259.19;50.1928;915653;931557;115.2;0;1;-0.061;-0.042;84437003;3.3785;0.6235;259.19;50.1928;0.561;353.019;0;0;0;8629.83;8779.72;1;84437051;0.0491229;0.35832;0.73217;-0.347879;-0.0521597;0.929731;0.0994159;-0.0181695;0.311428;84436000;47.61238885;-122.74888127;104.70480229;0.00000000;0.00000000;4.30346060;3.00000000;
84437188;77;34.7;34.4;0;34.7;58.5;0;0;0;0;0;-0.001;3.3785;0.6235;259.19;50.1928;915653;931557;115.2;0;1;-0.062;-0.041;84437095;3.3785;0.6235;259.19;50.1928;0.561;353.025;0;0;0;8629.83;8779.72;1;84437137;0.0489451;0.358327;0.731701;-0.346983;-0.0457116;0.929667;0.0994159;0.0518268;0.310712;84436000;47.61238885;-122.74888127;104.70480229;0.00000000;0.00000000;4.30346060;3.00000000;
84437271;77;34.7;34.4;0;34.7;58.5;0;0;0;0;0;-0.001;3.3785;0.6235;259.19;50.1928;915653;931557;115.2;0;1;-0.062;-0.041;84437188;3.3785;0.6235;259.19;50.1928;0.561;353.031;0;0;0;8629.83;8779.72;1;84437227;0.0490435;0.358524;0.731315;-0.344936;-0.0452705;0.929709;-0.26148;0.190705;0.20041;84436000;47.61238885;-122.74888127;104.70480229;0.00000000;0.00000000;4.30346060;3.00000000;
84437363;77;34.7;34.4;0;34.7;58.5;0;0;0;0;0;-0.001;3.3785;0.6235;259.19;50.1928;915653;931557;115.2;0;1;-0.062;-0.042;84437272;3.3785;0.6235;259.19;50.1928;0.561;353.05;0;0;0;8629.83;8779.72;1;84437319;0.0497716;0.358804;0.731144;-0.347751;-0.0516568;0.929765;-0.115898;-0.0186953;0.260052;84436000;47.61238885;-122.74888127;104.70480229;0.00000000;0.00000000;4.30346060;3.00000000;
84437499;77;34.7;34.4;0;34.8;58.5;0;0;0;0;0;-0.001;3.3785;0.6235;259.19;50.1928;915653;931557;115.2;0;1;-0.062;-0.042;84437364;3.3785;0.6235;259.19;50.1928;0.561;353.07;0;0;0;8629.83;8779.72;1;84437498;0.049848;0.358765;0.730801;-0.351051;-0.0497471;0.929544;0.0932981;-0.0188832;0.2417;84436000;47.61238885;-122.74888127;104.70480229;0.00000000;0.00000000;4.30346060;3.00000000;
84437597;77;34.7;34.4;0;34.7;58.5;0;0;0;0;0;-0.001;3.3785;0.6235;259.19;50.1928;915653;931557;115.2;0;1;-0.062;-0.041;84437549;3.3785;0.6235;259.19;50.1928;0.561;353.115;0;0;0;8629.83;8779.72;1;84437498;0.049848;0.358765;0.730801;-0.351051;-0.0497471;0.929544;0.0932981;-0.0188832;0.2417;84436000;47.61238885;-122.74888127;104.70480229;0.00000000;0.00000000;4.30346060;3.00000000;
84437678;77;34.7;34.4;0;34.7;58.5;0;0;0;0;0;-0.001;3.3785;0.6235;259.19;50.1928;915653;931557;115.2;0;1;-0.061;-0.042;84437631;3.3785;0.6235;259.19;50.1928;0.561;353.122;0;0;0;8629.83;8779.72;1;84437599;0.0495081;0.358969;0.729964;-0.351264;-0.0531878;0.929423;0.105534;0.0525405;0.38044;84436000;47.61238885;-122.74888127;104.70480229;0.00000000;0.00000000;4.30346060;3.00000000;
84437769;77;34.7;34.4;0;34.7;58.5;0;0;0;0;0;-0.001;3.3785;0.6235;259.19;50.1928;915653;931557;115.2;0;1;-0.062;-0.041;84437726;3.3785;0.6235;259.19;50.1928;0.561;353.145;0;0;0;8629.83;8779.72;1;84437679;0.0493791;0.359119;0.729555;-0.348953;-0.0486978;0.929362;0.0358015;0.192596;0.385125;84436000;47.61238885;-122.74888127;104.70480229;0.00000000;0.00000000;4.30346060;3.00000000;
84437861;77;34.7;34.3;0;34.7;58.5;0;0;0;0;0;-0.001;3.3785;0.6235;259.19;50.1928;915653;931557;115.2;0;1;-0.062;-0.042;84437811;3.3785;0.6235;259.19;50.1928;0.561;353.168;0;0;0;8629.83;8779.72;1;84437771;0.0492973;0.35923;0.729142;-0.350522;-0.0575501;0.92926;0.175266;0.0524779;0.374323;84437000;47.61238885;-122.74888127;104.87967201;0.00000000;0.00000000;4.30330849;3.00000000;
84437953;77;34.7;34.3;0;34.7;58.5;0;0;0;0;0;-0.001;3.3785;0.6235;259.19;50.1928;915653;931557;115.2;0;1;-0.062;-0.042;84437905;3.3785;0.6235;259.19;50.1928;0.561;353.198;0;0;0;8629.83;8779.72;1;84437862;0.049404;0.359282;0.728788;-0.348467;-0.05309;0.929112;0.0296837;-0.0181069;0.317546;84437000;47.61238885;-122.74888127;104.87967201;0.00000000;0.00000000;4.30330849;3.00000000;
84438037;77;34.7;34.4;0;34.7;58.5;0;0;0;0;0;-0.001;3.3785;0.6235;259.19;50.1928;915653;931557;115.2;0;1;-0.061;-0.041;84437995;3.3785;0.6235;259.19;50.1928;0.561;353.224;0;0;0;8629.83;8779.72;1;84437953;0.0494405;0.359233;0.728414;-0.347793;-0.0555656;0.928989;0.0174481;-0.0895306;0.178805;84437000;47.61238885;-122.74888127;104.87967201;0.00000000;0.00000000;4.30330849;3.00000000;
84438128;77;34.7;34.4;0;34.7;58.5;0;0;0;0;0;-0.001;3.3785;0.6235;259.19;50.1928;915653;931557;115.2;0;1;-0.061;-0.041;84438083;3.3785;0.6235;259.19;50.1928;0.561;353.231;0;0;0;8629.83;8779.72;1;84438038;0.049535;0.359121;0.728048;-0.347281;-0.0486742;0.92881;0.0994159;-0.158162;0.312861;84437000;47.61238885;-122.74888127;104.87967201;0.00000000;0.00000000;4.30330849;3.00000000;
84438228;77;34.7;34.4;0;34.7;58.5;0;0;0;0;0;-0.001;3.3785;0.6235;259.19;50.1928;915653;931557;115.2;0;1;-0.062;-0.042;84438171;3.3785;0.6235;259.19;50.1928;0.561;353.242;0;0;0;8629.83;8779.72;1;84438129;0.0495022;0.358985;0.727656;-0.347554;-0.0515768;0.928703;0.175266;-0.0175184;0.375039;84437000;47.61238885;-122.74888127;104.87967201;0.00000000;0.00000000;4.30330849;3.00000000;
84438306;77;34.7;34.4;0;34.7;58.5;0;0;0;0;0;-0.001;3.3785;0.6235;259.19;50.1928;915653;931557;115.2;0;1;-0.061;-0.042;84438267;3.3785;0.6235;259.19;50.1928;0.561;353.25;0;0;0;8629.83;8779.72;1;84438229;0.0493416;0.359004;0.727227;-0.350753;-0.0521521;0.928729;0.156912;-0.0896558;0.16657;84437000;47.61238885;-122.74888127;104.87967201;0.00000000;0.00000000;4.30330849;3.00000000;
84438396;77;34.7;34.4;0;34.7;58.5;0;0;0;0;0;-0.001;3.3785;0.6235;259.19;50.1928;915653;931557;115.2;0;1;-0.062;-0.041;84438363;3.3785;0.6235;259.19;50.1928;0.561;353.252;0;0;0;8629.83;8779.72;1;84438311;0.0492797;0.358905;0.726854;-0.349422;-0.0565601;0.928718;0.0932981;-0.228872;0.243849;84437000;47.61238885;-122.74888127;104.87967201;0.00000000;0.00000000;4.30330849;3.00000000;
84438494;77;34.7;34.4;0;34.8;58.5;0;0;0;0;0;-0.001;3.3785;0.6235;259.19;50.1928;915653;931557;115.2;0;1;-0.062;-0.042;84438446;3.3785;0.6235;259.19;50.1928;0.561;353.26;0;0;0;8629.83;8779.72;1;84438397;0.0493162;0.358804;0.726469;-0.349593;-0.0551161;0.928823;0.0871803;-0.0195968;0.171971;84437000;47.61238885;-122.74888127;104.87967201;0.00000000;0.00000000;4.30330849;3.00000000;
84438578;77;34.7;34.4;0;34.7;58.5;0;0;0;0;0;-0.001;3.3785;0.6235;259.19;50.1928;915653;931557;115.2;0;1;-0.062;-0.041;84438538;3.3785;0.6235;259.19;50.1928;0.561;353.26;0;0;0;8629.83;8779.72;1;84438494;0.0493784;0.35872;0.726067;-0.350923;-0.0565638;0.928941;-0.0400484;0.0519521;0.322947;84437000;47.61238885;-122.74888127;104.87967201;0.00000000;0.00000000;4.30330849;3.00000000;
84438671;77;34.7;34.4;0;34.7;58.5;0;0;0;0;0;-0.001;3.3785;0.6235;259.19;50.1928;915653;931557;115.2;0;1;-0.062;-0.042;84438628;3.3785;0.6235;259.19;50.1928;0.561;353.26;0;0;0;8629.83;8779.72;1;84438579;0.0494431;0.358788;0.725686;-0.353942;-0.0545641;0.929082;-0.0461662;-0.0887543;0.254651;84437000;47.61238885;-122.74888127;104.87967201;0.00000000;0.00000000;4.30330849;3.00000000;
84438763;77;34.7;34.4;0;34.7;58.5;0;0;0;0;0;-0.001;3.3785;0.6235;259.19;50.1928;915653;931557;115.2;0;1;-0.062;-0.042;84438721;3.3785;0.6235;259.19;50.1928;0.561;353.261;0;0;0;8629.83;8779.72;1;84438672;0.0499326;0.358803;0.725412;-0.352766;-0.0536794;0.929113;-0.122016;-0.019409;0.190324;84437000;47.61238885;-122.74888127;104.87967201;0.00000000;0.00000000;4.30330849;3.00000000;
84438855;77;34.7;34.4;0;34.7;58.5;0;0;0;0;0;-0.001;3.3785;0.6235;259.19;50.1928;915653;931557;115.2;0;1;-0.062;-0.042;84438855;3.3785;0.6235;259.19;50.1928;0.561;353.265;0;0;0;8629.83;8779.72;1;84438765;0.0500883;0.358681;0.725002;-0.34839;-0.0580751;0.929003;-0.0400484;-0.0880406;0.32438;84438000;47.61242731;-122.74884524;104.92398446;0.00000000;0.00000000;4.30315733;3.00000000;
84438946;77;34.7;34.4;0;34.7;58.5;0;0;0;0;0;-0.001;3.3785;0.6235;259.19;50.1928;915653;931557;115.2;0;1;-0.062;-0.042;84438855;3.3785;0.6235;259.19;50.1928;0.561;353.265;0;0;0;8629.83;8779.72;1;84438855;0.0503595;0.358583;0.724637;-0.344936;-0.0516142;0.928977;-0.394827;0.0515515;0.283806;84438000;47.61242731;-122.74884524;104.92398446;0.00000000;0.00000000;4.30315733;3.00000000;
84439027;77;34.7;34.4;0;34.7;58.5;0;0;0;0;0;-0.001;3.3785;0.6235;259.19;50.1928;915653;931557;115.2;0;1;-0.061;-0.041;84439027;3.3785;0.6235;259.19;50.1928;0.561;353.274;0;0;0;8629.83;8779.72;1;84438947;0.0507438;0.358529;0.724374;-0.35135;-0.0605173;0.92895;0.16303;-0.0889421;0.236299;84438000;47.61242731;-122.74884524;104.92398446;0.00000000;0.00000000;4.30315733;3.00000000;
84439118;77;34.7;34.4;0;34.7;58.5;0;0;0;0;0;-0.001;3.3785;0.6235;259.19;50.1928;915653;931557;115.2;0;1;-0.062;-0.042;84439027;3.3785;0.6235;259.19;50.1928;0.561;353.274;0;0;0;8629.83;8779.72;1;84439028;0.0506722;0.358231;0.723935;-0.349908;-0.0546078;0.92874;0.0296837;-0.228096;0.319695;84438000;47.61242731;-122.74884524;104.92398446;0.00000000;0.00000000;4.30315733;3.00000000;
84439215;77;34.7;34.4;0;34.7;58.5;0;0;0;0;0;-0.001;3.3785;0.6235;259.19;50.1928;915653;931557;115.2;0;1;-0.061;-0.042;84439118;3.3785;0.6235;259.19;50.1928;0.561;353.279;0;0;0;8629.83;8779.72;1;84439119;0.0505546;0.358125;0.723514;-0.34665;-0.047251;0.928788;0.169148;0.0517642;0.304595;84438000;47.61242731;-122.74884524;104.92398446;0.00000000;0.00000000;4.30315733;3.00000000;
84439343;77;34.7;34.4;0;34.7;58.5;0;0;0;0;0;-0.001;3.3785;0.6235;259.19;50.1928;915653;931557;115.2;0;1;-0.062;-0.042;84439300;3.3785;0.6235;259.19;50.1928;0.561;353.288;0;0;0;8629.83;8779.72;1;84439301;0.0506671;0.358236;0.723021;-0.342377;-0.0564812;0.929064;0.0296837;0.121886;0.316113;84438000;47.61242731;-122.74884524;104.92398446;0.00000000;0.00000000;4.30315733;3.00000000;
84439431;77;34.7;34.4;0;34.6;58.5;0;0;0;0;0;-0.001;3.3785;0.6235;259.19;50.1928;915653;931557;115.2;0;1;-0.062;-0.041;84439387;3.3785;0.6235;259.19;50.1928;0.561;353.299;0;0;0;8629.83;8779.72;1;84439388;0.050431;0.358347;0.722385;-0.350053;-0.0506638;0.929199;0.31473;0.0523527;0.362088;84438000;47.61242731;-122.74884524;104.92398446;0.00000000;0.00000000;4.30315733;3.00000000;
84439528;77;34.7;34.4;0;34.7;58.5;0;0;0;0;0;-0.001;3.3785;0.6235;259.19;50.1928;915653;931557;115.2;0;1;-0.062;-0.041;84439478;3.3785;0.6235;259.19;50.1928;0.561;353.309;0;0;0;8629.83;8779.72;1;84439521;0.0501071;0.358554;0.721735;-0.346906;-0.0575283;0.929314;0.302494;-0.019071;0.223347;84438000;47.61242731;-122.74884524;104.92398446;0.00000000;0.00000000;4.30315733;3.00000000;
84439616;77;34.7;34.4;0;34.7;58.5;0;0;0;0;0;-0.001;3.3785;0.6235;259.19;50.1928;915653;931557;115.2;0;1;-0.061;-0.041;84439569;3.3785;0.6235;259.19;50.1928;0.561;353.32;0;0;0;8629.83;8779.72;1;84439521;0.0501071;0.358554;0.721735;-0.346906;-0.0575283;0.929314;0.302494;-0.019071;0.223347;84438000;47.61242731;-122.74884524;104.92398446;0.00000000;0.00000000;4.30315733;3.00000000;
84439707;77;34.7;34.4;0;34.7;58.5;0;0;0;0;0;-0.001;3.3785;0.6235;259.19;50.1928;915653;931557;115.2;0;1;-0.062;-0.041;84439658;3.3785;0.6235;259.19;50.1928;0.561;353.324;0;0;0;8629.83;8779.72;1;84439658;0.0498841;0.358614;0.721314;-0.349294;-0.0516654;0.929265;0.169148;-0.0182321;0.305311;84438000;47.61242731;-122.74884524;104.92398446;0.00000000;0.00000000;4.30315733;3.00000000;
84439804;77;34.7;34.4;0;34.7;58.5;0;0;0;0;0;-0.001;3.3785;0.6235;259.19;50.1928;915653;931557;115.2;0;1;-0.062;-0.041;84439765;3.3785;0.6235;259.19;50.1928;0.561;353.329;0;0;0;8629.83;8779.72;1;84439766;0.0499068;0.358695;0.720723;-0.347606;-0.0546249;0.929344;-0.0400484;-0.0180443;0.323663;84438000;47.61242731;-122.74884524;104.92398446;0.00000000;0.00000000;4.30315733;3.00000000;
84439888;77;34.7;34.4;0;34.6;58.5;0;0;0;0;0;-0.001;3.3785;0.6235;259.19;50.1928;915653;931557;115.2;0;1;-0.062;-0.042;84439848;3.3785;0.6235;259.19;50.1928;0.561;353.344;0;0;0;8629.83;8779.72;1;84439849;0.0499936;0.358747;0.720371;-0.350036;-0.0516949;0.929314;0.0296837;0.0518895;0.31683;84439000;47.61242731;-122.74884524;104.95935293;0.00000000;0.00000000;4.01775312;3.00000000;
84439975;77;34.7;34.4;0;34.7;58.5;0;0;0;0;0;-0.001;3.3785;0.6235;259.19;50.1928;915653;931557;115.2;0;1;-0.062;-0.042;84439927;3.3785;0.6235;259.19;50.1928;0.561;353.362;0;0;0;8629.83;8779.72;1;84439928;0.0501011;0.358784;0.720007;-0.350079;-0.0556036;0.929156;-0.122016;-0.0894053;0.19104;84439000;47.61242731;-122.74884524;104.95935293;0.00000000;0.00000000;4.01775312;3.00000000;
84440068;77;34.7;34.3;0;34.7;58.5;0;0;0;0;0;-0.001;3.3785;0.6235;259.19;50.1928;915653;931557;115.2;0;1;-0.062;-0.041;84440023;3.3785;0.6235;259.19;50.1928;0.561;353.369;0;0;0;8629.83;8779.72;1;84440023;0.0503235;0.358789;0.719689;-0.347136;-0.0501784;0.929025;-0.122016;-0.019409;0.190324;84439000;47.61242731;-122.74884524;104.95935293;0.00000000;0.00000000;4.01775312;3.00000000;
84440155;77;34.7;34.4;0;34.6;58.5;0;0;0;0;0;-0.001;3.3785;0.6235;259.19;50.1928;915653;931557;115.2;0;1;-0.062;-0.042;84440114;3.3785;0.6235;259.19;50.1928;0.561;353.398;0;0;0;8629.83;8779.72;1;84440115;0.0505484;0.358607;0.71939;-0.349652;-0.0492102;0.928814;-0.26148;-0.0892801;0.203275;84439000;47.61242731;-122.74884524;104.95935293;0.00000000;0.00000000;4.01775312;3.00000000;
84440274;77;34.7;34.4;0;34.7;58.5;0;0;0;0;0;-0.001;3.3785;0.6235;259.19;50.1928;915653;931557;115.2;0;1;-0.061;-0.041;84440198;3.3785;0.6235;259.19;50.1928;0.561;353.407;0;0;0;8629.83;8779.72;1;84440198;0.0508817;0.358553;0.719135;-0.351426;-0.0560202;0.928769;-0.0400484;-0.0880406;0.32438;84439000;47.61242731;-122.74884524;104.95935293;0.00000000;0.00000000;4.01775312;3.00000000;
84440336;77;34.7;34.4;0;34.6;58.4;0;0;0;0;0;-0.001;3.3785;0.6235;259.19;50.1928;915653;931557;115.2;0;1;-0.062;-0.042;84440294;3.3785;0.6235;259.19;50.1928;0.561;353.424;0;0;0;8629.83;8779.72;1;84440294;0.051014;0.358668;0.718757;-0.350292;-0.0551405;0.928816;0.0235659;-0.0888169;0.248534;84439000;47.61242731;-122.74884524;104.95935293;0.00000000;0.00000000;4.01775312;3.00000000;
84440428;77;34.7;34.4;0;34.7;58.4;0;0;0;0;0;-0.001;3.3785;0.6235;259.19;50.1928;915653;931557;115.2;0;1;-0.062;-0.042;84440427;3.3785;0.6235;259.19;50.1928;0.561;353.44;0;0;0;8629.83;8779.72;1;84440427;0.0508964;0.358637;0.718371;-0.351793;-0.058072;0.928715;0.384462;0.0522901;0.355971;84439000;47.61242731;-122.74884524;104.95935293;0.00000000;0.00000000;4.01775312;3.00000000;
84440514;77;34.7;34.4;0;34.7;58.4;0;0;0;0;0;-0.001;3.3785;0.6235;259.19;50.1928;915653;931557;115.2;0;1;-0.061;-0.041;84440514;3.3785;0.6235;259.19;50.1928;0.561;353.456;0;0;0;8629.83;8779.72;1;84440427;0.0508964;0.358637;0.718371;-0.351793;-0.058072;0.928715;0.384462;0.0522901;0.355971;84439000;47.61242731;-122.74884524;104.95935293;0.00000000;0.00000000;4.01775312;3.00000000;
84440609;77;34.7;34.4;0;34.7;58.4;0;0;0;0;0;-0.001;3.3785;0.6235;259.19;50.1928;915653;931557;115.2;0;1;-0.062;-0.042;84440514;3.3785;0.6235;259.19;50.1928;0.561;353.456;0;0;0;8629.83;8779.72;1;84440515;0.0505144;0.358798;0.717655;-0.345337;-0.048188;0.928849;0.0235659;0.191168;0.245668;84439000;47.61242731;-122.74884524;104.95935293;0.00000000;0.00000000;4.01775312;3.00000000;
84440700;77;34.6;34.4;0;34.6;58.5;0;0;0;0;0;-0.001;3.3785;0.6235;259.19;50.1928;915653;931557;115.2;0;1;-0.062;-0.042;84440610;3.3785;0.6235;259.19;50.1928;0.561;353.465;0;0;0;8629.83;8779.72;1;84440611;0.0506688;0.359059;0.717297;-0.353269;-0.0526479;0.928998;-0.0461662;0.191231;0.251786;84439000;47.61242731;-122.74884524;104.95935293;0.00000000;0.00000000;4.01775312;3.00000000;
84440787;77;34.7;34.4;0;34.7;58.4;0;0;0;0;0;-0.001;3.3785;0.6235;259.19;50.1928;915653;931557;115.2;0;1;-0.062;-0.042;84440738;3.3785;0.6235;259.19;50.1928;0.561;353.467;0;0;0;8629.83;8779.72;1;84440739;0.0509325;0.359334;0.716811;-0.350522;-0.0541343;0.928982;0.0174481;0.0504621;0.177373;84439000;47.61242731;-122.74884524;104.95935293;0.00000000;0.00000000;4.01775312;3.00000000;
84440881;77;34.7;34.4;0;34.7;58.4;0;0;0;0;0;-0.001;3.3785;0.6235;259.19;50.1928;915653;931557;115.2;0;1;-0.062;-0.041;84440836;3.3785;0.6235;259.19;50.1928;0.561;353.468;0;0;0;8629.83;8779.72;1;84440836;0.0509278;0.359242;0.716393;-0.346463;-0.05119;0.928797;-0.0461662;-0.0887543;0.254651;84440000;47.61242731;-122.74884524;105.01644117;0.00000000;0.00000000;4.30285406;3.00000000;
84440967;77;34.7;34.4;0;34.7;58.4;0;0;0;0;0;-0.001;3.3785;0.6235;259.19;50.1928;915653;931557;115.2;0;1;-0.062;-0.042;84440926;3.3785;0.6235;259.19;50.1928;0.561;353.471;0;0;0;8629.83;8779.72;1;84440927;0.05087;0.359005;0.715961;-0.348211;-0.0511083;0.928542;0.0932981;-0.228872;0.243849;84440000;47.61242731;-122.74884524;105.01644117;0.00000000;0.00000000;4.30285406;3.00000000;
84441067;77;34.7;34.4;0;34.6;58.4;0;0;0;0;0;-0.001;3.3785;0.6235;259.19;50.1928;915653;931557;115.2;0;1;-0.062;-0.042;84441016;3.3785;0.6235;259.19;50.1928;0.561;353.478;0;0;0;8629.83;8779.72;1;84441066;0.051192;0.35887;0.715535;-0.352996;-0.0546251;0.928537;-0.109781;-0.157974;0.331214;84440000;47.61242731;-122.74884524;105.01644117;0.00000000;0.00000000;4.30285406;3.00000000;
84441193;77;34.7;34.3;0;34.7;58.4;0;0;0;0;0;-0.001;3.3785;0.6235;259.19;50.1928;915653;931557;115.2;0;1;-0.062;-0.042;84441146;3.3785;0.6235;259.19;50.1928;0.561;353.479;0;0;0;8629.83;8779.72;1;84441066;0.051192;0.35887;0.715535;-0.352996;-0.0546251;0.928537;-0.109781;-0.157974;0.331214;84440000;47.61242731;-122.74884524;105.01644117;0.00000000;0.00000000;4.30285406;3.00000000;
84441283;77;34.7;34.4;0;34.7;58.4;0;0;0;0;0;-0.001;3.3785;0.6235;259.19;50.1928;915653;931557;115.2;0;1;-0.062;-0.041;84441238;3.3785;0.6235;259.19;50.1928;0.561;353.482;0;0;0;8629.83;8779.72;1;84441194;0.0515014;0.358659;0.715102;-0.34625;-0.0555569;0.928621;0.0994159;-0.158162;0.312861;84440000;47.61242731;-122.74884524;105.01644117;0.00000000;0.00000000;4.30285406;3.00000000;
84441368;77;34.7;34.3;0;34.6;58.4;0;0;0;0;0;-0.001;3.3785;0.6235;259.19;50.1928;915653;931557;115.2;0;1;-0.062;-0.042;84441328;3.3785;0.6235;259.19;50.1928;0.561;353.485;0;0;0;8629.83;8779.72;1;84441283;0.0514956;0.358675;0.714732;-0.349081;-0.0579842;0.928738;0.169148;-0.0182321;0.305311;84440000;47.61242731;-122.74884524;105.01644117;0.00000000;0.00000000;4.30285406;3.00000000;
84441460;77;34.7;34.4;0;34.7;58.4;0;0;0;0;0;-0.001;3.3785;0.6235;259.19;50.1928;915653;931557;115.2;0;1;-0.062;-0.041;84441419;3.3785;0.6235;259.19;50.1928;0.561;353.486;0;0;0;8629.83;8779.72;1;84441369;0.0513018;0.358718;0.714252;-0.348936;-0.0521688;0.92885;0.175266;-0.0175184;0.375039;84440000;47.61242731;-122.74884524;105.01644117;0.00000000;0.00000000;4.30285406;3.00000000;
84441555;77;34.7;34.4;0;34.6;58.4;0;0;0;0;0;-0.001;3.3785;0.6235;259.19;50.1928;915653;931557;115.2;0;1;-0.062;-0.042;84441513;3.3785;0.6235;259.19;50.1928;0.561;353.494;0;0;0;8629.83;8779.72;1;84441461;0.0512106;0.358724;0.713823;-0.351725;-0.0541031;0.928982;-0.0461662;-0.0187579;0.253935;84440000;47.61242731;-122.74884524;105.01644117;0.00000000;0.00000000;4.30285406;3.00000000;
84441686;77;34.7;34.4;0;34.7;58.4;0;0;0;0;0;-0.001;3.3785;0.6235;259.19;50.1928;915653;931557;115.2;0;1;-0.062;-0.041;84441598;3.3785;0.6235;259.19;50.1928;0.562;353.511;0;0;0;8629.83;8779.72;1;84441597;0.0512687;0.358864;0.713234;-0.35071;-0.0531231;0.929193;0.0419194;0.123313;0.45557;84440000;47.61242731;-122.74884524;105.01644117;0.00000000;0.00000000;4.30285406;3.00000000;
84441777;77;34.7;34.3;0;34.7;58.4;0;0;0;0;0;-0.001;3.3785;0.6235;259.19;50.1928;915653;931557;115.2;0;1;-0.062;-0.042;84441739;3.3785;0.6235;259.19;50.1928;0.562;353.527;0;0;0;8629.83;8779.72;1;84441740;0.0510055;0.358482;0.712564;-0.348723;-0.0526319;0.928889;0.23888;-0.368276;0.302775;84440000;47.61242731;-122.74884524;105.01644117;0.00000000;0.00000000;4.30285406;3.00000000;
84441915;77;34.6;34.3;0;34.6;58.4;0;0;0;0;0;-0.001;3.3785;0.6235;259.19;50.1928;915653;931557;115.2;0;1;-0.062;-0.042;84441827;3.3785;0.6235;259.19;50.1928;0.562;353.537;0;0;0;8629.83;8779.72;1;84441827;0.0508479;0.358198;0.712114;-0.344322;-0.0515997;0.928817;0.16303;-0.228935;0.237732;84441000;47.61242731;-122.74884524;105.09454232;0.00000000;0.00000000;4.30270290;3.00000000;
84442042;77;34.7;34.4;0;34.7;58.4;0;0;0;0;0;-0.001;3.3785;0.6235;259.19;50.1928;915653;931557;115.2;0;1;-0.062;-0.042;84442000;3.3785;0.6235;259.19;50.1928;0.562;353.57;0;0;0;8629.83;8779.72;1;84441918;0.0506476;0.357969;0.711649;-0.349311;-0.05649;0.928801;0.378344;-0.0884163;0.287675;84441000;47.61242731;-122.74884524;105.09454232;0.00000000;0.00000000;4.30270290;3.00000000;
84442136;77;34.7;34.3;0;34.7;58.4;0;0;0;0;0;-0.001;3.3785;0.6235;259.19;50.1928;915653;931557;115.2;0;1;-0.062;-0.041;84442093;3.3785;0.6235;259.19;50.1928;0.562;353.581;0;0;0;8629.83;8779.72;1;84442050;0.0499602;0.357732;0.710878;-0.349465;-0.0507094;0.928829;0.384462;-0.0877026;0.357403;84441000;47.61242731;-122.74884524;105.09454232;0.00000000;0.00000000;4.30270290;3.00000000;
84442226;77;34.6;34.3;0;34.6;58.4;0;0;0;0;0;-0.001;3.3785;0.6235;259.19;50.1928;915653;931557;115.2;0;1;-0.062;-0.042;84442184;3.3785;0.6235;259.19;50.1928;0.562;353.595;0;0;0;8629.83;8779.72;1;84442137;0.0497639;0.35775;0.710446;-0.349593;-0.0512123;0.929005;0.0932981;0.0511132;0.240984;84441000;47.61242731;-122.74884524;105.09454232;0.00000000;0.00000000;4.30270290;3.00000000;
84442315;77;34.6;34.3;0;34.6;58.4;0;0;0;0;0;-0.001;3.3785;0.6235;259.19;50.1928;915653;931557;115.2;0;1;-0.062;-0.041;84442267;3.3785;0.6235;259.19;50.1928;0.562;353.621;0;0;0;8629.83;8779.72;1;84442227;0.0497497;0.357679;0.710051;-0.348638;-0.052134;0.929103;-0.052284;-0.0894679;0.184923;84441000;47.61242731;-122.74884524;105.09454232;0.00000000;0.00000000;4.30270290;3.00000000;
84442448;77;34.6;34.3;0;34.7;58.4;0;0;0;0;0;-0.001;3.3785;0.6235;259.19;50.1928;915653;931557;115.2;0;1;-0.062;-0.041;84442405;3.3785;0.6235;259.19;50.1928;0.562;353.632;0;0;0;8629.83;8779.72;1;84442366;0.0497878;0.357708;0.709676;-0.349166;-0.0506746;0.929306;0.0235659;-0.0188206;0.247817;84441000;47.61242731;-122.74884524;105.09454232;0.00000000;0.00000000;4.30270290;3.00000000;
84442544;77;34.6;34.3;0;34.7;58.4;0;0;0;0;0;-0.001;3.3785;0.6235;259.19;50.1928;915653;931557;115.2;0;1;-0.062;-0.042;84442495;3.3785;0.6235;259.19;50.1928;0.562;353.664;0;0;0;8629.83;8779.72;1;84442450;0.0498221;0.35764;0.70913;-0.346318;-0.0546461;0.929443;0.0296837;0.0518895;0.31683;84441000;47.61242731;-122.74884524;105.09454232;0.00000000;0.00000000;4.30270290;3.00000000;
84442634;77;34.6;34.3;0;34.6;58.4;0;0;0;0;0;-0.001;3.3785;0.6235;259.19;50.1928;915653;931557;115.2;0;1;-0.061;-0.042;84442589;3.3785;0.6235;259.19;50.1928;0.562;353.676;0;0;0;8629.83;8779.72;1;84442545;0.0499175;0.357596;0.70876;-0.346377;-0.053132;0.929472;-0.0400484;0.0519521;0.322947;84441000;47.61242731;-122.74884524;105.09454232;0.00000000;0.00000000;4.30270290;3.00000000;
84442722;77;34.6;34.4;0;34.6;58.4;0;0;0;0;0;-0.001;3.3785;0.6235;259.19;50.1928;915653;931557;115.2;0;1;-0.062;-0.041;84442721;3.3785;0.6235;259.19;50.1928;0.562;353.701;0;0;0;8629.83;8779.72;1;84442635;0.0500062;0.357536;0.70838;-0.346736;-0.0516527;0.929476;0.0235659;-0.0188206;0.247817;84441000;47.61242731;-122.74884524;105.09454232;0.00000000;0.00000000;4.30270290;3.00000000;
84442815;77;34.7;34.4;0;34.7;58.4;0;0;0;0;0;-0.001;3.3785;0.6235;259.19;50.1928;915653;931557;115.2;0;1;-0.062;-0.042;84442721;3.3785;0.6235;259.19;50.1928;0.562;353.701;0;0;0;8629.83;8779.72;1;84442723;0.0499514;0.357539;0.707937;-0.347691;-0.0502431;0.929532;0.0932981;-0.0888795;0.242416;84441000;47.61242731;-122.74884524;105.09454232;0.00000000;0.00000000;4.30270290;3.00000000;
84442898;77;34.6;34.3;0;34.6;58.4;0;0;0;0;0;-0.001;3.3785;0.6235;259.19;50.1928;915653;931557;115.2;0;1;-0.061;-0.041;84442816;3.3785;0.6235;259.19;50.1928;0.562;353.709;0;0;0;8629.83;8779.72;1;84442816;0.0499583;0.357605;0.707571;-0.347981;-0.0565063;0.929574;0.169148;0.0517642;0.304595;84442000;47.61242731;-122.74884524;105.16081803;0.00000000;0.00000000;4.01747370;3.00000000;
84442987;77;34.6;34.4;0;34.6;58.4;0;0;0;0;0;-0.001;3.3785;0.6235;259.19;50.1928;915653;931557;115.2;0;1;-0.062;-0.041;84442899;3.3785;0.6235;259.19;50.1928;0.562;353.711;0;0;0;8629.83;8779.72;1;84442900;0.0498232;0.357799;0.707143;-0.351469;-0.0574891;0.929599;0.232762;0.050988;0.228748;84442000;47.61242731;-122.74884524;105.16081803;0.00000000;0.00000000;4.01747370;3.00000000;
84443078;77;34.6;34.4;0;34.6;58.4;0;0;0;0;0;-0.001;3.3785;0.6235;259.19;50.1928;915653;931557;115.2;0;1;-0.062;-0.042;84442987;3.3785;0.6235;259.19;50.1928;0.562;353.719;0;0;0;8629.83;8779.72;1;84442991;0.0496655;0.357972;0.706703;-0.350778;-0.0517243;0.929592;0.0994159;-0.0181695;0.311428;84442000;47.61242731;-122.74884524;105.16081803;0.00000000;0.00000000;4.01747370;3.00000000;
84443170;77;34.6;34.3;0;34.6;58.4;0;0;0;0;0;-0.001;3.3785;0.6235;259.19;50.1928;915653;931557;115.2;0;1;-0.061;-0.041;84443078;3.3785;0.6235;259.19;50.1928;0.562;353.728;0;0;0;8629.83;8779.72;1;84443079;0.0497014;0.357737;0.706317;-0.348424;-0.053573;0.92946;0.0358015;-0.0873896;0.387991;84442000;47.61242731;-122.74884524;105.16081803;0.00000000;0.00000000;4.01747370;3.00000000;
84443269;77;34.6;34.3;0;34.6;58.4;0;0;0;0;0;-0.001;3.3785;0.6235;259.19;50.1928;915653;931557;115.2;0;1;-0.062;-0.042;84443171;3.3785;0.6235;259.19;50.1928;0.562;353.735;0;0;0;8629.83;8779.72;1;84443171;0.04971;0.357813;0.705933;-0.346488;-0.05369;0.929546;-0.128134;-0.0201226;0.120595;84442000;47.61242731;-122.74884524;105.16081803;0.00000000;0.00000000;4.01747370;3.00000000;
84443392;77;34.6;34.3;0;34.6;58.4;0;0;0;0;0;-0.001;3.3785;0.6235;259.19;50.1928;915653;931557;115.2;0;1;-0.062;-0.042;84443392;3.3785;0.6235;259.19;50.1928;0.562;353.744;0;0;0;8629.83;8779.72;1;84443270;0.0497908;0.357761;0.705548;-0.347179;-0.057503;0.929439;0.0419194;0.123313;0.45557;84442000;47.61242731;-122.74884524;105.16081803;0.00000000;0.00000000;4.01747370;3.00000000;
84443490;77;34.6;34.3;0;34.8;58.4;0;0;0;0;0;-0.001;3.3785;0.6235;259.19;50.1928;915653;931557;115.2;0;1;-0.062;-0.042;84443392;3.3785;0.6235;259.19;50.1928;0.562;353.744;0;0;0;8629.83;8779.72;1;84443394;0.0498474;0.357893;0.705165;-0.350539;-0.0491994;0.929496;0.0174481;0.0504621;0.177373;84442000;47.61242731;-122.74884524;105.16081803;0.00000000;0.00000000;4.01747370;3.00000000;
84443575;77;34.6;34.4;0;34.6;58.4;0;0;0;0;0;-0.001;3.3785;0.6235;259.19;50.1928;915653;931557;115.2;0;1;-0.061;-0.041;84443490;3.3785;0.6235;259.19;50.1928;0.562;353.749;0;0;0;8629.83;8779.72;1;84443491;0.0505499;0.359152;0.704695;-0.345327;-0.0528689;0.930191;-1.05912;2.14772;-0.101;84442000;47.61242731;-122.74884524;105.16081803;0.00000000;0.00000000;4.01747370;3.00000000;
84443662;77;34.6;34.4;0;34.6;58.4;0;0;0;0;0;-0.001;3.3785;0.6235;259.19;50.1928;915653;931557;115.2;0;1;-0.061;-0.042;84443576;3.3785;0.6235;259.19;50.1928;0.562;353.756;0;0;0;8629.83;8779.72;1;84443576;0.0510041;0.360597;0.704643;-0.348151;-0.0474569;0.930437;-0.267598;-0.859953;0.141427;84442000;47.61242731;-122.74884524;105.16081803;0.00000000;0.00000000;4.01747370;3.00000000;
84443753;77;34.6;34.3;0;34.6;58.4;0;0;0;0;0;-0.001;3.3785;0.6235;259.19;50.1928;915653;931557;115.2;0;1;-0.062;-0.042;84443663;3.3785;0.6235;259.19;50.1928;0.562;353.767;0;0;0;8629.83;8779.72;1;84443663;0.0509677;0.358386;0.704092;-0.349046;-0.0225911;0.928286;0.203419;-2.24592;1.51974;84442000;47.61242731;-122.74884524;105.16081803;0.00000000;0.00000000;4.01747370;3.00000000;
84443847;77;34.6;34.3;0;34.6;58.4;0;0;0;0;0;-0.001;3.3785;0.6235;259.19;50.1928;915653;931557;115.2;0;1;-0.061;-0.041;84443754;3.3785;0.6235;259.19;50.1928;0.562;353.775;0;0;0;8629.83;8779.72;1;84443754;0.0508717;0.357568;0.703564;-0.347452;-0.0186419;0.928106;0.181384;0.403173;0.440469;84443000;47.61242731;-122.74884524;105.24464746;0.00000000;0.00000000;4.26239491;3.00000000;
84443938;77;34.6;34.3;0;34.6;58.4;0;0;0;0;0;-0.001;3.3785;0.6235;259.19;50.1928;915653;931557;115.2;0;1;-0.061;-0.042;84443848;3.3785;0.6235;259.19;50.1928;0.562;353.779;0;0;0;8629.83;8779.72;1;84443889;0.0523662;0.358379;0.703405;-0.345106;-0.0530145;0.929047;-1.32582;1.16945;0.0729571;84443000;47.61242731;-122.74884524;105.24464746;0.00000000;0.00000000;4.26239491;3.00000000;
84444024;77;34.6;34.3;0;34.6;58.4;0;0;0;0;0;-0.001;3.3785;0.6235;259.19;50.1928;915653;931557;115.2;0;1;-0.061;-0.042;84443939;3.3785;0.6235;259.19;50.1928;0.562;353.779;0;0;0;8629.83;8779.72;1;84443979;0.053457;0.35953;0.703436;-0.344773;-0.0672412;0.929659;0.497019;-0.782733;0.846549;84443000;47.61242731;-122.74884524;105.24464746;0.00000000;0.00000000;4.26239491;3.00000000;
84444113;77;34.6;34.3;0;34.6;58.4;0;0;0;0;0;-0.001;3.3785;0.6235;259.19;50.1928;915653;931557;115.2;0;1;-0.061;-0.042;84444026;3.3785;0.6235;259.19;50.1928;0.562;353.779;0;0;0;8629.83;8779.72;1;84444068;0.0538181;0.358188;0.702953;-0.353209;-0.0361069;0.928328;0.99738;-2.39166;0.959661;84443000;47.61242731;-122.74884524;105.24464746;0.00000000;0.00000000;4.26239491;3.00000000;
84444292;77;34.6;34.4;0;34.6;58.4;0;0;0;0;0;-0.001;3.3785;0.6235;259.19;50.1928;915653;931557;115.2;0;1;-0.062;-0.041;84444203;3.3785;0.6235;259.19;50.1928;0.562;353.791;0;0;0;8629.83;8779.72;1;84444161;0.0545156;0.357802;0.702895;-0.342224;-0.0827568;0.928486;-0.528173;0.262379;0.36362;84443000;47.61242731;-122.74884524;105.24464746;0.00000000;0.00000000;4.26239491;3.00000000;
84444386;77;34.6;34.3;0;34.6;58.4;0;0;0;0;0;-0.001;3.3785;0.6235;259.19;50.1928;915653;931557;115.2;0;1;-0.061;-0.041;84444343;3.3785;0.6235;259.19;50.1928;0.562;353.806;0;0;0;8629.83;8779.72;1;84444293;0.0541857;0.359478;0.702311;-0.353132;-0.0249889;0.929736;0.636483;0.40708;0.822135;84443000;47.61242731;-122.74884524;105.24464746;0.00000000;0.00000000;4.26239491;3.00000000;
84444471;77;34.6;34.3;0;34.7;58.4;0;0;0;0;0;-0.001;3.3785;0.6235;259.19;50.1928;915653;931557;115.2;0;1;-0.061;-0.042;84444427;3.3785;0.6235;259.19;50.1928;0.562;353.813;0;0;0;8629.83;8779.72;1;84444387;0.0530263;0.359875;0.701509;-0.347853;-0.0850796;0.907076;0.505573;0.12002;0.133834;84443000;47.61242731;-122.74884524;105.24464746;0.00000000;0.00000000;4.26239491;3.00000000;
84444564;77;34.6;34.3;0;34.7;58.4;0;0;0;0;0;-0.001;3.3785;0.6235;259.19;50.1928;915653;931557;115.2;0;1;-0.063;-0.042;84444522;3.3785;0.6235;259.19;50.1928;0.562;353.813;0;0;0;8629.83;8779.72;1;84444521;0.0523372;0.359843;0.700891;-0.348356;-0.0679449;0.92926;0.0174481;0.190455;0.17594;84443000;47.61242731;-122.74884524;105.24464746;0.00000000;0.00000000;4.26239491;3.00000000;
84444657;77;34.6;34.3;0;34.8;58.4;0;0;0;0;0;-0.001;3.3785;0.6235;259.19;50.1928;915653;931557;115.2;0;1;-0.062;-0.043;84444614;3.3785;0.6235;259.19;50.1928;0.562;353.815;0;0;0;8629.83;8779.72;1;84444615;0.0533809;0.35882;0.700644;-0.351896;-0.0485531;0.928346;-0.628495;-1.49103;0.0390054;84443000;47.61242731;-122.74884524;105.24464746;0.00000000;0.00000000;4.26239491;3.00000000;
84444747;77;34.6;34.4;0;34.7;58.4;0;0;0;0;0;-0.001;3.3785;0.6235;259.19;50.1928;915653;931557;115.2;0;1;-0.063;-0.045;84444701;3.3785;0.6235;259.19;50.1928;0.562;353.818;0;0;0;8629.83;8779.72;1;84444701;0.0551609;0.354583;0.700684;-0.353346;-0.0128979;0.925731;-2.74861;-4.86046;-0.864856;84443000;47.61242731;-122.74884524;105.24464746;0.00000000;0.00000000;4.26239491;3.00000000;
84444834;77;34.6;34.3;0;34.6;58.4;0;0;0;0;0;-0.001;3.3785;0.6235;259.19;50.1928;915653;931557;115.2;0;1;-0.062;-0.049;84444796;3.3785;0.6235;259.19;50.1928;0.562;353.826;0;0;0;8629.83;8779.72;1;84444796;0.0671372;0.338369;0.704795;-0.343897;0.00948191;0.916894;-15.3604;-18.3611;-6.71767;84444000;47.61242731;-122.74884524;105.55826632;0.00000000;0.00000000;4.37326241;3.00000000;
84444927;77;34.6;34.4;0;34.6;58.4;0;0;0;0;0;-0.002;3.3785;0.6235;259.19;50.1928;915653;931557;115.2;0;1;-0.06;-0.035;84444885;3.3785;0.6235;259.19;50.1928;0.562;353.845;0;0;0;8629.83;8779.72;1;84444886;0.120551;0.296079;0.720216;-0.407463;-0.202307;0.902483;-43.9276;-39.681;-17.3448;84444000;47.61242731;-122.74884524;105.55826632;0.00000000;0.00000000;4.37326241;3.00000000;
84445012;77;34.6;34.2;0;34.6;58.4;-0.6;0;0;0.64;-87;0;3.3785;0.6235;259.19;50.1929;915653;931557;74.7007;0;1;-0.068;-0.164;84444976;3.3785;0.6235;259.19;50.1928;0.562;353.847;0;0;0;8629.83;8779.72;1;84444976;0.174158;0.204278;0.72699;-0.0142446;-0.384845;0.883945;5.99352;-60.9979;-7.17102;84444000;47.61242731;-122.74884524;105.55826632;0.00000000;0.00000000;4.37326241;3.00000000;
84445107;77;34.6;34.3;0;34.6;58.4;-5.75;-0.02;-0.19;5.78;-119;-0.012;3.3785;0.6235;259.19;50.1929;915651;931559;345.006;0;1;-0.055;-0.245;84445064;3.3785;0.6235;259.19;50.1929;0.562;353.851;0;-5.76;-0.01;8629.82;8779.73;1;84445064;0.140461;0.091688;0.712774;0.0840892;-0.0956012;0.87691;26.1854;-74.546;2.86129;84444000;47.61242731;-122.74884524;105.55826632;0.00000000;0.00000000;4.37326241;3.00000000;
84445236;76.2;34.6;34.3;0;34.6;58.4;41.67;2.7;-0.13;42.19;8;0.102;3.3786;0.6235;259.194;50.1929;915650;931560;295.2;0;1;0.209;2.551;84445147;3.3786;0.6235;259.19;50.1929;0.562;353.756;2.12;41.24;0;8629.8;8779.75;1;84445154;0.0965515;-0.0221952;0.690954;-0.404898;0.0987642;0.880133;31.2917;-61.2122;-0.744913;84444000;47.61242731;-122.74884524;105.55826632;0.00000000;0.00000000;4.37326241;3.00000000;
84445329;76.1;34.6;34.3;0;34.6;58.3;57.49;5.75;0.1;57.45;440;0.122;3.3788;0.6235;259.21;50.1929;915656;931566;265.388;0;1;-0.312;4.761;84445288;3.3788;0.6235;259.205;50.1929;0.559;352.031;5.76;54.74;0.278;8629.83;8779.77;1;84445288;0.0630033;-0.0756475;0.715163;-0.14359;-0.00965202;0.919045;-12.8648;-12.6581;-10.3681;84444000;47.61242731;-122.74884524;105.55826632;0.00000000;0.00000000;4.37326241;3.00000000;
84445420;75.8;34.6;34.3;0;34.6;58.3;53.88;6.15;0.02;53.92;627;0.146;3.379;0.6235;259.223;50.1929;915662;931572;276.187;0;1;-0.407;5.458;84445379;3.3789;0.6235;259.216;50.1929;0.557;350.814;6.25;54.18;0.514;8629.88;8779.83;1;84445379;0.0787549;-0.0878414;0.727829;-0.164158;-0.0175865;0.949794;-11.9974;-9.39449;-6.1207;84444000;47.61242731;-122.74884524;105.55826632;0.00000000;0.00000000;4.37326241;3.00000000;
84445513;76.1;34.6;34.4;0;34.6;58.3;53.91;6.66;0.11;53.81;795;0.147;3.3791;0.6235;259.234;50.1929;915669;931579;350.333;0;1;-0.588;6.008;84445469;3.3791;0.6235;259.229;50.1929;0.555;349.315;6.44;53.97;0.668;8629.94;8779.89;1;84445470;0.109203;-0.101824;0.725662;0.00471898;0.127411;0.9779;-16.7257;-11.0522;-3.93207;84444000;47.61242731;-122.74884524;105.55826632;0.00000000;0.00000000;4.37326241;3.00000000;
84445604;76.2;34.6;34.4;0;34.6;58.3;43.26;5.13;-0.04;43.2;937;0.136;3.3793;0.6235;259.244;50.1929;915678;931588;170.553;0;1;-0.587;5.805;84445554;3.3792;0.6235;259.24;50.1929;0.553;348.058;5.02;43.23;0.857;8630.02;8779.97;1;84445555;0.124276;-0.100358;0.737351;0.231638;-0.349922;1.00009;-1.40903;11.511;-1.7824;84444000;47.61242731;-122.74884524;105.55826632;0.00000000;0.00000000;4.37326241;3.00000000;
84445695;76;34.6;34.4;0;34.6;58.3;48.26;6.01;0.05;48.31;950;0.155;3.3794;0.6235;259.257;50.1929;915687;931597;358.13;0;1;-0.606;6.064;84445643;3.3793;0.6235;259.25;50.1929;0.551;347.004;6.44;51.08;0.908;8630.11;8780.06;1;84445644;0.0874283;-0.0866403;0.754666;-0.190291;-0.219364;1.01746;29.1678;0.73336;-15.1768;84444000;47.61242731;-122.74884524;105.55826632;0.00000000;0.00000000;4.37326241;3.00000000;
84445780;75.8;34.6;34.3;0;34.6;58.3;51.71;7.12;0.12;51.71;1083;0.188;3.3796;0.6235;259.269;50.1929;915697;931607;212.979;0;1;-0.846;6.735;84445738;3.3795;0.6235;259.263;50.1929;0.549;345.658;7.43;52.55;0.974;8630.19;8780.14;1;84445738;0.0549872;-0.0873893;0.76865;-0.143957;-0.17245;1.02211;18.2885;-6.36006;-3.74934;84444000;47.61242731;-122.74884524;105.55826632;0.00000000;0.00000000;4.37326241;3.00000000;
84445870;75.6;34.6;34.4;0;34.6;58.3;55.87;8.43;-0.02;55.87;1199;0.185;3.3798;0.6235;259.285;50.1929;915709;931619;183.405;0;1;-1.055;7.402;84445827;3.3797;0.6235;259.278;50.1929;0.547;344.066;8.17;55.22;1.069;8630.3;8780.25;1;84445827;0.0329737;-0.0934177;0.769234;0.0487892;-0.429867;1.02341;17.7344;-5.66799;9.15206;84445000;47.61244140;-122.74882586;105.04972844;0.49235484;0.00000000;4.50769711;3.00000000;
84445961;75.1;34.7;34.4;0;34.6;58.3;59.53;9.81;0.09;59.58;1324;0.213;3.38;0.6235;259.303;50.1929;915720;931630;177.566;0;1;-1.341;8.051;84445921;3.3799;0.6235;259.293;50.1929;0.544;342.324;8.2;53.6;1.195;8630.4;8780.35;1;84445921;0.0320759;-0.0910551;0.740873;0.0681325;0.112586;1.02437;-6.1101;-3.41508;24.0809;84445000;47.61244140;-122.74882586;105.04972844;0.49235484;0.00000000;4.50769711;3.00000000;
84446055;75;34.7;34.4;0;34.7;58.3;63.61;11.57;0;63.55;1545;0.234;3.3803;0.6235;259.325;50.1929;915735;931645;320.455;0;1;-1.713;8.961;84446002;3.3802;0.6235;259.313;50.1929;0.54;340.11;11.85;58.59;1.364;8630.52;8780.47;1;84446012;0.0398482;-0.0979948;0.719235;-0.257566;0.212594;1.0241;7.31973;-15.654;-2.12967;84445000;47.61244140;-122.74882586;105.04972844;0.49235484;0.00000000;4.50769711;3.00000000;
84446137;75.2;34.7;34.5;0;34.7;58.3;63.62;12.38;0.18;63.51;1746;0.251;3.3807;0.6235;259.349;50.1929;915751;931661;216.347;0;1;-2.238;9.609;84446094;3.3805;0.6235;259.336;50.1929;0.536;337.707;12.78;63.61;1.566;8630.67;8780.62;1;84446095;-0.0143073;-0.120694;0.754907;0.064017;-0.0744583;1.01877;61.8389;-5.54531;-33.5795;84445000;47.61244140;-122.74882586;105.04972844;0.49235484;0.00000000;4.50769711;3.00000000;
84446227;74.3;34.8;34.4;0;34.7;58.3;69.87;14.64;0.12;69.98;1854;0.26;3.381;0.6235;259.376;50.1929;915768;931678;152.647;0;1;-2.808;10.272;84446187;3.3808;0.6235;259.359;50.1929;0.532;335.236;14.95;70.8;1.688;8630.83;8780.77;1;84446187;-0.0523326;-0.115422;0.752423;-0.0493213;0.0180378;1.02273;2.53074;-4.49052;35.2802;84445000;47.61244140;-122.74882586;105.04972844;0.49235484;0.00000000;4.50769711;3.00000000;
84446364;73.9;34.8;34.5;0;34.8;58.3;76.09;17.5;0.22;76.08;2100;0.294;3.3815;0.6235;259.408;50.1929;915788;931698;283.805;0;1;-3.858;11.305;84446272;3.3812;0.6235;259.389;50.1929;0.527;332.059;18.75;78.4;1.841;8631;8780.94;1;84446278;-0.0133276;-0.121682;0.68593;-0.0536782;-0.0981562;1.02052;-33.3812;-1.39546;50.4159;84445000;47.61244140;-122.74882586;105.04972844;0.49235484;0.00000000;4.50769711;3.00000000;
84446456;75.2;34.8;34.6;0;34.9;58.3;62.69;14.19;-0.21;62.52;2358;0.273;3.382;0.6235;259.448;50.1929;915819;931729;356.862;0;1;-3.598;11.163;84446413;3.3818;0.6235;259.437;50.1929;0.52;327.159;13.86;64.52;2.153;8631.3;8781.25;1;84446414;0.0638158;-0.100451;0.59662;-0.177996;-0.000476755;1.02965;-9.83774;4.7577;22.3567;84445000;47.61244140;-122.74882586;105.04972844;0.49235484;0.00000000;4.50769711;3.00000000;
84446545;75;34.9;34.6;0;34.9;58.3;56.16;12.86;0.07;56.19;2480;0.282;3.3823;0.6235;259.474;50.1929;915844;931754;9.80646;0;1;-3.454;11.353;84446501;3.3822;0.6235;259.462;50.1929;0.516;324.962;16.71;66.47;2.287;8631.5;8781.44;1;84446545;0.0981472;-0.0933538;0.548133;0.25518;-0.163292;1.02231;4.76433;-3.09548;14.2692;84445000;47.61244140;-122.74882586;105.04972844;0.49235484;0.00000000;4.50769711;3.00000000;
84446637;75;34.9;34.7;0;34.9;58.3;51.42;11.77;-0.02;51.38;2601;0.282;3.3826;0.6235;259.494;50.1929;915866;931778;284.059;0;1;-3.331;11.436;84446588;3.3825;0.6235;259.485;50.1929;0.513;322.813;14.36;54.84;2.388;8631.72;8781.69;1;84446545;0.0981472;-0.0933538;0.548133;0.25518;-0.163292;1.02231;4.76433;-3.09548;14.2692;84445000;47.61244140;-122.74882586;105.04972844;0.49235484;0.00000000;4.50769711;3.00000000;
84446730;75;35;34.8;0;35;58.3;49.99;11.67;0.01;49.98;2697;0.279;3.3829;0.6235;259.516;50.1929;915891;931805;313.178;0;1;-3.345;11.668;84446679;3.3827;0.6235;259.503;50.1929;0.51;321.07;12.81;51.27;2.491;8631.94;8781.92;1;84446638;0.0907731;-0.0908851;0.537086;0.0387376;-0.427585;1.01403;-3.46423;-0.971187;2.95284;84445000;47.61244140;-122.74882586;105.04972844;0.49235484;0.00000000;4.50769711;3.00000000;
84446818;74.8;35;34.8;0;35;58.3;51.37;12.6;0.1;51.36;2832;0.31;3.3832;0.6235;259.54;50.1929;915915;931831;357.807;0;1;-3.643;12.231;84446772;3.383;0.6235;259.527;50.1929;0.507;319.053;16.14;61.73;2.613;8632.18;8782.17;1;84446730;0.0856265;-0.0937454;0.532713;0.081188;-0.41533;1.00527;-10.4558;-7.9667;3.42705;84446000;47.61243847;-122.74882284;104.99357618;0.94002551;0.00000000;4.30194759;3.00000000;
84446908;74.3;35;34.8;0;35;58.3;51.7;13.13;0.15;51.74;2963;0.335;3.3835;0.6235;259.565;50.1929;915942;931858;176.35;0;1;-3.844;12.651;84446862;3.3833;0.6235;259.55;50.1929;0.504;317.164;14.19;54.25;2.734;8632.43;8782.43;1;84446818;0.0875077;-0.0970839;0.536161;-0.104117;-0.127603;0.998823;-8.33823;-2.64145;-2.92696;84446000;47.61243847;-122.74882284;104.99357618;0.94002551;0.00000000;4.30194759;3.00000000;
84446996;74.2;35.1;35;0;35.1;58.3;57.15;15.54;0;57.12;3144;0.336;3.3839;0.6235;259.594;50.1929;915971;931887;97.6964;0;1;-4.501;13.526;84446947;3.3837;0.6235;259.578;50.1929;0.5;314.618;16.42;61.04;2.892;8632.69;8782.7;1;84446909;0.107627;-0.096983;0.532893;-0.225895;-0.377775;0.996125;-3.03842;-4.41313;8.64279;84446000;47.61243847;-122.74882284;104.99357618;0.94002551;0.00000000;4.30194759;3.00000000;
84447083;73.3;35.1;35;0;35.1;58.3;63.72;18.5;0.26;63.88;3273;0.374;3.3844;0.6235;259.628;50.1929;916001;931919;82.8841;0;1;-5.237;14.285;84447038;3.3841;0.6235;259.606;50.1929;0.496;312.258;20.09;66.63;3.014;8632.97;8782.97;1;84446997;0.125127;-0.0986479;0.506605;-0.107083;-0.0103565;0.993219;-3.12152;-0.42926;14.8636;84446000;47.61243847;-122.74882284;104.99357618;0.94002551;0.00000000;4.30194759;3.00000000;
84447179;74.1;35.1;35;0;35.2;58.3;67.21;20.41;-0.17;67.05;3467;0.337;3.3849;0.6235;259.666;50.1929;916033;931951;196.862;0;1;-5.82;15.022;84447127;3.3846;0.6235;259.645;50.1929;0.49;308.631;19.52;65.44;3.172;8633.25;8783.27;1;84447087;0.146926;-0.0923514;0.498726;-0.359959;-0.760521;1.00484;9.46924;-8.9667;1.47829;84446000;47.61243847;-122.74882284;104.99357618;0.94002551;0.00000000;4.30194759;3.00000000;
84447262;74.2;35.2;34.9;0;35.2;58.3;54.82;16.5;-0.04;54.78;3624;0.369;3.3853;0.6235;259.693;50.1929;916065;931983;358.043;0;1;-5.019;14.98;84447220;3.3851;0.6235;259.68;50.1929;0.485;305.601;14;46.25;3.372;8633.56;8783.58;1;84447179;0.152016;-0.0880919;0.503148;0.491665;-0.576858;1.00703;46.9325;-7.3058;-7.23664;84446000;47.61243847;-122.74882284;104.99357618;0.94002551;0.00000000;4.30194759;3.00000000;
84447357;73.1;35.2;35;0;35.2;58.3;63.77;20.4;0.3;63.87;3763;0.415;3.3858;0.6235;259.734;50.1929;916101;932019;329.193;0;1;-6.066;15.812;84447313;3.3856;0.6235;259.717;50.1929;0.481;302.66;21.1;64.69;3.478;8633.9;8783.92;1;84447312;0.130646;-0.0893887;0.530612;-0.167054;0.144501;1.01133;-14.6791;1.25623;-11.9676;84446000;47.61243847;-122.74882284;104.99357618;0.94002551;0.00000000;4.30194759;3.00000000;
84447487;73.7;35.3;35;0;35.3;58.3;59.49;19.44;-0.15;59.4;3960;0.4;3.3863;0.6235;259.771;50.1929;916137;932055;326.578;0;1;-6.013;16.165;84447397;3.3861;0.6235;259.751;50.1929;0.476;299.57;17.37;57.83;3.614;8634.2;8784.22;1;84447403;0.131317;-0.0876323;0.548846;0.643439;-0.956593;1.01175;22.1885;-7.71866;-6.53716;84446000;47.61243847;-122.74882284;104.99357618;0.94002551;0.00000000;4.30194759;3.00000000;
84447581;73.7;35.3;35.2;0;35.3;58.3;58.8;19.79;0.06;58.76;4180;0.422;3.3871;0.6235;259.824;50.1929;916195;932115;198.067;0;1;-6.194;16.596;84447580;3.3871;0.6235;259.824;50.1929;0.466;293.742;18.67;56.29;3.931;8634.91;8784.95;1;84447535;0.110472;-0.0843387;0.54118;0.131984;0.189428;1.01289;6.31549;-3.99221;8.73133;84446000;47.61243847;-122.74882284;104.99357618;0.94002551;0.00000000;4.30194759;3.00000000;
84447668;74.3;35.4;35.2;0;35.4;58.3;50.88;17.32;-0.21;50.75;4343;0.436;3.3875;0.6235;259.856;50.1929;916231;932151;205.204;0;1;-5.717;16.815;84447580;3.3871;0.6235;259.824;50.1929;0.466;293.742;18.67;56.29;3.931;8634.91;8784.95;1;84447627;0.113575;-0.0808957;0.532667;0.11771;-0.0128997;1.01285;-10.4656;-0.416436;2.43709;84446000;47.61243847;-122.74882284;104.99357618;0.94002551;0.00000000;4.30194759;3.00000000;
84447763;74.1;35.4;35.3;0;35.4;58.3;43.33;14.58;0.03;43.35;4444;0.43;3.3879;0.6235;259.884;50.1929;916271;932191;100.794;0;1;-5.003;16.713;84447669;3.3875;0.6235;259.856;50.1929;0.463;291.314;14.59;43.05;4.103;8635.29;8785.34;1;84447720;0.123066;-0.0809943;0.532345;0.212973;0.043222;1.01185;-14.8013;11.7944;-1.45357;84446000;47.61243847;-122.74882284;104.99357618;0.94002551;0.00000000;4.30194759;3.00000000;
84447846;73.8;35.5;35.4;0;35.5;58.3;50.18;17.63;0.17;50.18;4555;0.453;3.3883;0.6235;259.913;50.1929;916312;932234;47.8608;0;1;-5.927;17.351;84447766;3.3879;0.6235;259.884;50.1929;0.46;289.64;16.89;47.02;4.188;8635.67;8785.71;1;84447803;0.0951158;-0.0692675;0.540444;-0.0858067;-0.0594055;1.01124;22.6474;-3.70435;2.65747;84447000;47.61243624;-122.74880845;105.22318816;1.69700587;0.00000000;4.06318378;3.00000000;
84447944;74.6;35.5;35.3;0;35.5;58.3;43.53;15.65;-0.31;43.41;4796;0.408;3.3887;0.6235;259.943;50.1929;916356;932278;148.407;0;1;-5.562;17.777;84447852;3.3883;0.6235;259.916;50.1929;0.456;287.342;16.74;47.5;4.304;8636.07;8786.13;1;84447895;0.073195;-0.077827;0.53815;0.310954;0.551881;0.996515;12.6315;-7.15874;-6.54765;84447000;47.61243624;-122.74880845;105.22318816;1.69700587;0.00000000;4.06318378;3.00000000;
84448027;74.4;35.5;35.3;0;35.5;58.3;36.13;13;0.1;36.14;4937;0.432;3.389;0.6235;259.967;50.1929;916401;932323;316.986;0;1;-4.77;17.819;84447945;3.3887;0.6235;259.946;50.1929;0.454;285.593;10.93;30.73;4.53;8636.47;8786.53;1;84447983;0.0652091;-0.0767796;0.556011;0.0320443;0.260272;0.989601;2.42856;5.81796;-10.8449;84447000;47.61243624;-122.74880845;105.22318816;1.69700587;0.00000000;4.06318378;3.00000000;
84448117;75.4;35.6;35.4;0;35.6;58.4;33.54;12.28;-0.36;33.39;5147;0.416;3.3893;0.6235;259.991;50.1929;916448;932370;279.641;0;1;-4.704;18.188;84448028;3.389;0.6235;259.97;50.1929;0.452;284.419;13.87;36.37;4.663;8636.9;8786.96;1;84448076;0.0576031;-0.0747353;0.562233;0.0316817;0.052023;0.987913;-3.48865;0.0468993;6.66901;84447000;47.61243624;-122.74880845;105.22318816;1.69700587;0.00000000;4.06318378;3.00000000;
84448209;77.9;35.6;35.4;0;35.6;58.3;-8.53;-2.01;-1.34;-8.87;5147;0.281;3.3894;0.6236;259.995;50.1976;916495;932417;181.503;0;1;0.385;15.018;84448118;3.3893;0.6235;259.993;50.1929;0.45;283.4;6.44;17.91;4.863;8637.34;8787.4;1;84448163;0.0750673;-0.0425699;0.529527;1.02289;-0.420098;1.00773;10.3981;45.6064;25.9255;84447000;47.61243624;-122.74880845;105.22318816;1.69700587;0.00000000;4.06318378;3.00000000;
84448297;77.4;35.6;35.5;0;35.6;58.3;-24.9;-5.71;0.28;-24.83;4541;0.231;3.3894;0.6237;259.995;50.2104;916536;932458;171.494;0;1;2.408;11.845;84448209;3.3894;0.6236;259.995;50.1993;0.453;285.389;-8.16;-33.63;4.836;8637.77;8787.83;1;84448253;0.0529126;0.0275512;0.519205;0.857824;0.210192;1.03893;26.912;47.432;-7.72686;84447000;47.61243624;-122.74880845;105.22318816;1.69700587;0.00000000;4.06318378;3.00000000;
84448394;74.5;35.6;35.5;0;35.6;58.4;6.6;2.83;1.53;7.05;4441;0.504;3.3894;0.6238;260.001;50.2124;916573;932495;202.266;0;1;-1.007;13.988;84448298;3.3894;0.6237;259.995;50.2104;0.458;288.297;-5.56;-25.96;4.257;8638.17;8788.23;1;84448343;0.0600529;0.0753076;0.559115;0.409584;-0.551077;1.0658;15.5697;5.53935;-38.0661;84447000;47.61243624;-122.74880845;105.22318816;1.69700587;0.00000000;4.06318378;3.00000000;
84448486;75.8;35.7;35.6;0;35.7;58.4;21.64;14.53;-2.3;21.39;5109;0.358;3.3899;0.6238;260.032;50.216;916628;932550;291.465;0;1;-4.965;18.967;84448395;3.3894;0.6238;260.001;50.2124;0.459;289.228;16.7;39.31;4.277;8638.52;8788.58;1;84448438;-0.0318843;0.0443677;0.593861;-5.37722;2.3517;0.967315;-138.14;-15.1832;-38.2116;84447000;47.61243624;-122.74880845;105.22318816;1.69700587;0.00000000;4.06318378;3.00000000;
84448615;72.4;35.7;35.6;0;35.8;58.4;79.37;29.23;1.33;79.59;4398;0.463;3.3906;0.6238;260.082;50.216;916665;932587;318.632;0;1;-8.098;17.39;84448487;3.3899;0.6238;260.032;50.216;0.457;287.657;11.25;38.65;4.758;8639.02;8789.09;1;84448530;0.141987;0.0164962;0.610362;-0.359066;-1.99817;0.948015;78.2307;-91.708;42.8126;84447000;47.61243624;-122.74880845;105.22318816;1.69700587;0.00000000;4.06318378;3.00000000;
84448703;73.7;35.7;35.6;0;35.8;58.4;58.36;21.47;-0.19;58.18;4671;0.463;3.3914;0.6238;260.14;50.216;916726;932648;36.4718;0;1;-6.901;17.937;84448616;3.3906;0.6238;260.082;50.216;0.45;283.189;29.07;74.5;4.149;8639.38;8789.44;1;84448616;0.116708;-0.00974149;0.587468;-0.458566;-0.128011;0.933552;21.9304;-15.9838;-6.9921;84447000;47.61243624;-122.74880845;105.22318816;1.69700587;0.00000000;4.06318378;3.00000000;
84448794;74;35.7;35.6;0;35.8;58.4;37.25;13.43;-0.13;37.21;4848;0.486;3.3917;0.6238;260.165;50.216;916770;932692;158.385;0;1;-4.836;17.644;84448704;3.3914;0.6238;260.14;50.216;0.443;279.095;18.84;49.94;4.413;8639.96;8790.02;1;84448705;0.0746351;-0.0314304;0.593884;0.184875;-0.258064;0.930852;-26.2582;-0.549922;-3.76537;84447000;47.61243624;-122.74880845;105.22318816;1.69700587;0.00000000;4.06318378;3.00000000;
84448886;74.4;35.8;35.6;0;35.7;58.4;36.62;13.17;-0.06;36.52;4957;0.467;3.392;0.6238;260.19;50.216;916816;932738;25.223;0;1;-4.87;17.818;84448794;3.3917;0.6238;260.165;50.216;0.442;278.019;20.21;51.58;4.581;8640.37;8790.43;1;84448795;0.0758516;-0.0253896;0.585046;-0.479946;0.150605;0.941523;-16.9102;-7.28635;8.34328;84448000;47.61243691;-122.74876537;105.36811447;2.47574258;0.00000000;4.50772953;3.00000000;
