ms_today;input_voltage;temp_mos_max;temp_mos_1;temp_mos_2;temp_mos_3;temp_motor;current_motor;current_in;d_axis_current;q_axis_current;erpm;duty_cycle;amp_hours_used;amp_hours_charged;watt_hours_used;watt_hours_charged;tachometer;tachometer_abs;encoder_position;fault_code;vesc_id;d_axis_voltage;q_axis_voltage;ms_today_setup;amp_hours_setup;amp_hours_charged_setup;watt_hours_setup;watt_hours_charged_setup;battery_level;battery_wh_tot;current_in_setup;current_motor_setup;speed_meters_per_sec;tacho_meters;tacho_abs_meters;num_vescs;ms_today_imu;roll;pitch;yaw;accX;accY;accZ;gyroX;gyroY;gyroZ;gnss_posTime;gnss_lat;gnss_lon;gnss_alt;gnss_gVel;gnss_vVel;gnss_hAcc;gnss_vAcc;
74638560;81;28.2;27.8;0;28.2;30.2;-0.03;0;-0.05;-0.12;0;-0.001;0.5339;0.0955;42.0574;7.9235;183514;184672;54;0;1;0.037;-0.054;74638419;0.5339;0.0955;42.0574;7.9235;0.858;539.794;0;0;0;1729.58;1740.49;1;74622628;0.0682242;0.332988;-2.65158;-0.323853;-0.0632092;0.937316;0.0174481;-0.0895306;0.178805;74636999;47.59976139;-122.83722494;126.76083606;0.00000000;0.00000000;4.79778767;3.00000000;
74638645;81;28.3;27.8;0;28.3;30.2;0;0;0;0;0;-0.001;0.5339;0.0955;42.0574;7.9235;183514;184672;54;0;1;0.005;-0.074;74638560;0.5339;0.0955;42.0574;7.9235;0.858;539.819;0;0;0;1729.58;1740.49;1;74638561;0.0860331;0.321685;-2.53057;-0.313175;-0.0787788;0.940158;0.226644;0.33026;0.156154;74637999;47.59976139;-122.83722494;126.76771663;0.00000000;0.00000000;4.79772282;3.00000000;
74638732;81;28.2;27.9;0;28.3;30.2;0;0;0;0;0;-0.001;0.5339;0.0955;42.0574;7.9235;183514;184672;54;0;1;0.005;-0.074;74638645;0.5339;0.0955;42.0574;7.9235;0.858;539.836;0;0;0;1729.58;1740.49;1;74638646;0.0855254;0.32242;-2.53091;-0.312169;-0.0852336;0.940452;0.308612;0.261628;0.29021;74637999;47.59976139;-122.83722494;126.76771663;0.00000000;0.00000000;4.79772282;3.00000000;
74638826;81;28.2;27.8;0;28.3;30.1;0;0;0;0;0;-0.001;0.5339;0.0955;42.0574;7.9235;183514;184672;54;0;1;0.005;-0.074;74638733;0.5339;0.0955;42.0574;7.9235;0.858;539.859;0;0;0;1729.58;1740.49;1;74638736;0.0849248;0.322848;-2.53131;-0.317431;-0.0769233;0.940351;0.156912;0.260326;0.162988;74637999;47.59976139;-122.83722494;126.76771663;0.00000000;0.00000000;4.79772282;3.00000000;
74639013;81;28.2;27.8;0;28.2;30.2;0;0;0;0;0;-0.001;0.5339;0.0955;42.0574;7.9235;183514;184672;54;0;1;0.006;-0.074;74638828;0.5339;0.0955;42.0574;7.9235;0.858;539.883;0;0;0;1729.58;1740.49;1;74638829;0.0849571;0.322858;-2.53153;-0.315742;-0.0857385;0.939926;0.00521243;-0.160954;0.0400647;74637999;47.59976139;-122.83722494;126.76771663;0.00000000;0.00000000;4.79772282;3.00000000;
74639097;81;28.3;27.8;0;28.2;30.1;0;0;0;0;0;-0.001;0.5339;0.0955;42.0574;7.9235;183514;184672;54;0;1;0.005;-0.074;74639015;0.5339;0.0955;42.0574;7.9235;0.858;539.917;0;0;0;1729.58;1740.49;1;74639016;0.0840817;0.322761;-2.5321;-0.316954;-0.0828948;0.939422;0.460312;0.122937;0.418865;74637999;47.59976139;-122.83722494;126.76771663;0.00000000;0.00000000;4.79772282;3.00000000;
74639188;81;28.2;27.8;0;28.3;30.2;0;0;0;0;0;-0.001;0.5339;0.0955;42.0574;7.9235;183514;184672;54;0;1;0.006;-0.074;74639098;0.5339;0.0955;42.0574;7.9235;0.858;539.946;0;0;0;1729.58;1740.49;1;74639099;0.0825687;0.322796;-2.53288;-0.315086;-0.0823032;0.939142;0.669509;-0.017243;0.401945;74637999;47.59976139;-122.83722494;126.76771663;0.00000000;0.00000000;4.79772282;3.00000000;
74639329;81;28.2;27.8;0;28.2;30.2;0;0;0;0;0;-0.001;0.5339;0.0955;42.0574;7.9235;183514;184672;54;0;1;0.006;-0.074;74639282;0.5339;0.0955;42.0574;7.9235;0.858;539.989;0;0;0;1729.58;1740.49;1;74639190;0.0822819;0.322756;-2.53322;-0.31541;-0.0867899;0.939074;-0.355684;-0.372057;-0.0666556;74637999;47.59976139;-122.83722494;126.76771663;0.00000000;0.00000000;4.79772282;3.00000000;
74639416;81;28.2;27.8;0;28.3;30.2;0;0;0;0;0;-0.001;0.5339;0.0955;42.0574;7.9235;183514;184672;54;0;1;0.006;-0.074;74639370;0.5339;0.0955;42.0574;7.9235;0.858;540.017;0;0;0;1729.58;1740.49;1;74639331;0.0832718;0.322272;-2.53316;-0.311282;-0.0837805;0.938881;-0.919659;0.0477077;-0.0917425;74637999;47.59976139;-122.83722494;126.76771663;0.00000000;0.00000000;4.79772282;3.00000000;
74639506;81;28.2;28;0;28.3;30.1;0;0;0;0;0;-0.001;0.5339;0.0955;42.0574;7.9235;183514;184672;54;0;1;0.006;-0.074;74639461;0.5339;0.0955;42.0574;7.9235;0.858;540.041;0;0;0;1729.58;1740.49;1;74639417;0.0842919;0.321871;-2.53314;-0.312348;-0.0806913;0.938826;-0.203984;-0.09077;0.0577008;74637999;47.59976139;-122.83722494;126.76771663;0.00000000;0.00000000;4.79772282;3.00000000;
74639587;81;28.2;27.8;0;28.2;30.2;0;0;0;0;0;-0.001;0.5339;0.0955;42.0574;7.9235;183514;184672;54;0;1;0.005;-0.074;74639544;0.5339;0.0955;42.0574;7.9235;0.858;540.064;0;0;0;1729.58;1740.49;1;74639507;0.0839745;0.321917;-2.53344;-0.312126;-0.078397;0.939041;0.523927;0.0521649;0.343735;74638999;47.59976139;-122.83722494;126.71973618;0.00000000;0.00000000;4.79765797;3.00000000;
74639677;81;28.2;27.8;0;28.3;30.2;0;0;0;0;0;-0.001;0.5339;0.0955;42.0574;7.9235;183514;184672;54;0;1;0.005;-0.074;74639634;0.5339;0.0955;42.0574;7.9235;0.858;540.093;0;0;0;1729.58;1740.49;1;74639589;0.0828293;0.321967;-2.53397;-0.312271;-0.0812846;0.939216;0.669509;0.12275;0.400513;74638999;47.59976139;-122.83722494;126.71973618;0.00000000;0.00000000;4.79765797;3.00000000;
74639769;81;28.2;27.8;0;28.3;30.2;0;0;0;0;0;-0.001;0.5339;0.0955;42.0574;7.9235;183514;184672;54;0;1;0.005;-0.074;74639728;0.5339;0.0955;42.0574;7.9235;0.858;540.122;0;0;0;1729.58;1740.49;1;74639678;0.0821899;0.321976;-2.5344;-0.317414;-0.0701469;0.939387;-0.355684;-0.0220758;-0.0702376;74638999;47.59976139;-122.83722494;126.71973618;0.00000000;0.00000000;4.79765797;3.00000000;
74639869;81;28.2;27.8;0;28.3;30.2;0;0;0;0;0;-0.001;0.5339;0.0955;42.0574;7.9235;183514;184672;54;0;1;0.005;-0.075;74639818;0.5339;0.0955;42.0574;7.9235;0.858;540.148;0;0;0;1729.58;1740.49;1;74639817;0.0832128;0.321763;-2.53429;-0.312186;-0.0856665;0.939466;-0.349566;-0.0213621;-0.00050908;74638999;47.59976139;-122.83722494;126.71973618;0.00000000;0.00000000;4.79765797;3.00000000;
74639950;81;28.2;27.9;0;28.2;30.2;0;0;0;0;0;-0.001;0.5339;0.0955;42.0574;7.9235;183514;184672;54;0;1;0.005;-0.074;74639905;0.5339;0.0955;42.0574;7.9235;0.858;540.167;0;0;0;1729.58;1740.49;1;74639906;0.0841351;0.321734;-2.53432;-0.3128;-0.0827531;0.939674;-0.197866;-0.02006;0.126713;74638999;47.59976139;-122.83722494;126.71973618;0.00000000;0.00000000;4.79765797;3.00000000;
74640096;81;28.2;27.9;0;28.3;30.2;0;0;0;0;0;-0.001;0.5339;0.0955;42.0574;7.9235;183514;184672;54;0;1;0.006;-0.074;74640049;0.5339;0.0955;42.0574;7.9235;0.858;540.187;0;0;0;1729.58;1740.49;1;74640050;0.0844244;0.321823;-2.53445;-0.314327;-0.080865;0.93984;-0.273716;0.0492852;0.0623855;74638999;47.59976139;-122.83722494;126.71973618;0.00000000;0.00000000;4.79765797;3.00000000;
74640282;81;28.2;27.8;0;28.2;30.2;0;0;0;0;0;-0.001;0.5339;0.0955;42.0574;7.9235;183514;184672;54;0;1;0.005;-0.074;74640280;0.5339;0.0955;42.0574;7.9235;0.858;540.245;0;0;0;1729.58;1740.49;1;74640281;0.0847584;0.322025;-2.53477;-0.316382;-0.0736137;0.939958;-0.267598;0.0499989;0.132114;74638999;47.59976139;-122.83722494;126.71973618;0.00000000;0.00000000;4.79765797;3.00000000;
74640398;81;28.2;27.8;0;28.2;30.2;0;0;0;0;0;-0.001;0.5339;0.0955;42.0574;7.9235;183514;184672;54;0;1;0.006;-0.074;74640280;0.5339;0.0955;42.0574;7.9235;0.858;540.245;0;0;0;1729.58;1740.49;1;74640281;0.0847584;0.322025;-2.53477;-0.316382;-0.0736137;0.939958;-0.267598;0.0499989;0.132114;74638999;47.59976139;-122.83722494;126.71973618;0.00000000;0.00000000;4.79765797;3.00000000;
74640493;81;28.2;27.8;0;28.3;30.2;0;0;0;0;0;-0.001;0.5339;0.0955;42.0574;7.9235;183514;184672;54;0;1;0.006;-0.074;74640399;0.5339;0.0955;42.0574;7.9235;0.858;540.307;0;0;0;1729.58;1740.49;1;74640400;0.0855997;0.322085;-2.53502;-0.31193;-0.0827088;0.939583;0.31473;0.0523527;0.362088;74638999;47.59976139;-122.83722494;126.71973618;0.00000000;0.00000000;4.79765797;3.00000000;
74640588;81;28.2;27.8;0;28.2;30.2;0;0;0;0;0;-0.001;0.5339;0.0955;42.0574;7.9235;183514;184672;54;0;1;0.005;-0.074;74640493;0.5339;0.0955;42.0574;7.9235;0.859;540.321;0;0;0;1729.58;1740.49;1;74640536;0.0841614;0.322349;-2.53573;-0.314284;-0.0774442;0.939415;0.523927;0.0521649;0.343735;74639999;47.59976139;-122.83722494;126.72333581;0.00000000;0.00000000;4.58940935;3.00000000;
74640677;81;28.2;27.8;0;28.3;30.2;0;0;0;0;0;-0.001;0.5339;0.0955;42.0574;7.9235;183514;184672;54;0;1;0.005;-0.075;74640589;0.5339;0.0955;42.0574;7.9235;0.859;540.346;0;0;0;1729.58;1740.49;1;74640633;0.0837861;0.32246;-2.53605;-0.313653;-0.0862684;0.939364;-0.0645196;0.0490974;0.044033;74639999;47.59976139;-122.83722494;126.72333581;0.00000000;0.00000000;4.58940935;3.00000000;
74640759;81;28.2;27.8;0;28.1;30.2;0;0;0;0;0;-0.001;0.5339;0.0955;42.0574;7.9235;183514;184672;54;0;1;0.005;-0.074;74640678;0.5339;0.0955;42.0574;7.9235;0.859;540.375;0;0;0;1729.58;1740.49;1;74640715;0.0840805;0.322579;-2.5362;-0.31773;-0.0818379;0.93937;-0.331213;0.260764;0.205811;74639999;47.59976139;-122.83722494;126.72333581;0.00000000;0.00000000;4.58940935;3.00000000;
74640857;81;28.2;27.8;0;28.2;30.2;0;0;0;0;0;-0.001;0.5339;0.0955;42.0574;7.9235;183514;184672;54;0;1;0.005;-0.074;74640764;0.5339;0.0955;42.0574;7.9235;0.859;540.406;0;0;0;1729.58;1740.49;1;74640808;0.08468;0.322691;-2.53625;-0.316971;-0.0852795;0.939302;0.0174481;-0.0195342;0.178089;74639999;47.59976139;-122.83722494;126.72333581;0.00000000;0.00000000;4.58940935;3.00000000;
74640996;81;28.2;27.8;0;28.3;30.2;0;0;0;0;0;-0.001;0.5339;0.0955;42.0574;7.9235;183514;184672;54;0;1;0.006;-0.074;74640858;0.5339;0.0955;42.0574;7.9235;0.859;540.433;0;0;0;1729.58;1740.49;1;74640942;0.0848642;0.322801;-2.5364;-0.313039;-0.0901577;0.939192;-0.273716;-0.0207111;0.0631019;74639999;47.59976139;-122.83722494;126.72333581;0.00000000;0.00000000;4.58940935;3.00000000;
74641077;81;28.2;27.8;0;28.2;30.2;0;0;0;0;0;-0.001;0.5339;0.0955;42.0574;7.9235;183514;184672;54;0;1;0.006;-0.074;74640997;0.5339;0.0955;42.0574;7.9235;0.859;540.467;0;0;0;1729.58;1740.49;1;74641029;0.0850095;0.322895;-2.53668;-0.310608;-0.0799124;0.93907;0.0871803;0.190392;0.169822;74639999;47.59976139;-122.83722494;126.72333581;0.00000000;0.00000000;4.58940935;3.00000000;
74641211;81;28.2;27.9;0;28.2;30.2;0;0;0;0;0;-0.001;0.5339;0.0955;42.0574;7.9235;183514;184672;54;0;1;0.006;-0.073;74641172;0.5339;0.0955;42.0574;7.9235;0.859;540.485;0;0;0;1729.58;1740.49;1;74641172;0.0849836;0.322953;-2.53688;-0.313184;-0.0827979;0.93898;0.156912;0.0503369;0.165138;74639999;47.59976139;-122.83722494;126.72333581;0.00000000;0.00000000;4.58940935;3.00000000;
74641302;81;28.2;27.8;0;28.2;30.2;0;0;0;0;0;-0.001;0.5339;0.0955;42.0574;7.9235;183514;184672;54;0;1;0.005;-0.074;74641253;0.5339;0.0955;42.0574;7.9235;0.859;540.509;0;0;0;1729.58;1740.49;1;74641253;0.0843118;0.323269;-2.5374;-0.314028;-0.0759504;0.939015;0.46643;0.123651;0.488594;74639999;47.59976139;-122.83722494;126.72333581;0.00000000;0.00000000;4.58940935;3.00000000;
74641394;81;28.2;27.8;0;28.2;30.2;0;0;0;0;0;-0.001;0.5339;0.0955;42.0574;7.9235;183514;184672;54;0;1;0.006;-0.074;74641352;0.5339;0.0955;42.0574;7.9235;0.859;540.534;0;0;0;1729.58;1740.49;1;74641352;0.0839754;0.323518;-2.53771;-0.315154;-0.0765126;0.939051;0.0932981;-0.0188832;0.2417;74639999;47.59976139;-122.83722494;126.72333581;0.00000000;0.00000000;4.58940935;3.00000000;
74641490;81;28.2;27.8;0;28.2;30.2;0;0;0;0;0;-0.001;0.5339;0.0955;42.0574;7.9235;183514;184672;54;0;1;0.005;-0.075;74641433;0.5339;0.0955;42.0574;7.9235;0.859;540.543;0;0;0;1729.58;1740.49;1;74641441;0.084114;0.323748;-2.53786;-0.316902;-0.0847264;0.939094;-0.052284;0.260514;0.181341;74639999;47.59976139;-122.83722494;126.72333581;0.00000000;0.00000000;4.58940935;3.00000000;
74641658;81;28.2;27.8;0;28.2;30.2;0;0;0;0;0;-0.001;0.5339;0.0955;42.0574;7.9235;183514;184672;54;0;1;0.005;-0.075;74641568;0.5339;0.0955;42.0574;7.9235;0.859;540.56;0;0;0;1729.58;1740.49;1;74641569;0.0841664;0.323897;-2.53809;-0.314113;-0.0754724;0.939081;0.0235659;-0.22881;0.249967;74640999;47.59976139;-122.83722494;126.74436834;0.00000000;0.00000000;4.60606241;3.00000000;
74641748;81;28.2;27.9;0;28.2;30.2;0;0;0;0;0;-0.001;0.5339;0.0955;42.0574;7.9235;183514;184672;54;0;1;0.006;-0.074;74641662;0.5339;0.0955;42.0574;7.9235;0.859;540.577;0;0;0;1729.58;1740.49;1;74641713;0.0844343;0.323281;-2.53843;-0.31477;-0.0852514;0.938608;-0.128134;-0.160115;0.122028;74640999;47.59976139;-122.83722494;126.74436834;0.00000000;0.00000000;4.60606241;3.00000000;
74641886;81;28.2;27.8;0;28.3;30.2;0;0;0;0;0;-0.001;0.5339;0.0955;42.0574;7.9235;183514;184672;54;0;1;0.006;-0.074;74641797;0.5339;0.0955;42.0574;7.9235;0.859;540.579;0;0;0;1729.58;1740.49;1;74641798;0.0843037;0.323216;-2.53875;-0.317269;-0.0833624;0.93873;0.0174481;0.120458;0.176656;74640999;47.59976139;-122.83722494;126.74436834;0.00000000;0.00000000;4.60606241;3.00000000;
74641980;81;28.2;27.8;0;28.2;30.2;0;0;0;0;0;-0.001;0.5339;0.0955;42.0574;7.9235;183514;184672;54;0;1;0.006;-0.075;74641932;0.5339;0.0955;42.0574;7.9235;0.859;540.613;0;0;0;1729.58;1740.49;1;74641933;0.0845998;0.323258;-2.539;-0.312612;-0.0735168;0.938963;-0.349566;-0.0213621;-0.00050908;74640999;47.59976139;-122.83722494;126.74436834;0.00000000;0.00000000;4.60606241;3.00000000;
74642068;81;28.2;27.8;0;28.2;30.2;0;0;0;0;0;-0.001;0.5339;0.0955;42.0574;7.9235;183514;184672;54;0;1;0.005;-0.075;74642023;0.5339;0.0955;42.0574;7.9235;0.859;540.634;0;0;0;1729.58;1740.49;1;74642024;0.0856141;0.323135;-2.53887;-0.31738;-0.0956318;0.939024;-0.21622;-0.162194;-0.0810397;74640999;47.59976139;-122.83722494;126.74436834;0.00000000;0.00000000;4.60606241;3.00000000;
74642154;81;28.2;27.8;0;28.2;30.2;0;0;0;0;0;-0.001;0.5339;0.0955;42.0574;7.9235;183514;184672;54;0;1;0.006;-0.075;74642120;0.5339;0.0955;42.0574;7.9235;0.859;540.648;0;0;0;1729.58;1740.49;1;74642121;0.0858032;0.322636;-2.53906;-0.316484;-0.0857679;0.938776;-0.279834;-0.371406;-0.00304456;74640999;47.59976139;-122.83722494;126.74436834;0.00000000;0.00000000;4.60606241;3.00000000;
74642296;81;28.2;27.8;0;28.2;30.2;0;0;0;0;0;-0.001;0.5339;0.0955;42.0574;7.9235;183514;184672;54;0;1;0.006;-0.074;74642206;0.5339;0.0955;42.0574;7.9235;0.859;540.677;0;0;0;1729.58;1740.49;1;74642207;0.0861797;0.322243;-2.53916;-0.31639;-0.078811;0.938766;-0.0584018;-0.0901816;0.115194;74640999;47.59976139;-122.83722494;126.74436834;0.00000000;0.00000000;4.60606241;3.00000000;
74642379;81;28.2;27.8;0;28.2;30.2;0;0;0;0;0;-0.001;0.5339;0.0955;42.0574;7.9235;183514;184672;54;0;1;0.006;-0.074;74642297;0.5339;0.0955;42.0574;7.9235;0.859;540.705;0;0;0;1729.58;1740.49;1;74642298;0.0861582;0.322177;-2.53944;-0.315597;-0.0818749;0.938993;0.0113302;-0.230237;0.11051;74640999;47.59976139;-122.83722494;126.74436834;0.00000000;0.00000000;4.60606241;3.00000000;
74642482;81;28.2;27.8;0;28.3;30.2;0;0;0;0;0;-0.001;0.5339;0.0955;42.0574;7.9235;183514;184672;54;0;1;0.005;-0.074;74642379;0.5339;0.0955;42.0574;7.9235;0.859;540.731;0;0;0;1729.58;1740.49;1;74642380;0.0860888;0.321963;-2.53967;-0.313841;-0.0818414;0.939024;0.156912;-0.0196594;0.165854;74640999;47.59976139;-122.83722494;126.74436834;0.00000000;0.00000000;4.60606241;3.00000000;
74642564;81;28.2;27.8;0;28.2;30.2;0;0;0;0;0;-0.001;0.5339;0.0955;42.0574;7.9235;183514;184672;54;0;1;0.005;-0.074;74642483;0.5339;0.0955;42.0574;7.9235;0.859;540.751;0;0;0;1729.58;1740.49;1;74642516;0.0855997;0.321813;-2.54016;-0.315273;-0.0842198;0.93917;0.0871803;-0.159589;0.173404;74640999;47.59976139;-122.83722494;126.74436834;0.00000000;0.00000000;4.60606241;3.00000000;
74642657;81;28.2;27.8;0;28.2;30.2;0;0;0;0;0;-0.001;0.5339;0.0955;42.0574;7.9235;183514;184672;54;0;1;0.006;-0.074;74642656;0.5339;0.0955;42.0574;7.9235;0.859;540.788;0;0;0;1729.58;1740.49;1;74642615;0.0857241;0.321512;-2.54034;-0.312698;-0.0857262;0.9392;-0.197866;-0.230049;0.128862;74641999;47.59976139;-122.83722494;126.78807148;0.00000000;0.00000000;4.58963728;3.00000000;
74642744;81;28.2;27.8;0;28.2;30.2;0;0;0;0;0;-0.001;0.5339;0.0955;42.0574;7.9235;183514;184672;54;0;1;0.006;-0.075;74642656;0.5339;0.0955;42.0574;7.9235;0.859;540.788;0;0;0;1729.58;1740.49;1;74642698;0.0860475;0.321287;-2.54046;-0.314352;-0.083365;0.93929;-0.122016;-0.159402;0.191757;74641999;47.59976139;-122.83722494;126.78807148;0.00000000;0.00000000;4.58963728;3.00000000;
74642836;81;28.2;27.7;0;28.2;30.2;0;0;0;0;0;-0.001;0.5339;0.0955;42.0574;7.9235;183514;184672;54;0;1;0.006;-0.074;74642745;0.5339;0.0955;42.0574;7.9235;0.859;540.816;0;0;0;1729.58;1740.49;1;74642785;0.0860147;0.3211;-2.54068;-0.309653;-0.0910816;0.939378;0.232762;-0.0890047;0.230181;74641999;47.59976139;-122.83722494;126.78807148;0.00000000;0.00000000;4.58963728;3.00000000;
74642920;81;28.2;27.8;0;28.3;30.2;0;0;0;0;0;-0.001;0.5339;0.0955;42.0574;7.9235;183514;184672;54;0;1;0.005;-0.074;74642837;0.5339;0.0955;42.0574;7.9235;0.859;540.836;0;0;0;1729.58;1740.49;1;74642879;0.0858195;0.321028;-2.54096;-0.312996;-0.0842971;0.939542;0.0174481;-0.0895306;0.178805;74641999;47.59976139;-122.83722494;126.78807148;0.00000000;0.00000000;4.58963728;3.00000000;
74643057;81;28.2;27.8;0;28.2;30.2;0;0;0;0;0;-0.001;0.5339;0.0955;42.0574;7.9235;183514;184672;54;0;1;0.006;-0.075;74642921;0.5339;0.0955;42.0574;7.9235;0.859;540.845;0;0;0;1729.58;1740.49;1;74643024;0.0858329;0.320939;-2.54118;-0.310566;-0.0833233;0.939633;-0.052284;-0.0894679;0.184923;74641999;47.59976139;-122.83722494;126.78807148;0.00000000;0.00000000;4.58963728;3.00000000;
74643154;81;28.2;27.7;0;28.2;30.2;0;0;0;0;0;-0.001;0.5339;0.0955;42.0574;7.9235;183514;184672;54;0;1;0.005;-0.075;74643059;0.5339;0.0955;42.0574;7.9235;0.859;540.856;0;0;0;1729.58;1740.49;1;74643106;0.0859732;0.320538;-2.54145;-0.311512;-0.0837503;0.939447;0.0174481;-0.229523;0.180238;74641999;47.59976139;-122.83722494;126.78807148;0.00000000;0.00000000;4.58963728;3.00000000;
74643242;81;28.2;27.8;0;28.2;30.2;0;0;0;0;0;-0.001;0.5339;0.0955;42.0574;7.9235;183514;184672;54;0;1;0.006;-0.075;74643155;0.5339;0.0955;42.0574;7.9235;0.859;540.876;0;0;0;1729.58;1740.49;1;74643190;0.0856086;0.319781;-2.54179;-0.310583;-0.0759485;0.939012;0.296377;-0.649752;0.160067;74641999;47.59976139;-122.83722494;126.78807148;0.00000000;0.00000000;4.58963728;3.00000000;
74643336;81;28.2;27.8;0;28.2;30.2;0;0;0;0;0;-0.001;0.5339;0.0955;42.0574;7.9235;183514;184672;54;0;1;0.006;-0.074;74643336;0.5339;0.0955;42.0574;7.9235;0.859;540.912;0;0;0;1729.58;1740.49;1;74643324;0.0850605;0.31941;-2.54226;-0.313755;-0.0818314;0.939288;0.0810624;0.119682;0.10081;74641999;47.59976139;-122.83722494;126.78807148;0.00000000;0.00000000;4.58963728;3.00000000;
74643413;81;28.2;27.9;0;28.2;30.2;0;0;0;0;0;-0.001;0.5339;0.0955;42.0574;7.9235;183514;184672;54;0;1;0.006;-0.075;74643336;0.5339;0.0955;42.0574;7.9235;0.859;540.912;0;0;0;1729.58;1740.49;1;74643324;0.0850605;0.31941;-2.54226;-0.313755;-0.0818314;0.939288;0.0810624;0.119682;0.10081;74641999;47.59976139;-122.83722494;126.78807148;0.00000000;0.00000000;4.58963728;3.00000000;
74643510;81;28.2;27.8;0;28.2;30.2;0;0;0;0;0;-0.001;0.5339;0.0955;42.0574;7.9235;183514;184672;54;0;1;0.005;-0.074;74643461;0.5339;0.0955;42.0574;7.9235;0.86;540.94;0;0;0;1729.58;1740.49;1;74643462;0.0852022;0.319719;-2.54255;-0.310182;-0.0857184;0.940007;0.16303;0.191043;0.233433;74641999;47.59976139;-122.83722494;126.78807148;0.00000000;0.00000000;4.58963728;3.00000000;
74643656;81;28.2;27.8;0;28.1;30.2;0;0;0;0;0;-0.001;0.5339;0.0955;42.0574;7.9235;183514;184672;54;0;1;0.006;-0.074;74643551;0.5339;0.0955;42.0574;7.9235;0.86;540.97;0;0;0;1729.58;1740.49;1;74643644;0.0847388;0.319861;-2.54299;-0.312399;-0.0881312;0.940252;0.226645;0.120271;0.158304;74642999;47.59976139;-122.83722494;126.78933972;0.00000000;0.00000000;4.58975124;3.00000000;
74643730;81;28.2;27.8;0;28.2;30.2;0;0;0;0;0;-0.001;0.5339;0.0955;42.0574;7.9235;183514;184672;54;0;1;0.005;-0.075;74643657;0.5339;0.0955;42.0574;7.9235;0.86;540.985;0;0;0;1729.58;1740.49;1;74643644;0.0847388;0.319861;-2.54299;-0.312399;-0.0881312;0.940252;0.226645;0.120271;0.158304;74642999;47.59976139;-122.83722494;126.78933972;0.00000000;0.00000000;4.58975124;3.00000000;
74643822;81;28.2;27.8;0;28.2;30.2;0;0;0;0;0;-0.001;0.5339;0.0955;42.0574;7.9235;183514;184672;54;0;1;0.006;-0.074;74643782;0.5339;0.0955;42.0574;7.9235;0.86;541.009;0;0;0;1729.58;1740.49;1;74643783;0.0846213;0.319638;-2.54355;-0.312254;-0.077436;0.940272;-0.128134;-0.160115;0.122028;74642999;47.59976139;-122.83722494;126.78933972;0.00000000;0.00000000;4.58975124;3.00000000;
74643910;81;28.2;27.7;0;28.2;30.2;0;0;0;0;0;-0.001;0.5339;0.0955;42.0574;7.9235;183514;184672;54;0;1;0.005;-0.074;74643867;0.5339;0.0955;42.0574;7.9235;0.86;541.019;0;0;0;1729.58;1740.49;1;74643868;0.0853954;0.318972;-2.54348;-0.306455;-0.0895303;0.939908;-0.203984;-0.370755;0.0605664;74642999;47.59976139;-122.83722494;126.78933972;0.00000000;0.00000000;4.58975124;3.00000000;
74644000;81;28.2;27.8;0;28.2;30.2;0;0;0;0;0;-0.001;0.5339;0.0955;42.0574;7.9235;183514;184672;54;0;1;0.005;-0.074;74643955;0.5339;0.0955;42.0574;7.9235;0.86;541.038;0;0;0;1729.58;1740.49;1;74643955;0.0851697;0.318985;-2.54372;-0.308442;-0.080262;0.940098;0.745359;0.123401;0.464124;74642999;47.59976139;-122.83722494;126.78933972;0.00000000;0.00000000;4.58975124;3.00000000;
74644139;81;28.2;27.8;0;28.2;30.2;0;0;0;0;0;-0.001;0.5339;0.0955;42.0574;7.9235;183514;184672;54;0;1;0.005;-0.074;74644051;0.5339;0.0955;42.0574;7.9235;0.86;541.051;0;0;0;1729.58;1740.49;1;74644052;0.0845469;0.319189;-2.54414;-0.310352;-0.0808585;0.940302;0.16303;0.121047;0.23415;74642999;47.59976139;-122.83722494;126.78933972;0.00000000;0.00000000;4.58975124;3.00000000;
74644225;81;28.2;27.9;0;28.2;30.2;0;0;0;0;0;-0.001;0.5339;0.0955;42.0574;7.9235;183514;184672;54;0;1;0.005;-0.075;74644146;0.5339;0.0955;42.0574;7.9235;0.86;541.064;0;0;0;1729.58;1740.49;1;74644183;0.0840709;0.319538;-2.5446;-0.308706;-0.0794312;0.940525;-0.128134;0.11987;0.119163;74642999;47.59976139;-122.83722494;126.78933972;0.00000000;0.00000000;4.58975124;3.00000000;
74644312;81;28.2;27.8;0;28.2;30.2;0;0;0;0;0;-0.001;0.5339;0.0955;42.0574;7.9235;183514;184672;54;0;1;0.005;-0.074;74644225;0.5339;0.0955;42.0574;7.9235;0.86;541.089;0;0;0;1729.58;1740.49;1;74644273;0.0836897;0.319514;-2.54493;-0.311427;-0.0759327;0.940392;0.150795;-0.0203731;0.0961254;74642999;47.59976139;-122.83722494;126.78933972;0.00000000;0.00000000;4.58975124;3.00000000;
74644404;81;28.2;27.8;0;28.2;30.2;0;0;0;0;0;-0.001;0.5339;0.0955;42.0574;7.9235;183514;184672;54;0;1;0.006;-0.074;74644313;0.5339;0.0955;42.0574;7.9235;0.86;541.106;0;0;0;1729.58;1740.49;1;74644359;0.0833617;0.319489;-2.54525;-0.314514;-0.0710703;0.940305;-0.122016;-0.019409;0.190324;74642999;47.59976139;-122.83722494;126.78933972;0.00000000;0.00000000;4.58975124;3.00000000;
74644494;81;28.2;27.8;0;28.1;30.2;0;0;0;0;0;-0.001;0.5339;0.0955;42.0574;7.9235;183514;184672;54;0;1;0.006;-0.074;74644409;0.5339;0.0955;42.0574;7.9235;0.86;541.122;0;0;0;1729.58;1740.49;1;74644451;0.0839908;0.319402;-2.54523;-0.307939;-0.0837334;0.94029;-0.279834;-0.231414;-0.00447736;74642999;47.59976139;-122.83722494;126.78933972;0.00000000;0.00000000;4.58975124;3.00000000;
74644584;81;28.2;27.8;0;28.2;30.2;0;0;0;0;0;-0.001;0.5339;0.0955;42.0574;7.9235;183514;184672;54;0;1;0.006;-0.074;74644499;0.5339;0.0955;42.0574;7.9235;0.86;541.123;0;0;0;1729.58;1740.49;1;74644543;0.0844399;0.319153;-2.54536;-0.311128;-0.0798017;0.940161;-0.343448;-0.160641;0.0706522;74643999;47.59976139;-122.83722494;126.77429174;0.00000000;0.00000000;4.60580540;3.00000000;
74644674;81;28.2;27.9;0;28.2;30.2;0;0;0;0;0;-0.001;0.5339;0.0955;42.0574;7.9235;183514;184672;54;0;1;0.006;-0.074;74644585;0.5339;0.0955;42.0574;7.9235;0.86;541.124;0;0;0;1729.58;1740.49;1;74644628;0.0852716;0.319058;-2.5453;-0.308979;-0.0906293;0.940267;-0.210102;0.048509;-0.0134605;74643999;47.59976139;-122.83722494;126.77429174;0.00000000;0.00000000;4.60580540;3.00000000;
74644763;81;28.2;27.8;0;28.1;30.2;0;0;0;0;0;-0.001;0.5339;0.0955;42.0574;7.9235;183514;184672;54;0;1;0.005;-0.074;74644675;0.5339;0.0955;42.0574;7.9235;0.86;541.129;0;0;0;1729.58;1740.49;1;74644718;0.0856788;0.319079;-2.54544;-0.312442;-0.0847204;0.940376;-0.501266;-0.0226642;-0.127731;74643999;47.59976139;-122.83722494;126.77429174;0.00000000;0.00000000;4.60580540;3.00000000;
74644857;81;28.2;27.8;0;28.3;30.2;0;0;0;0;0;-0.001;0.5339;0.0955;42.0574;7.9235;183514;184672;54;0;1;0.006;-0.074;74644768;0.5339;0.0955;42.0574;7.9235;0.86;541.143;0;0;0;1729.58;1740.49;1;74644810;0.0867622;0.319301;-2.54528;-0.311214;-0.091035;0.940645;-0.343448;0.39933;0.064921;74643999;47.59976139;-122.83722494;126.77429174;0.00000000;0.00000000;4.60580540;3.00000000;
74644945;81;28.2;27.8;0;28.2;30.2;0;0;0;0;0;-0.001;0.5339;0.0955;42.0574;7.9235;183514;184672;54;0;1;0.006;-0.074;74644858;0.5339;0.0955;42.0574;7.9235;0.86;541.157;0;0;0;1729.58;1740.49;1;74644902;0.0869791;0.319833;-2.54546;-0.313354;-0.0828178;0.940914;-0.128134;0.259863;0.11773;74643999;47.59976139;-122.83722494;126.77429174;0.00000000;0.00000000;4.60580540;3.00000000;
74645035;81;28.2;27.8;0;28.2;30.2;0;0;0;0;0;-0.001;0.5339;0.0955;42.0574;7.9235;183514;184672;54;0;1;0.005;-0.074;74644946;0.5339;0.0955;42.0574;7.9235;0.86;541.161;0;0;0;1729.58;1740.49;1;74644992;0.0873114;0.31982;-2.54558;-0.311111;-0.0857126;0.940585;-0.203984;-0.09077;0.0577008;74643999;47.59976139;-122.83722494;126.77429174;0.00000000;0.00000000;4.60580540;3.00000000;
74645127;81;28.2;27.8;0;28.2;30.2;0;0;0;0;0;-0.001;0.5339;0.0955;42.0574;7.9235;183514;184672;54;0;1;0.006;-0.074;74645036;0.5339;0.0955;42.0574;7.9235;0.86;541.175;0;0;0;1729.58;1740.49;1;74645079;0.0874541;0.319761;-2.54575;-0.309593;-0.0808843;0.940259;-0.052284;-0.0194716;0.184206;74643999;47.59976139;-122.83722494;126.77429174;0.00000000;0.00000000;4.60580540;3.00000000;
74645215;81;28.2;27.8;0;28.2;30.2;0;0;0;0;0;-0.001;0.5339;0.0955;42.0574;7.9235;183514;184672;54;0;1;0.006;-0.075;74645128;0.5339;0.0955;42.0574;7.9235;0.86;541.198;0;0;0;1729.58;1740.49;1;74645168;0.087298;0.319563;-2.54603;-0.309516;-0.0797279;0.939924;0.156912;-0.229648;0.168003;74643999;47.59976139;-122.83722494;126.77429174;0.00000000;0.00000000;4.60580540;3.00000000;
74645316;81;28.2;27.8;0;28.2;30.2;0;0;0;0;0;-0.001;0.5339;0.0955;42.0574;7.9235;183514;184672;54;0;1;0.006;-0.074;74645215;0.5339;0.0955;42.0574;7.9235;0.86;541.226;0;0;0;1729.58;1740.49;1;74645269;0.08708;0.319377;-2.54633;-0.309371;-0.0807441;0.939776;0.150795;-0.0203731;0.0961254;74643999;47.59976139;-122.83722494;126.77429174;0.00000000;0.00000000;4.60580540;3.00000000;
74645402;81;28.2;27.8;0;28.2;30.2;0;0;0;0;0;-0.001;0.5339;0.0955;42.0574;7.9235;183514;184672;54;0;1;0.006;-0.075;74645317;0.5339;0.0955;42.0574;7.9235;0.86;541.242;0;0;0;1729.58;1740.49;1;74645402;0.0873164;0.319341;-2.54662;-0.312339;-0.0857415;0.939893;-0.0584018;0.0498111;0.113762;74643999;47.59976139;-122.83722494;126.77429174;0.00000000;0.00000000;4.60580540;3.00000000;
74645485;81;28.2;27.7;0;28.2;30.2;0;0;0;0;0;-0.001;0.5339;0.0955;42.0574;7.9235;183514;184672;54;0;1;0.005;-0.074;74645403;0.5339;0.0955;42.0574;7.9235;0.86;541.246;0;0;0;1729.58;1740.49;1;74645402;0.0873164;0.319341;-2.54662;-0.312339;-0.0857415;0.939893;-0.0584018;0.0498111;0.113762;74643999;47.59976139;-122.83722494;126.77429174;0.00000000;0.00000000;4.60580540;3.00000000;
74645618;81;28.2;27.8;0;28.2;30.2;0;0;0;0;0;-0.001;0.5339;0.0955;42.0574;7.9235;183514;184672;54;0;1;0.006;-0.075;74645486;0.5339;0.0955;42.0574;7.9235;0.86;541.254;0;0;0;1729.58;1740.49;1;74645486;0.0872494;0.319312;-2.54687;-0.313679;-0.0838887;0.939943;0.0113302;-0.300233;0.111226;74644999;47.59976139;-122.83722494;126.75633934;0.00000000;0.00000000;4.60571814;3.00000000;
74645708;81;28.2;27.8;0;28.3;30.2;0;0;0;0;0;-0.001;0.5339;0.0955;42.0574;7.9235;183514;184672;54;0;1;0.006;-0.074;74645620;0.5339;0.0955;42.0574;7.9235;0.86;541.268;0;0;0;1729.58;1740.49;1;74645626;0.0870194;0.31887;-2.5473;-0.311043;-0.0851595;0.939904;0.232762;-0.159001;0.230898;74644999;47.59976139;-122.83722494;126.75633934;0.00000000;0.00000000;4.60571814;3.00000000;
74645800;81;28.2;27.8;0;28.2;30.2;0;0;0;0;0;-0.001;0.5339;0.0955;42.0574;7.9235;183514;184672;54;0;1;0.005;-0.074;74645800;0.5339;0.0955;42.0574;7.9235;0.86;541.317;0;0;0;1729.58;1740.49;1;74645712;0.0866375;0.318757;-2.54767;-0.311828;-0.082266;0.939993;0.308612;-0.0883537;0.293792;74644999;47.59976139;-122.83722494;126.75633934;0.00000000;0.00000000;4.60571814;3.00000000;
74645898;81;28.2;27.8;0;28.2;30.2;0;0;0;0;0;-0.001;0.5339;0.0955;42.0574;7.9235;183514;184672;54;0;1;0.006;-0.074;74645800;0.5339;0.0955;42.0574;7.9235;0.86;541.317;0;0;0;1729.58;1740.49;1;74645802;0.0863802;0.319028;-2.548;-0.310668;-0.0744945;0.940376;0.0113302;0.329734;0.104778;74644999;47.59976139;-122.83722494;126.75633934;0.00000000;0.00000000;4.60571814;3.00000000;
74646024;81;28.1;27.8;0;28.2;30.2;0;0;0;0;0;-0.001;0.5339;0.0955;42.0574;7.9235;183514;184672;54;0;1;0.005;-0.074;74645899;0.5339;0.0955;42.0574;7.9235;0.86;541.331;0;0;0;1729.58;1740.49;1;74645900;0.0865616;0.319216;-2.54816;-0.30874;-0.077369;0.940589;-0.122016;0.0505873;0.189608;74644999;47.59976139;-122.83722494;126.75633934;0.00000000;0.00000000;4.60571814;3.00000000;
74646115;81;28.2;27.8;0;28.2;30.2;0;0;0;0;0;-0.001;0.5339;0.0955;42.0574;7.9235;183514;184672;54;0;1;0.006;-0.074;74646073;0.5339;0.0955;42.0574;7.9235;0.86;541.338;0;0;0;1729.58;1740.49;1;74646075;0.0866417;0.319399;-2.54846;-0.309755;-0.0812769;0.940685;0.0235659;-0.0188206;0.247817;74644999;47.59976139;-122.83722494;126.75633934;0.00000000;0.00000000;4.60571814;3.00000000;
74646204;81;28.2;27.8;0;28.2;30.2;0;0;0;0;0;-0.001;0.5339;0.0955;42.0574;7.9235;183514;184672;54;0;1;0.005;-0.074;74646166;0.5339;0.0955;42.0574;7.9235;0.86;541.345;0;0;0;1729.58;1740.49;1;74646167;0.0866959;0.319518;-2.54882;-0.314514;-0.0871734;0.940676;0.0113302;0.119745;0.106928;74644999;47.59976139;-122.83722494;126.75633934;0.00000000;0.00000000;4.60571814;3.00000000;
74646298;81;28.2;27.8;0;28.2;30.2;0;0;0;0;0;-0.001;0.5339;0.0955;42.0574;7.9235;183514;184672;54;0;1;0.006;-0.074;74646255;0.5339;0.0955;42.0574;7.9235;0.86;541.362;0;0;0;1729.58;1740.49;1;74646257;0.0868529;0.319547;-2.549;-0.313269;-0.0852477;0.940584;-0.128134;-0.0201226;0.120595;74644999;47.59976139;-122.83722494;126.75633934;0.00000000;0.00000000;4.60571814;3.00000000;
74646391;81;28.2;27.8;0;28.2;30.2;0;0;0;0;0;-0.001;0.5339;0.0955;42.0574;7.9235;183514;184672;54;0;1;0.005;-0.075;74646342;0.5339;0.0955;42.0574;7.9235;0.86;541.386;0;0;0;1729.58;1740.49;1;74646343;0.0872584;0.319677;-2.54913;-0.30579;-0.0852895;0.940595;-0.210102;0.048509;-0.0134605;74644999;47.59976139;-122.83722494;126.75633934;0.00000000;0.00000000;4.60571814;3.00000000;
74646478;81;28.2;27.7;0;28.2;30.2;0;0;0;0;0;-0.001;0.5339;0.0955;42.0574;7.9235;183514;184672;54;0;1;0.006;-0.073;74646434;0.5339;0.0955;42.0574;7.9235;0.86;541.403;0;0;0;1729.58;1740.49;1;74646435;0.0877364;0.319621;-2.5492;-0.310779;-0.0892039;0.940462;-0.279834;0.0485716;-0.00734297;74644999;47.59976139;-122.83722494;126.75633934;0.00000000;0.00000000;4.60571814;3.00000000;
74646568;81;28.2;27.8;0;28.2;30.2;0;0;0;0;0;-0.001;0.5339;0.0955;42.0574;7.9235;183514;184672;54;0;1;0.006;-0.074;74646520;0.5339;0.0955;42.0574;7.9235;0.86;541.415;0;0;0;1729.58;1740.49;1;74646520;0.0878767;0.31962;-2.54939;-0.313781;-0.0833555;0.940428;-0.115898;0.121297;0.25862;74645999;47.59976139;-122.83722494;126.76600196;0.00000000;0.00000000;4.60563278;3.00000000;
74646662;81.1;28.2;27.8;0;28.2;30.2;0;0;0;0;0;-0.001;0.5339;0.0955;42.0574;7.9235;183514;184672;54;0;1;0.006;-0.074;74646612;0.5339;0.0955;42.0574;7.9235;0.86;541.42;0;0;0;1729.58;1740.49;1;74646613;0.0877266;0.319527;-2.54965;-0.308698;-0.0812678;0.940263;0.0113302;-0.0202479;0.10836;74645999;47.59976139;-122.83722494;126.76600196;0.00000000;0.00000000;4.60563278;3.00000000;
74646749;81.1;28.2;27.7;0;28.2;30.2;0;0;0;0;0;-0.001;0.5339;0.0955;42.0574;7.9235;183514;184672;54;0;1;0.005;-0.074;74646701;0.5339;0.0955;42.0574;7.9235;0.86;541.448;0;0;0;1729.58;1740.49;1;74646701;0.0876522;0.319542;-2.54987;-0.30805;-0.0838035;0.940149;-0.0584018;-0.0201853;0.114478;74645999;47.59976139;-122.83722494;126.76600196;0.00000000;0.00000000;4.60563278;3.00000000;
74646833;81;28.2;27.8;0;28.2;30.2;0;0;0;0;0;-0.001;0.5339;0.0955;42.0574;7.9235;183514;184672;54;0;1;0.006;-0.074;74646792;0.5339;0.0955;42.0574;7.9235;0.86;541.477;0;0;0;1729.58;1740.49;1;74646792;0.0876871;0.319367;-2.5501;-0.308109;-0.0876571;0.939994;0.0932981;-0.0188832;0.2417;74645999;47.59976139;-122.83722494;126.76600196;0.00000000;0.00000000;4.60563278;3.00000000;
74646925;81;28.2;27.8;0;28.2;30.2;0;0;0;0;0;-0.001;0.5339;0.0955;42.0574;7.9235;183514;184672;54;0;1;0.006;-0.075;74646880;0.5339;0.0955;42.0574;7.9235;0.86;541.505;0;0;0;1729.58;1740.49;1;74646880;0.0877318;0.319374;-2.5503;-0.309124;-0.0857093;0.94006;-0.267598;0.119995;0.131398;74645999;47.59976139;-122.83722494;126.76600196;0.00000000;0.00000000;4.60563278;3.00000000;
74647017;81.1;28.2;27.9;0;28.2;30.2;0;0;0;0;0;-0.001;0.5339;0.0955;42.0574;7.9235;183514;184672;54;0;1;0.005;-0.075;74646968;0.5339;0.0955;42.0574;7.9235;0.86;541.534;0;0;0;1729.58;1740.49;1;74646968;0.0883221;0.318992;-2.55042;-0.311802;-0.0724464;0.93989;-0.925777;-0.722966;-0.153591;74645999;47.59976139;-122.83722494;126.76600196;0.00000000;0.00000000;4.60563278;3.00000000;
74647152;81;28.2;27.8;0;28.2;30.2;0;0;0;0;0;-0.001;0.5339;0.0955;42.0574;7.9235;183514;184672;54;0;1;0.005;-0.074;74647108;0.5339;0.0955;42.0574;7.9235;0.86;541.554;0;0;0;1729.58;1740.49;1;74647108;0.0902116;0.318441;-2.55008;-0.311154;-0.0896213;0.939849;-0.767959;-0.230975;0.0383451;74645999;47.59976139;-122.83722494;126.76600196;0.00000000;0.00000000;4.60563278;3.00000000;
74647283;81.1;28.2;27.8;0;28.1;30.2;0;0;0;0;0;-0.001;0.5339;0.0955;42.0574;7.9235;183514;184672;54;0;1;0.006;-0.074;74647193;0.5339;0.0955;42.0574;7.9235;0.861;541.588;0;0;0;1729.58;1740.49;1;74647193;0.0913906;0.318201;-2.55002;-0.308894;-0.0989149;0.940162;0.00521243;0.189027;0.0364827;74645999;47.59976139;-122.83722494;126.76600196;0.00000000;0.00000000;4.60563278;3.00000000;
74647375;81.1;28.2;27.8;0;28.2;30.2;0;0;0;0;0;-0.001;0.5339;0.0955;42.0574;7.9235;183514;184672;54;0;1;0.005;-0.074;74647284;0.5339;0.0955;42.0574;7.9235;0.861;541.615;0;0;0;1729.58;1740.49;1;74647331;0.091191;0.318677;-2.55041;-0.308561;-0.0823993;0.940678;0.150795;-0.0203731;0.0961254;74645999;47.59976139;-122.83722494;126.76600196;0.00000000;0.00000000;4.60563278;3.00000000;
74647466;81.1;28.2;27.8;0;28.3;30.2;0;0;0;0;0;-0.001;0.5339;0.0955;42.0574;7.9235;183514;184672;54;0;1;0.006;-0.074;74647376;0.5339;0.0955;42.0574;7.9235;0.861;541.632;0;0;0;1729.58;1740.49;1;74647425;0.0908599;0.318572;-2.55072;-0.307128;-0.0890066;0.940518;0.169148;0.0517642;0.304595;74645999;47.59976139;-122.83722494;126.76600196;0.00000000;0.00000000;4.60563278;3.00000000;
74647555;81.1;28.2;27.8;0;28.1;30.2;0;0;0;0;0;-0.001;0.5339;0.0955;42.0574;7.9235;183514;184672;54;0;1;0.005;-0.073;74647467;0.5339;0.0955;42.0574;7.9235;0.861;541.654;0;0;0;1729.58;1740.49;1;74647510;0.0899486;0.31889;-2.55123;-0.308783;-0.0788379;0.940603;0.599777;0.0528159;0.407346;74645999;47.59976139;-122.83722494;126.76600196;0.00000000;0.00000000;4.60563278;3.00000000;
74647643;81.1;28.2;27.8;0;28.2;30.2;0;0;0;0;0;-0.001;0.5339;0.0955;42.0574;7.9235;183514;184672;54;0;1;0.006;-0.074;74647556;0.5339;0.0955;42.0574;7.9235;0.861;541.678;0;0;0;1729.58;1740.49;1;74647600;0.0894679;0.318856;-2.55158;-0.31147;-0.0856972;0.940429;0.156912;0.0503369;0.165138;74646999;47.59976139;-122.83722494;126.79668394;0.00000000;0.00000000;4.60554695;3.00000000;
74647735;81.1;28.2;27.8;0;28.2;30.2;0;0;0;0;0;-0.001;0.5339;0.0955;42.0574;7.9235;183514;184672;54;0;1;0.006;-0.074;74647644;0.5339;0.0955;42.0574;7.9235;0.861;541.706;0;0;0;1729.58;1740.49;1;74647689;0.0887948;0.319053;-2.55202;-0.309926;-0.0871525;0.940491;0.511691;0.260727;0.202129;74646999;47.59976139;-122.83722494;126.79668394;0.00000000;0.00000000;4.60554695;3.00000000;
74647825;81.1;28.2;27.8;0;28.2;30.2;0;0;0;0;0;-0.001;0.5339;0.0955;42.0574;7.9235;183514;184672;54;0;1;0.005;-0.074;74647736;0.5339;0.0955;42.0574;7.9235;0.861;541.732;0;0;0;1729.58;1740.49;1;74647778;0.0872734;0.319216;-2.55267;-0.310523;-0.0847822;0.94034;1.31545;0.0543308;0.555357;74646999;47.59976139;-122.83722494;126.79668394;0.00000000;0.00000000;4.60554695;3.00000000;
74647912;81.1;28.2;27.7;0;28.2;30.2;0;0;0;0;0;-0.001;0.5339;0.0955;42.0574;7.9235;183514;184672;54;0;1;0.005;-0.074;74647825;0.5339;0.0955;42.0574;7.9235;0.861;541.752;0;0;0;1729.58;1740.49;1;74647868;0.085603;0.319418;-2.55339;-0.310011;-0.0822827;0.940258;0.31473;0.122349;0.361372;74646999;47.59976139;-122.83722494;126.79668394;0.00000000;0.00000000;4.60554695;3.00000000;
74648003;81.1;28.2;27.8;0;28.2;30.2;0;0;0;0;0;-0.001;0.5339;0.0955;42.0574;7.9235;183514;184672;54;0;1;0.006;-0.074;74647917;0.5339;0.0955;42.0574;7.9235;0.861;541.78;0;0;0;1729.58;1740.49;1;74647958;0.0857696;0.319665;-2.5536;-0.310378;-0.0765269;0.940365;-0.774077;0.0482962;-0.034249;74646999;47.59976139;-122.83722494;126.79668394;0.00000000;0.00000000;4.60554695;3.00000000;
74648137;81.1;28.2;27.8;0;28.2;30.2;0;0;0;0;0;-0.001;0.5339;0.0955;42.0574;7.9235;183514;184672;54;0;1;0.006;-0.074;74648015;0.5339;0.0955;42.0574;7.9235;0.861;541.808;0;0;0;1729.58;1740.49;1;74648056;0.0871152;0.319563;-2.55341;-0.308365;-0.0940306;0.940229;-0.41318;-0.160579;0.0767697;74646999;47.59976139;-122.83722494;126.79668394;0.00000000;0.00000000;4.60554695;3.00000000;
74648229;81.1;28.2;27.8;0;28.2;30.2;0;0;0;0;0;-0.001;0.5339;0.0955;42.0574;7.9235;183514;184672;54;0;1;0.005;-0.074;74648139;0.5339;0.0955;42.0574;7.9235;0.861;541.838;0;0;0;1729.58;1740.49;1;74648153;0.0873685;0.319586;-2.55354;-0.313968;-0.0886879;0.940135;0.16303;-0.0889421;0.236299;74646999;47.59976139;-122.83722494;126.79668394;0.00000000;0.00000000;4.60554695;3.00000000;
74648318;81.1;28.2;27.7;0;28.2;30.2;0;0;0;0;0;-0.001;0.5339;0.0955;42.0574;7.9235;183514;184672;54;0;1;0.005;-0.074;74648230;0.5339;0.0955;42.0574;7.9235;0.861;541.858;0;0;0;1729.58;1740.49;1;74648233;0.0867505;0.319654;-2.55394;-0.311802;-0.0914774;0.940007;1.09402;0.0530913;0.434253;74646999;47.59976139;-122.83722494;126.79668394;0.00000000;0.00000000;4.60554695;3.00000000;
74648417;81.1;28.2;27.8;0;28.2;30.2;0;0;0;0;0;-0.001;0.5339;0.0955;42.0574;7.9235;183514;184672;54;0;1;0.006;-0.074;74648416;0.5339;0.0955;42.0574;7.9235;0.861;541.867;0;0;0;1729.58;1740.49;1;74648374;0.0844355;0.320081;-2.55501;-0.312988;-0.0749102;0.93995;0.39058;-0.156985;0.427848;74646999;47.59976139;-122.83722494;126.79668394;0.00000000;0.00000000;4.60554695;3.00000000;
74648549;81.1;28.2;27.7;0;28.2;30.2;0;0;0;0;0;-0.001;0.5339;0.0955;42.0574;7.9235;183514;184672;54;0;1;0.005;-0.075;74648416;0.5339;0.0955;42.0574;7.9235;0.861;541.867;0;0;0;1729.58;1740.49;1;74648458;0.0842041;0.320196;-2.55531;-0.311853;-0.0803742;0.939976;0.0113302;0.259737;0.105495;74646999;47.59976139;-122.83722494;126.79668394;0.00000000;0.00000000;4.60554695;3.00000000;
74648680;81.1;28.2;27.8;0;28.2;30.2;0;0;0;0;0;-0.001;0.5339;0.0955;42.0574;7.9235;183514;184672;54;0;1;0.006;-0.074;74648636;0.5339;0.0955;42.0574;7.9235;0.861;541.882;0;0;0;1729.58;1740.49;1;74648598;0.0850802;0.320287;-2.55536;-0.313806;-0.0860577;0.940039;-0.407063;-0.0898686;0.145782;74647999;47.59976139;-122.83722494;126.82633870;0.00000000;0.00000000;4.36722851;3.00000000;
74648773;81.1;28.2;27.8;0;28.2;30.2;0;0;0;0;0;-0.001;0.5339;0.0955;42.0574;7.9235;183514;184672;54;0;1;0.005;-0.073;74648734;0.5339;0.0955;42.0574;7.9235;0.861;541.896;0;0;0;1729.58;1740.49;1;74648682;0.0854014;0.320667;-2.55546;-0.313218;-0.0829733;0.940334;0.169148;0.121761;0.303878;74647999;47.59976139;-122.83722494;126.82633870;0.00000000;0.00000000;4.36722851;3.00000000;
74648863;81.1;28.2;27.8;0;28.2;30.2;0;0;0;0;0;-0.001;0.5339;0.0955;42.0574;7.9235;183514;184672;54;0;1;0.006;-0.074;74648821;0.5339;0.0955;42.0574;7.9235;0.861;541.907;0;0;0;1729.58;1740.49;1;74648775;0.0854362;0.320349;-2.55562;-0.311589;-0.0851088;0.939981;0.0296837;-0.1581;0.318979;74647999;47.59976139;-122.83722494;126.82633870;0.00000000;0.00000000;4.36722851;3.00000000;
74649047;81.1;28.2;27.7;0;28.2;30.2;0;0;0;0;0;-0.001;0.5339;0.0955;42.0574;7.9235;183514;184672;54;0;1;0.005;-0.074;74649001;0.5339;0.0955;42.0574;7.9235;0.861;541.91;0;0;0;1729.58;1740.49;1;74648864;0.0853663;0.320565;-2.55588;-0.310122;-0.0838167;0.940146;0.16303;0.121047;0.23415;74647999;47.59976139;-122.83722494;126.82633870;0.00000000;0.00000000;4.36722851;3.00000000;
74649127;81.1;28.2;27.8;0;28.2;30.2;0;0;0;0;0;-0.001;0.5339;0.0955;42.0574;7.9235;183514;184672;54;0;1;0.006;-0.074;74649083;0.5339;0.0955;42.0574;7.9235;0.861;541.923;0;0;0;1729.58;1740.49;1;74649048;0.0855459;0.320708;-2.55625;-0.312894;-0.0804385;0.940104;-0.197866;-0.02006;0.126713;74647999;47.59976139;-122.83722494;126.82633870;0.00000000;0.00000000;4.36722851;3.00000000;
74649218;81.1;28.2;27.7;0;28.1;30.2;0;0;0;0;0;-0.001;0.5339;0.0955;42.0574;7.9235;183514;184672;54;0;1;0.006;-0.074;74649179;0.5339;0.0955;42.0574;7.9235;0.861;541.94;0;0;0;1729.58;1740.49;1;74649179;0.0858547;0.320785;-2.5565;-0.312357;-0.0808066;0.940007;0.0810624;-0.0203105;0.102243;74647999;47.59976139;-122.83722494;126.82633870;0.00000000;0.00000000;4.36722851;3.00000000;
74649363;81.1;28.2;27.8;0;28.2;30.2;0;0;0;0;0;-0.001;0.5339;0.0955;42.0574;7.9235;183514;184672;54;0;1;0.006;-0.074;74649266;0.5339;0.0955;42.0574;7.9235;0.861;541.962;0;0;0;1729.58;1740.49;1;74649266;0.085666;0.320552;-2.55681;-0.312954;-0.0833161;0.939723;0.16303;-0.158938;0.237015;74647999;47.59976139;-122.83722494;126.82633870;0.00000000;0.00000000;4.36722851;3.00000000;
74649444;81.1;28.2;27.7;0;28.2;30.2;0;0;0;0;0;-0.001;0.5339;0.0955;42.0574;7.9235;183514;184672;54;0;1;0.005;-0.074;74649443;0.5339;0.0955;42.0574;7.9235;0.861;541.989;0;0;0;1729.58;1740.49;1;74649364;0.0855287;0.32048;-2.55706;-0.314574;-0.0841954;0.93962;0.232762;0.050988;0.228748;74649162;47.59971190;-122.83727190;125.40000153;0.00000000;0.00000000;21.06100082;1.00000000;
74649533;81.1;28.2;27.8;0;28.2;30.2;0;0;0;0;0;-0.001;0.5339;0.0955;42.0574;7.9235;183514;184672;54;0;1;0.005;-0.074;74649443;0.5339;0.0955;42.0574;7.9235;0.861;541.989;0;0;0;1729.58;1740.49;1;74649445;0.0849655;0.320558;-2.55747;-0.317056;-0.0848014;0.939608;0.378344;-0.158413;0.288391;74649162;47.59971190;-122.83727190;125.40000153;0.00000000;0.00000000;21.06100082;1.00000000;
74649712;81.1;28.2;27.8;0;28.2;30.2;0;0;0;0;0;-0.001;0.5339;0.0955;42.0574;7.9235;183514;184672;54;0;1;0.006;-0.074;74649533;0.5339;0.0955;42.0574;7.9235;0.861;541.993;0;0;0;1729.58;1740.49;1;74649545;0.0845598;0.320515;-2.55781;-0.3106;-0.0812611;0.93956;0.0113302;0.119745;0.106928;74648999;47.59976139;-122.83722494;126.88765295;0.00000000;0.00000000;4.36720896;3.00000000;
74649851;81.1;28.2;27.8;0;28.1;30.2;0;0;0;0;0;-0.001;0.5339;0.0955;42.0574;7.9235;183514;184672;54;0;1;0.006;-0.074;74649809;0.5339;0.0955;42.0574;7.9235;0.861;542.029;0;0;0;1729.58;1740.49;1;74649728;0.0858693;0.320538;-2.55789;-0.311188;-0.0870711;0.939756;-0.79243;-0.0238411;-0.242718;74648999;47.59976139;-122.83722494;126.88765295;0.00000000;0.00000000;4.36720896;3.00000000;
74649942;81.1;28.1;27.8;0;28.2;30.2;0;0;0;0;0;-0.001;0.5339;0.0955;42.0574;7.9235;183514;184672;54;0;1;0.005;-0.074;74649893;0.5339;0.0955;42.0574;7.9235;0.861;542.047;0;0;0;1729.58;1740.49;1;74649852;0.086099;0.320518;-2.5581;-0.313636;-0.097059;0.93979;0.0871803;-0.159589;0.173404;74648999;47.59976139;-122.83722494;126.88765295;0.00000000;0.00000000;4.36720896;3.00000000;
74650072;81.1;28.2;27.8;0;28.2;30.2;0;0;0;0;0;-0.001;0.5339;0.0955;42.0574;7.9235;183514;184672;54;0;1;0.005;-0.074;74649984;0.5339;0.0955;42.0574;7.9235;0.861;542.056;0;0;0;1729.58;1740.49;1;74649942;0.0859004;0.320307;-2.55838;-0.31367;-0.0876772;0.939683;0.0235659;-0.22881;0.249967;74648999;47.59976139;-122.83722494;126.88765295;0.00000000;0.00000000;4.36720896;3.00000000;
74650212;81.1;28.1;27.8;0;28.2;30.2;0;0;0;0;0;-0.001;0.5339;0.0955;42.0574;7.9235;183514;184672;54;0;1;0.005;-0.074;74650085;0.5339;0.0955;42.0574;7.9235;0.861;542.063;0;0;0;1729.58;1740.49;1;74650084;0.0861311;0.320181;-2.55858;-0.311581;-0.0813755;0.939722;-0.41318;-0.160579;0.0767697;74648999;47.59976139;-122.83722494;126.88765295;0.00000000;0.00000000;4.36720896;3.00000000;
74650297;81.1;28.2;27.8;0;28.2;30.2;0;0;0;0;0;-0.001;0.5339;0.0955;42.0574;7.9235;183514;184672;54;0;1;0.006;-0.073;74650213;0.5339;0.0955;42.0574;7.9235;0.861;542.089;0;0;0;1729.58;1740.49;1;74650214;0.0879171;0.319601;-2.55849;-0.308954;-0.0891052;0.939778;-0.0584018;-0.0901816;0.115194;74648999;47.59976139;-122.83722494;126.88765295;0.00000000;0.00000000;4.36720896;3.00000000;
74650388;81.1;28.2;27.7;0;28.2;30.2;0;0;0;0;0;-0.001;0.5339;0.0955;42.0574;7.9235;183514;184672;54;0;1;0.006;-0.074;74650300;0.5339;0.0955;42.0574;7.9235;0.861;542.101;0;0;0;1729.58;1740.49;1;74650351;0.0876163;0.319467;-2.55881;-0.311768;-0.0818282;0.939819;0.302494;-0.159064;0.22478;74648999;47.59976139;-122.83722494;126.88765295;0.00000000;0.00000000;4.36720896;3.00000000;
74650481;81.1;28.1;27.7;0;28.2;30.2;0;0;0;0;0;-0.001;0.5339;0.0955;42.0574;7.9235;183514;184672;54;0;1;0.006;-0.073;74650399;0.5339;0.0955;42.0574;7.9235;0.861;542.11;0;0;0;1729.58;1740.49;1;74650437;0.0874372;0.319351;-2.5592;-0.311853;-0.0837901;0.939887;0.156912;-0.0196594;0.165854;74648999;47.59976139;-122.83722494;126.88765295;0.00000000;0.00000000;4.36720896;3.00000000;
74650572;81.1;28.2;27.7;0;28.2;30.2;0;0;0;0;0;-0.001;0.5339;0.0955;42.0574;7.9235;183514;184672;54;0;1;0.005;-0.074;74650568;0.5339;0.0955;42.0574;7.9235;0.861;542.116;0;0;0;1729.58;1740.49;1;74650525;0.0868642;0.319277;-2.55959;-0.308527;-0.0856397;0.939858;0.517809;-0.0885415;0.27544;74649999;47.59976139;-122.83722494;126.90777712;0.00000000;0.00000000;4.60528803;3.00000000;
74650659;81.1;28.1;27.8;0;28.2;30.2;0;0;0;0;0;-0.001;0.5339;0.0955;42.0574;7.9235;183514;184672;54;0;1;0.006;-0.074;74650568;0.5339;0.0955;42.0574;7.9235;0.861;542.116;0;0;0;1729.58;1740.49;1;74650616;0.0853571;0.319068;-2.56026;-0.308288;-0.0718914;0.939744;0.745359;-0.016592;0.465556;74649999;47.59976139;-122.83722494;126.90777712;0.00000000;0.00000000;4.60528803;3.00000000;
74650750;81.1;28.2;27.8;0;28.1;30.2;0;0;0;0;0;-0.001;0.5339;0.0955;42.0574;7.9235;183514;184672;54;0;1;0.006;-0.074;74650660;0.5339;0.0955;42.0574;7.9235;0.861;542.118;0;0;0;1729.58;1740.49;1;74650703;0.0846815;0.319207;-2.56071;-0.315273;-0.0671407;0.940014;-0.122016;-0.019409;0.190324;74649999;47.59976139;-122.83722494;126.90777712;0.00000000;0.00000000;4.60528803;3.00000000;
74650841;81.1;28.2;27.7;0;28.1;30.2;0;0;0;0;0;-0.001;0.5339;0.0955;42.0574;7.9235;183514;184672;54;0;1;0.006;-0.073;74650751;0.5339;0.0955;42.0574;7.9235;0.861;542.123;0;0;0;1729.58;1740.49;1;74650793;0.0851375;0.319154;-2.56085;-0.311597;-0.0744887;0.940098;-0.0461662;-0.228747;0.256084;74649999;47.59976139;-122.83722494;126.90777712;0.00000000;0.00000000;4.60528803;3.00000000;
74650972;81.1;28.2;27.7;0;28.1;30.2;0;0;0;0;0;-0.001;0.5339;0.0955;42.0574;7.9235;183514;184672;54;0;1;0.006;-0.074;74650841;0.5339;0.0955;42.0574;7.9235;0.861;542.129;0;0;0;1729.58;1740.49;1;74650886;0.0852158;0.319042;-2.561;-0.309508;-0.0862421;0.940116;0.31473;-0.0176437;0.362804;74649999;47.59976139;-122.83722494;126.90777712;0.00000000;0.00000000;4.60528803;3.00000000;
74651063;81.1;28.2;27.7;0;28.2;30.2;0;0;0;0;0;-0.001;0.5339;0.0955;42.0574;7.9235;183514;184672;54;0;1;0.005;-0.074;74650984;0.5339;0.0955;42.0574;7.9235;0.861;542.13;0;0;0;1729.58;1740.49;1;74651018;0.0841356;0.31907;-2.56163;-0.308152;-0.0857102;0.940133;0.663391;0.262029;0.329351;74649999;47.59976139;-122.83722494;126.90777712;0.00000000;0.00000000;4.60528803;3.00000000;
74651151;81.1;28.2;27.8;0;28.2;30.2;0;0;0;0;0;-0.001;0.5339;0.0955;42.0574;7.9235;183514;184672;54;0;1;0.005;-0.073;74651065;0.5339;0.0955;42.0574;7.9235;0.861;542.133;0;0;0;1729.58;1740.49;1;74651107;0.0829341;0.319407;-2.56224;-0.311154;-0.075958;0.940346;0.663391;0.332025;0.328635;74649999;47.59976139;-122.83722494;126.90777712;0.00000000;0.00000000;4.60528803;3.00000000;
74651244;81.1;28.2;27.8;0;28.3;30.2;0;0;0;0;0;-0.001;0.5339;0.0955;42.0574;7.9235;183514;184672;54;0;1;0.006;-0.074;74651205;0.5339;0.0955;42.0574;7.9235;0.861;542.141;0;0;0;1729.58;1740.49;1;74651244;0.0816756;0.319674;-2.56292;-0.311572;-0.0783323;0.940447;0.23888;0.191694;0.297044;74649999;47.59976139;-122.83722494;126.90777712;0.00000000;0.00000000;4.60528803;3.00000000;
74651340;81.1;28.2;27.7;0;28.2;30.2;0;0;0;0;0;-0.001;0.5339;0.0955;42.0574;7.9235;183514;184672;54;0;1;0.006;-0.074;74651288;0.5339;0.0955;42.0574;7.9235;0.861;542.155;0;0;0;1729.58;1740.49;1;74651244;0.0816756;0.319674;-2.56292;-0.311572;-0.0783323;0.940447;0.23888;0.191694;0.297044;74649999;47.59976139;-122.83722494;126.90777712;0.00000000;0.00000000;4.60528803;3.00000000;
74651424;81.1;28.1;27.8;0;28.2;30.2;0;0;0;0;0;-0.001;0.5339;0.0955;42.0574;7.9235;183514;184672;54;0;1;0.006;-0.074;74651381;0.5339;0.0955;42.0574;7.9235;0.861;542.171;0;0;0;1729.58;1740.49;1;74651341;0.0816609;0.320155;-2.5632;-0.309619;-0.0863122;0.940758;-0.197866;0.329922;0.123131;74649999;47.59976139;-122.83722494;126.90777712;0.00000000;0.00000000;4.60528803;3.00000000;
74651521;81.1;28.2;27.7;0;28.2;30.2;0;0;0;0;0;-0.001;0.5339;0.0955;42.0574;7.9235;183514;184672;54;0;1;0.006;-0.074;74651475;0.5339;0.0955;42.0574;7.9235;0.861;542.187;0;0;0;1729.58;1740.49;1;74651424;0.0821607;0.320338;-2.56324;-0.312715;-0.0866469;0.940674;-0.279834;0.118568;-0.00805937;74649999;47.59976139;-122.83722494;126.90777712;0.00000000;0.00000000;4.60528803;3.00000000;
74651605;81.1;28.2;27.7;0;28.2;30.2;0;0;0;0;0;-0.001;0.5339;0.0955;42.0574;7.9235;183514;184672;54;0;1;0.006;-0.074;74651561;0.5339;0.0955;42.0574;7.9235;0.862;542.207;0;0;0;1729.58;1740.49;1;74651522;0.0823272;0.320463;-2.56338;-0.313798;-0.0769567;0.940562;-0.273716;-0.0207111;0.0631019;74650999;47.59976139;-122.83722494;126.89870887;0.00000000;0.00000000;4.60520172;3.00000000;
74651699;81.1;28.1;27.8;0;28.2;30.2;0;0;0;0;0;-0.001;0.5339;0.0955;42.0574;7.9235;183514;184672;54;0;1;0.006;-0.073;74651648;0.5339;0.0955;42.0574;7.9235;0.862;542.216;0;0;0;1729.58;1740.49;1;74651606;0.0829834;0.320486;-2.56332;-0.315828;-0.0920921;0.940388;0.150795;-0.0903694;0.0968418;74650999;47.59976139;-122.83722494;126.89870887;0.00000000;0.00000000;4.60520172;3.00000000;
74651782;81.1;28.1;27.8;0;28.1;30.2;0;0;0;0;0;-0.001;0.5339;0.0955;42.0574;7.9235;183514;184672;54;0;1;0.005;-0.074;74651743;0.5339;0.0955;42.0574;7.9235;0.862;542.22;0;0;0;1729.58;1740.49;1;74651699;0.0826963;0.320776;-2.5637;-0.310122;-0.0828407;0.940358;0.0174481;0.120458;0.176656;74650999;47.59976139;-122.83722494;126.89870887;0.00000000;0.00000000;4.60520172;3.00000000;
74651921;81.1;28.2;27.8;0;28.2;30.2;0;0;0;0;0;-0.001;0.5339;0.0955;42.0574;7.9235;183514;184672;54;0;1;0.006;-0.074;74651829;0.5339;0.0955;42.0574;7.9235;0.862;542.22;0;0;0;1729.58;1740.49;1;74651784;0.0826742;0.320992;-2.56391;-0.307768;-0.0837135;0.940282;0.0113302;0.329734;0.104778;74650999;47.59976139;-122.83722494;126.89870887;0.00000000;0.00000000;4.60520172;3.00000000;
74652012;81.1;28.2;27.7;0;28.1;30.2;0;0;0;0;0;-0.001;0.5339;0.0955;42.0574;7.9235;183514;184672;54;0;1;0.005;-0.074;74651971;0.5339;0.0955;42.0574;7.9235;0.862;542.225;0;0;0;1729.58;1740.49;1;74651922;0.082505;0.321189;-2.56419;-0.312357;-0.0710471;0.940168;-0.273716;0.0492852;0.0623855;74650999;47.59976139;-122.83722494;126.89870887;0.00000000;0.00000000;4.60520172;3.00000000;
74652102;81.1;28.1;27.7;0;28.2;30.2;0;0;0;0;0;-0.001;0.5339;0.0955;42.0574;7.9235;183514;184672;54;0;1;0.006;-0.074;74652056;0.5339;0.0955;42.0574;7.9235;0.862;542.227;0;0;0;1729.58;1740.49;1;74652013;0.0827975;0.321482;-2.56438;-0.309764;-0.0774884;0.94003;-0.0584018;0.119807;0.113045;74650999;47.59976139;-122.83722494;126.89870887;0.00000000;0.00000000;4.60520172;3.00000000;
74652188;81.1;28.1;27.7;0;28.1;30.2;0;0;0;0;0;-0.001;0.5339;0.0955;42.0574;7.9235;183514;184672;54;0;1;0.005;-0.074;74652144;0.5339;0.0955;42.0574;7.9235;0.862;542.229;0;0;0;1729.58;1740.49;1;74652103;0.0831346;0.321502;-2.56452;-0.314472;-0.076921;0.93989;-0.558763;-0.0211743;0.0178434;74650999;47.59976139;-122.83722494;126.89870887;0.00000000;0.00000000;4.60520172;3.00000000;
74652324;81.1;28.1;27.8;0;28.2;30.2;0;0;0;0;0;-0.001;0.5339;0.0955;42.0574;7.9235;183514;184672;54;0;1;0.005;-0.074;74652239;0.5339;0.0955;42.0574;7.9235;0.862;542.229;0;0;0;1729.58;1740.49;1;74652189;0.0848549;0.321588;-2.56418;-0.312067;-0.0872308;0.939982;-0.925777;0.0469941;-0.161471;74650999;47.59976139;-122.83722494;126.89870887;0.00000000;0.00000000;4.60520172;3.00000000;
74652414;81.1;28.2;27.7;0;28.1;30.2;0;0;0;0;0;-0.001;0.5339;0.0955;42.0574;7.9235;183514;184672;54;0;1;0.005;-0.074;74652328;0.5339;0.0955;42.0574;7.9235;0.862;542.238;0;0;0;1729.58;1740.49;1;74652325;0.0855406;0.321517;-2.56434;-0.310838;-0.0793942;0.939718;0.0871803;0.120396;0.170539;74650999;47.59976139;-122.83722494;126.89870887;0.00000000;0.00000000;4.60520172;3.00000000;
74652505;81.1;28.2;27.7;0;28.1;30.2;0;0;0;0;0;-0.001;0.5339;0.0955;42.0574;7.9235;183514;184672;54;0;1;0.006;-0.074;74652415;0.5339;0.0955;42.0574;7.9235;0.862;542.243;0;0;0;1729.58;1740.49;1;74652416;0.0849564;0.321305;-2.56473;-0.311197;-0.0808427;0.939357;0.302494;-0.299056;0.226213;74650999;47.59976139;-122.83722494;126.89870887;0.00000000;0.00000000;4.60520172;3.00000000;
74652604;81.1;28.2;27.7;0;28.2;30.2;0;0;0;0;0;-0.001;0.5339;0.0955;42.0574;7.9235;183514;184672;54;0;1;0.005;-0.074;74652507;0.5339;0.0955;42.0574;7.9235;0.862;542.25;0;0;0;1729.58;1740.49;1;74652507;0.084199;0.321078;-2.56517;-0.311572;-0.0754045;0.939207;0.372227;-0.0191336;0.21723;74651999;47.59976139;-122.83722494;126.86397975;0.00000000;0.00000000;4.60511589;3.00000000;
74652683;81.1;28.1;27.7;0;28.2;30.2;0;0;0;0;0;-0.001;0.5339;0.0955;42.0574;7.9235;183514;184672;54;0;1;0.006;-0.074;74652605;0.5339;0.0955;42.0574;7.9235;0.862;542.259;0;0;0;1729.58;1740.49;1;74652606;0.0837935;0.320924;-2.56554;-0.313559;-0.0724799;0.939268;-0.197866;-0.0900564;0.127429;74651999;47.59976139;-122.83722494;126.86397975;0.00000000;0.00000000;4.60511589;3.00000000;
74652777;81.1;28.1;27.7;0;28.1;30.2;0;0;0;0;0;-0.001;0.5339;0.0955;42.0574;7.9235;183514;184672;54;0;1;0.006;-0.075;74652776;0.5339;0.0955;42.0574;7.9235;0.862;542.29;0;0;0;1729.58;1740.49;1;74652697;0.0841375;0.320843;-2.56563;-0.316271;-0.0764715;0.939523;-0.273716;0.119282;0.0616691;74651999;47.59976139;-122.83722494;126.86397975;0.00000000;0.00000000;4.60511589;3.00000000;
74652865;81.1;28.1;27.8;0;28.2;30.2;0;0;0;0;0;-0.001;0.5339;0.0955;42.0574;7.9235;183514;184672;54;0;1;0.005;-0.075;74652776;0.5339;0.0955;42.0574;7.9235;0.862;542.29;0;0;0;1729.58;1740.49;1;74652821;0.0852615;0.320416;-2.56553;-0.312143;-0.0924931;0.93963;-0.343448;-0.230637;0.0713686;74651999;47.59976139;-122.83722494;126.86397975;0.00000000;0.00000000;4.60511589;3.00000000;
74652955;81.1;28.1;27.7;0;28.2;30.2;0;0;0;0;0;-0.001;0.5339;0.0955;42.0574;7.9235;183514;184672;54;0;1;0.005;-0.074;74652910;0.5339;0.0955;42.0574;7.9235;0.862;542.304;0;0;0;1729.58;1740.49;1;74652924;0.0849706;0.32028;-2.56586;-0.311137;-0.0843088;0.939821;0.530044;0.0528785;0.413464;74651999;47.59976139;-122.83722494;126.86397975;0.00000000;0.00000000;4.60511589;3.00000000;
74653095;81.1;28.1;27.8;0;28.1;30.2;0;0;0;0;0;-0.001;0.5339;0.0955;42.0574;7.9235;183514;184672;54;0;1;0.006;-0.074;74653046;0.5339;0.0955;42.0574;7.9235;0.862;542.315;0;0;0;1729.58;1740.49;1;74653047;0.084193;0.320142;-2.56633;-0.314626;-0.0747768;0.943013;-1.10348;0.212418;0.235188;74651999;47.59976139;-122.83722494;126.86397975;0.00000000;0.00000000;4.60511589;3.00000000;
74653182;81.1;28.1;27.8;0;28.2;30.2;0;0;0;0;0;-0.001;0.5339;0.0955;42.0574;7.9235;183514;184672;54;0;1;0.006;-0.074;74653137;0.5339;0.0955;42.0574;7.9235;0.862;542.331;0;0;0;1729.58;1740.49;1;74653138;0.0843658;0.32003;-2.5666;-0.310327;-0.0822623;0.940125;-0.197866;-0.0900564;0.127429;74651999;47.59976139;-122.83722494;126.86397975;0.00000000;0.00000000;4.60511589;3.00000000;
74653268;81.1;28.2;27.8;0;28.2;30.2;0;0;0;0;0;-0.001;0.5339;0.0955;42.0574;7.9235;183514;184672;54;0;1;0.006;-0.074;74653228;0.5339;0.0955;42.0574;7.9235;0.862;542.338;0;0;0;1729.58;1740.49;1;74653228;0.0850104;0.320077;-2.5666;-0.30892;-0.0901915;0.940357;0.00521243;0.0490348;0.0379155;74651999;47.59976139;-122.83722494;126.86397975;0.00000000;0.00000000;4.60511589;3.00000000;
74653367;81.1;28.1;27.8;0;28.1;30.2;0;0;0;0;0;-0.001;0.5339;0.0955;42.0574;7.9235;183514;184672;54;0;1;0.006;-0.075;74653317;0.5339;0.0955;42.0574;7.9235;0.862;542.349;0;0;0;1729.58;1740.49;1;74653317;0.0853803;0.319953;-2.56673;-0.308467;-0.0837379;0.940317;-0.273716;-0.0907075;0.0638183;74651999;47.59976139;-122.83722494;126.86397975;0.00000000;0.00000000;4.60511589;3.00000000;
74653449;81.1;28.1;27.7;0;28.2;30.2;0;0;0;0;0;-0.001;0.5339;0.0955;42.0574;7.9235;183514;184672;54;0;1;0.006;-0.075;74653408;0.5339;0.0955;42.0574;7.9235;0.862;542.366;0;0;0;1729.58;1740.49;1;74653408;0.0856068;0.319911;-2.56688;-0.311725;-0.086703;0.940306;0.0113302;0.0497485;0.107644;74651999;47.59976139;-122.83722494;126.86397975;0.00000000;0.00000000;4.60511589;3.00000000;
74653543;81.1;28.1;27.8;0;28.2;30.2;0;0;0;0;0;-0.001;0.5339;0.0955;42.0574;7.9235;183514;184672;54;0;1;0.005;-0.074;74653494;0.5339;0.0955;42.0574;7.9235;0.862;542.378;0;0;0;1729.58;1740.49;1;74653495;0.0857679;0.319859;-2.56705;-0.308322;-0.0852421;0.940232;-0.14037;-0.0215499;-0.0188616;74651999;47.59976139;-122.83722494;126.86397975;0.00000000;0.00000000;4.60511589;3.00000000;
74653633;81.1;28.2;27.8;0;28.1;30.2;0;0;0;0;0;-0.001;0.5339;0.0955;42.0574;7.9235;183514;184672;54;0;1;0.005;-0.074;74653583;0.5339;0.0955;42.0574;7.9235;0.862;542.378;0;0;0;1729.58;1740.49;1;74653584;0.0864823;0.319667;-2.56705;-0.312237;-0.0857867;0.940119;-0.570998;-0.0226016;-0.121614;74652999;47.59976139;-122.83722494;126.92135497;0.00000000;0.00000000;4.60503054;3.00000000;
74653721;81.1;28.1;27.7;0;28.2;30.2;0;0;0;0;0;-0.001;0.5339;0.0955;42.0574;7.9235;183514;184672;54;0;1;0.006;-0.074;74653675;0.5339;0.0955;42.0574;7.9235;0.862;542.379;0;0;0;1729.58;1740.49;1;74653676;0.0871587;0.319488;-2.56704;-0.312314;-0.0871453;0.939877;0.16303;-0.158938;0.237015;74652999;47.59976139;-122.83722494;126.92135497;0.00000000;0.00000000;4.60503054;3.00000000;
74653807;81.1;28.1;27.8;0;28.1;30.2;0;0;0;0;0;-0.001;0.5339;0.0955;42.0574;7.9235;183514;184672;54;0;1;0.005;-0.074;74653768;0.5339;0.0955;42.0574;7.9235;0.862;542.379;0;0;0;1729.58;1740.49;1;74653769;0.0872347;0.319322;-2.56727;-0.312041;-0.0886345;0.939655;0.302494;-0.019071;0.223347;74652999;47.59976139;-122.83722494;126.92135497;0.00000000;0.00000000;4.60503054;3.00000000;
74653899;81.1;28.1;27.7;0;28.1;30.2;0;0;0;0;0;-0.001;0.5339;0.0955;42.0574;7.9235;183514;184672;54;0;1;0.006;-0.074;74653854;0.5339;0.0955;42.0574;7.9235;0.862;542.38;0;0;0;1729.58;1740.49;1;74653859;0.0865183;0.319023;-2.56772;-0.31361;-0.0808957;0.939304;0.435841;-0.229899;0.143533;74652999;47.59976139;-122.83722494;126.92135497;0.00000000;0.00000000;4.60503054;3.00000000;
74653992;81.1;28.1;27.9;0;28.2;30.2;0;0;0;0;0;-0.001;0.5339;0.0955;42.0574;7.9235;183514;184672;54;0;1;0.006;-0.074;74653943;0.5339;0.0955;42.0574;7.9235;0.862;542.38;0;0;0;1729.58;1740.49;1;74653991;0.0864492;0.318781;-2.56796;-0.314011;-0.0803974;0.939273;-0.210102;-0.231476;-0.0105949;74652999;47.59976139;-122.83722494;126.92135497;0.00000000;0.00000000;4.60503054;3.00000000;
74654080;81.1;28.1;27.8;0;28.2;30.2;0;0;0;0;0;-0.001;0.5339;0.0955;42.0574;7.9235;183514;184672;54;0;1;0.006;-0.074;74654041;0.5339;0.0955;42.0574;7.9235;0.862;542.38;0;0;0;1729.58;1740.49;1;74653991;0.0864492;0.318781;-2.56796;-0.314011;-0.0803974;0.939273;-0.210102;-0.231476;-0.0105949;74652999;47.59976139;-122.83722494;126.92135497;0.00000000;0.00000000;4.60503054;3.00000000;
