ms_today;input_voltage;temp_mos_max;temp_mos_1;temp_mos_2;temp_mos_3;temp_motor;current_motor;current_in;d_axis_current;q_axis_current;erpm;duty_cycle;amp_hours_used;amp_hours_charged;watt_hours_used;watt_hours_charged;tachometer;tachometer_abs;encoder_position;fault_code;vesc_id;d_axis_voltage;q_axis_voltage;ms_today_setup;amp_hours_setup;amp_hours_charged_setup;watt_hours_setup;watt_hours_charged_setup;battery_level;battery_wh_tot;current_in_setup;current_motor_setup;speed_meters_per_sec;tacho_meters;tacho_abs_meters;num_vescs;ms_today_imu;roll;pitch;yaw;accX;accY;accZ;gyroX;gyroY;gyroZ;gnss_posTime;gnss_lat;gnss_lon;gnss_alt;gnss_gVel;gnss_vVel;gnss_hAcc;gnss_vAcc;
82494302;80.8;32.2;30.9;0;32.1;42.5;0.27;0.09;-0.05;0.2;0;0.001;0.8793;0.1377;69.212;11.2883;241880;244190;295.2;0;1;-0.027;0.548;82494177;0.8793;0.1377;69.212;11.2883;0.844;531.307;0;0;0;2279.66;2301.44;1;82415413;0.747444;0.0991167;2.4987;-0.365453;-0.28886;0.355127;-153.832;-86.9611;55.1838;82492999;47.61156468;-122.75123535;97.99482300;0.01394200;0.00000000;4.79004002;3.77547169;
82494394;80.8;32.2;30.8;0;32.1;42.5;0;0;0;0;0;0.001;0.8793;0.1377;69.212;11.2883;241880;244190;295.2;0;1;0.061;0.042;82494303;0.8793;0.1377;69.212;11.2883;0.844;531.326;0;0;0;2279.66;2301.44;1;82494304;-0.00752062;0.335332;2.19491;-0.329934;0.00149636;0.939113;0.739241;0.402672;0.391529;82492999;47.61156468;-122.75123535;97.99482300;0.01394200;0.00000000;4.79004002;3.77547169;
82494495;80.8;32.1;30.8;0;32.1;42.5;0;0;0;0;0;0.001;0.8793;0.1377;69.212;11.2883;241880;244190;295.2;0;1;0.061;0.043;82494495;0.8793;0.1377;69.212;11.2883;0.844;531.353;0;0;0;2279.66;2301.44;1;82494396;-0.00830715;0.335622;2.19441;-0.326463;0.00253437;0.938954;0.226644;0.190267;0.157587;82492999;47.61156468;-122.75123535;97.99482300;0.01394200;0.00000000;4.79004002;3.77547169;
82494578;80.8;32.2;30.8;0;32.2;42.5;0;0;0;0;0;0.001;0.8793;0.1377;69.212;11.2883;241880;244190;295.2;0;1;0.061;0.042;82494495;0.8793;0.1377;69.212;11.2883;0.844;531.353;0;0;0;2279.66;2301.44;1;82494496;-0.00836599;0.33576;2.19411;-0.324936;0.00113425;0.938721;0.0235659;0.0511758;0.247101;82492999;47.61156468;-122.75123535;97.99482300;0.01394200;0.00000000;4.79004002;3.77547169;
82494713;80.8;32.1;30.9;0;32.1;42.5;0;0;0;0;0;0.001;0.8793;0.1377;69.212;11.2883;241880;244190;295.2;0;1;0.061;0.042;82494664;0.8793;0.1377;69.212;11.2883;0.844;531.363;0;0;0;2279.66;2301.44;1;82494579;-0.00807081;0.335426;2.19384;-0.325951;0.00503394;0.938185;-0.197866;-0.650027;0.133161;82492999;47.61156468;-122.75123535;97.99482300;0.01394200;0.00000000;4.79004002;3.77547169;
82494800;80.8;32.2;30.8;0;32.1;42.5;0;0;0;0;0;0.001;0.8793;0.1377;69.212;11.2883;241880;244190;295.2;0;1;0.061;0.042;82494759;0.8793;0.1377;69.212;11.2883;0.844;531.363;0;0;0;2279.66;2301.44;1;82494715;-0.0083245;0.335165;2.19334;-0.327563;0.00642411;0.937855;0.232762;0.120984;0.228032;82493999;47.61156408;-122.75123547;97.71068838;0.01266850;0.00000000;4.72213030;3.73644423;
82494889;80.8;32.1;30.9;0;32.2;42.5;0;0;0;0;0;0.001;0.8793;0.1377;69.212;11.2883;241880;244190;295.2;0;1;0.061;0.042;82494847;0.8793;0.1377;69.212;11.2883;0.844;531.363;0;0;0;2279.66;2301.44;1;82494801;-0.0086896;0.33507;2.19293;-0.326548;-0.00137938;0.937735;0.302494;-0.0890673;0.224064;82493999;47.61156408;-122.75123547;97.71068838;0.01266850;0.00000000;4.72213030;3.73644423;
82494980;80.8;32.1;30.8;0;32.1;42.5;0;0;0;0;0;0.001;0.8793;0.1377;69.212;11.2883;241880;244190;295.2;0;1;0.062;0.042;82494940;0.8793;0.1377;69.212;11.2883;0.844;531.369;0;0;0;2279.66;2301.44;1;82494890;-0.00906497;0.334965;2.1925;-0.326651;0.00842532;0.937743;-0.0400484;0.0519521;0.322947;82493999;47.61156408;-122.75123547;97.71068838;0.01266850;0.00000000;4.72213030;3.73644423;
82495070;80.8;32.1;30.8;0;32.2;42.5;0;0;0;0;0;0.001;0.8793;0.1377;69.212;11.2883;241880;244190;295.2;0;1;0.061;0.042;82495032;0.8793;0.1377;69.212;11.2883;0.844;531.388;0;0;0;2279.66;2301.44;1;82495031;-0.00905099;0.334932;2.19218;-0.327256;0.00755019;0.937845;0.0235659;-0.0888169;0.248534;82493999;47.61156408;-122.75123547;97.71068838;0.01266850;0.00000000;4.72213030;3.73644423;
82495163;80.8;32.2;30.8;0;32.2;42.5;0;0;0;0;0;0.001;0.8793;0.1377;69.212;11.2883;241880;244190;295.2;0;1;0.061;0.042;82495116;0.8793;0.1377;69.212;11.2883;0.844;531.395;0;0;0;2279.66;2301.44;1;82495160;-0.0092356;0.334681;2.19162;-0.323563;0.000635016;0.937931;0.169148;-0.158225;0.306744;82493999;47.61156408;-122.75123547;97.71068838;0.01266850;0.00000000;4.72213030;3.73644423;
82495256;80.8;32.2;30.8;0;32.2;42.5;0;0;0;0;0;0.001;0.8793;0.1377;69.212;11.2883;241880;244190;295.2;0;1;0.061;0.042;82495207;0.8793;0.1377;69.212;11.2883;0.844;531.395;0;0;0;2279.66;2301.44;1;82495160;-0.0092356;0.334681;2.19162;-0.323563;0.000635016;0.937931;0.169148;-0.158225;0.306744;82493999;47.61156408;-122.75123547;97.71068838;0.01266850;0.00000000;4.72213030;3.73644423;
82495342;80.8;32.1;30.8;0;32.2;42.5;0;0;0;0;0;0.001;0.8793;0.1377;69.212;11.2883;241880;244190;295.2;0;1;0.061;0.043;82495293;0.8793;0.1377;69.212;11.2883;0.844;531.396;0;0;0;2279.66;2301.44;1;82495257;-0.00956245;0.334569;2.19122;-0.322403;0.00108685;0.938069;0.23888;-0.088291;0.29991;82493999;47.61156408;-122.75123547;97.71068838;0.01266850;0.00000000;4.72213030;3.73644423;
82495435;80.8;32.1;30.9;0;32.2;42.5;0;0;0;0;0;0.001;0.8793;0.1377;69.212;11.2883;241880;244190;295.2;0;1;0.061;0.043;82495385;0.8793;0.1377;69.212;11.2883;0.844;531.396;0;0;0;2279.66;2301.44;1;82495343;-0.0102585;0.334376;2.19077;-0.32694;0.00508998;0.93806;0.884823;-0.15671;0.454754;82493999;47.61156408;-122.75123547;97.71068838;0.01266850;0.00000000;4.72213030;3.73644423;
82495518;80.8;32.1;30.9;0;32.2;42.5;0;0;0;0;0;0.001;0.8793;0.1377;69.212;11.2883;241880;244190;295.2;0;1;0.061;0.043;82495477;0.8793;0.1377;69.212;11.2883;0.844;531.396;0;0;0;2279.66;2301.44;1;82495436;-0.0115351;0.334271;2.19012;-0.328109;0.00647474;0.938239;0.657273;-0.0186704;0.262488;82493999;47.61156408;-122.75123547;97.71068838;0.01266850;0.00000000;4.72213030;3.73644423;
82495610;80.8;32.1;30.9;0;32.2;42.5;0;0;0;0;0;0.001;0.8793;0.1377;69.212;11.2883;241880;244190;295.2;0;1;0.061;0.042;82495566;0.8793;0.1377;69.212;11.2883;0.844;531.405;0;0;0;2279.66;2301.44;1;82495519;-0.0119501;0.334399;2.18974;-0.325909;0.00601487;0.938518;-0.273716;0.259274;0.0602363;82493999;47.61156408;-122.75123547;97.71068838;0.01266850;0.00000000;4.72213030;3.73644423;
82495746;80.8;32.1;30.8;0;32.1;42.5;0;0;0;0;0;0.001;0.8793;0.1377;69.212;11.2883;241880;244190;295.2;0;1;0.062;0.042;82495652;0.8793;0.1377;69.212;11.2883;0.844;531.407;0;0;0;2279.66;2301.44;1;82495611;-0.0115421;0.334748;2.18953;-0.330523;0.00642176;0.938791;-0.052284;0.0505247;0.18349;82493999;47.61156408;-122.75123547;97.71068838;0.01266850;0.00000000;4.72213030;3.73644423;
82495841;80.8;32.1;30.8;0;32.2;42.5;0;0;0;0;0;0.001;0.8793;0.1377;69.212;11.2883;241880;244190;295.2;0;1;0.061;0.042;82495793;0.8793;0.1377;69.212;11.2883;0.844;531.408;0;0;0;2279.66;2301.44;1;82495747;-0.0113669;0.334911;2.18928;-0.318241;0.00788969;0.938702;0.0871803;-0.0195968;0.171971;82494999;47.61156354;-122.75123563;97.62193893;0.02182333;0.00000000;4.65565538;3.70642805;
82495925;80.8;32.2;30.8;0;32.2;42.5;0;0;0;0;0;0.001;0.8793;0.1377;69.212;11.2883;241880;244190;295.2;0;1;0.061;0.042;82495884;0.8793;0.1377;69.212;11.2883;0.844;531.408;0;0;0;2279.66;2301.44;1;82495842;-0.0112008;0.335126;2.1889;-0.326625;0.00946141;0.938565;0.0174481;0.120458;0.176656;82494999;47.61156354;-122.75123563;97.62193893;0.02182333;0.00000000;4.65565538;3.70642805;
82496057;80.8;32.1;30.9;0;32.2;42.5;0;0;0;0;0;0.001;0.8793;0.1377;69.212;11.2883;241880;244190;295.2;0;1;0.062;0.042;82495976;0.8793;0.1377;69.212;11.2883;0.844;531.408;0;0;0;2279.66;2301.44;1;82495933;-0.011122;0.335255;2.18863;-0.32515;0.00940494;0.938461;-0.052284;0.0505247;0.18349;82494999;47.61156354;-122.75123563;97.62193893;0.02182333;0.00000000;4.65565538;3.70642805;
82496198;80.8;32.1;30.8;0;32.2;42.5;0;0;0;0;0;0.001;0.8793;0.1377;69.212;11.2883;241880;244190;295.2;0;1;0.061;0.042;82496106;0.8793;0.1377;69.212;11.2883;0.844;531.412;0;0;0;2279.66;2301.44;1;82496058;-0.0108836;0.335485;2.18841;-0.327179;0.00598091;0.938437;0.0174481;0.0504621;0.177373;82494999;47.61156354;-122.75123563;97.62193893;0.02182333;0.00000000;4.65565538;3.70642805;
82496288;80.8;32.1;30.9;0;32.2;42.5;0;0;0;0;0;0.001;0.8793;0.1377;69.212;11.2883;241880;244190;295.2;0;1;0.061;0.042;82496198;0.8793;0.1377;69.212;11.2883;0.844;531.414;0;0;0;2279.66;2301.44;1;82496199;-0.0108377;0.335759;2.18789;-0.331239;0.0059645;0.938215;0.169148;0.0517642;0.304595;82494999;47.61156354;-122.75123563;97.62193893;0.02182333;0.00000000;4.65565538;3.70642805;
82496377;80.8;32.1;30.8;0;32.1;42.5;0;0;0;0;0;0.001;0.8793;0.1377;69.212;11.2883;241880;244190;295.2;0;1;0.062;0.042;82496289;0.8793;0.1377;69.212;11.2883;0.844;531.414;0;0;0;2279.66;2301.44;1;82496334;-0.0107791;0.335878;2.1875;-0.32474;0.00853391;0.93816;-0.0584018;0.119807;0.113045;82494999;47.61156354;-122.75123563;97.62193893;0.02182333;0.00000000;4.65565538;3.70642805;
82496470;80.8;32.1;30.8;0;32.1;42.5;0;0;0;0;0;0.001;0.8793;0.1377;69.212;11.2883;241880;244190;295.2;0;1;0.061;0.042;82496424;0.8793;0.1377;69.212;11.2883;0.844;531.415;0;0;0;2279.66;2301.44;1;82496469;-0.0106594;0.336042;2.18706;-0.329226;0.00700382;0.938012;0.0174481;-0.0195342;0.178089;82494999;47.61156354;-122.75123563;97.62193893;0.02182333;0.00000000;4.65565538;3.70642805;
82496560;80.8;32.1;30.8;0;32.1;42.5;0;0;0;0;0;0.001;0.8793;0.1377;69.212;11.2883;241880;244190;295.2;0;1;0.062;0.042;82496509;0.8793;0.1377;69.212;11.2883;0.844;531.416;0;0;0;2279.66;2301.44;1;82496469;-0.0106594;0.336042;2.18706;-0.329226;0.00700382;0.938012;0.0174481;-0.0195342;0.178089;82494999;47.61156354;-122.75123563;97.62193893;0.02182333;0.00000000;4.65565538;3.70642805;
82496643;80.8;32.1;30.9;0;32.2;42.5;0;0;0;0;0;0.001;0.8793;0.1377;69.212;11.2883;241880;244190;295.2;0;1;0.061;0.042;82496604;0.8793;0.1377;69.212;11.2883;0.844;531.42;0;0;0;2279.66;2301.44;1;82496603;-0.0105347;0.335923;2.18671;-0.331827;0.0069861;0.937792;-0.26148;-0.0192838;0.202559;82494999;47.61156354;-122.75123563;97.62193893;0.02182333;0.00000000;4.65565538;3.70642805;
82496733;80.8;32.1;30.8;0;32.1;42.5;0;0;0;0;0;0.001;0.8793;0.1377;69.212;11.2883;241880;244190;295.2;0;1;0.061;0.042;82496693;0.8793;0.1377;69.212;11.2883;0.844;531.422;0;0;0;2279.66;2301.44;1;82496693;-0.00995441;0.336052;2.18656;-0.326753;0.00456674;0.938011;-0.343448;0.329333;0.0656374;82495905;47.61842240;-122.76764170;0.00000000;0.00000000;0.00000000;1299.99902344;0.00000000;
82496868;80.8;32.1;30.8;0;32.2;42.5;0;0;0;0;0;0.001;0.8793;0.1377;69.212;11.2883;241880;244190;295.2;0;1;0.061;0.042;82496778;0.8793;0.1377;69.212;11.2883;0.844;531.426;0;0;0;2279.66;2301.44;1;82496778;-0.00978378;0.336038;2.18629;-0.325081;0.0143498;0.93799;0.0174481;-0.159527;0.179522;82495999;47.61156343;-122.75123600;97.57287229;0.02710131;0.00000000;4.57523298;3.67360282;
82496969;80.8;32.1;30.8;0;32.2;42.5;0;0;0;0;0;0.001;0.8793;0.1377;69.212;11.2883;241880;244190;295.2;0;1;0.061;0.041;82496921;0.8793;0.1377;69.212;11.2883;0.844;531.426;0;0;0;2279.66;2301.44;1;82496921;-0.00967604;0.335997;2.18587;-0.32758;0.00159953;0.937984;-0.0584018;-0.0201853;0.114478;82495999;47.61156343;-122.75123600;97.57287229;0.02710131;0.00000000;4.57523298;3.67360282;
82497049;80.8;32.1;30.8;0;32.2;42.5;0;0;0;0;0;0.001;0.8793;0.1377;69.212;11.2883;241880;244190;295.2;0;1;0.061;0.042;82497006;0.8793;0.1377;69.212;11.2883;0.844;531.426;0;0;0;2279.66;2301.44;1;82497007;-0.00930975;0.336055;2.18564;-0.328092;0.00153983;0.938023;-0.255363;-0.0185701;0.272287;82495999;47.61156343;-122.75123600;97.57287229;0.02710131;0.00000000;4.57523298;3.67360282;
82497140;80.8;32.1;30.7;0;32.1;42.5;0;0;0;0;0;0.001;0.8793;0.1377;69.212;11.2883;241880;244190;295.2;0;1;0.061;0.042;82497099;0.8793;0.1377;69.212;11.2883;0.844;531.426;0;0;0;2279.66;2301.44;1;82497099;-0.00885708;0.335684;2.18551;-0.325695;0.00164797;0.937743;-0.0461662;0.0512384;0.253218;82495999;47.61156343;-122.75123600;97.57287229;0.02710131;0.00000000;4.57523298;3.67360282;
82497228;80.8;32.1;30.8;0;32.1;42.5;0;0;0;0;0;0.001;0.8793;0.1377;69.212;11.2883;241880;244190;295.2;0;1;0.062;0.042;82497198;0.8793;0.1377;69.212;11.2883;0.844;531.428;0;0;0;2279.66;2301.44;1;82497199;-0.00868233;0.335476;2.18526;-0.328339;0.00406515;0.937633;-0.134252;-0.0908327;0.0515833;82495999;47.61156343;-122.75123600;97.57287229;0.02710131;0.00000000;4.57523298;3.67360282;
82497321;80.8;32.1;30.8;0;32.1;42.5;0;0;0;0;0;0.001;0.8793;0.1377;69.212;11.2883;241880;244190;295.2;0;1;0.061;0.042;82497321;0.8793;0.1377;69.212;11.2883;0.844;531.432;0;0;0;2279.66;2301.44;1;82497321;-0.00860913;0.335496;2.18486;-0.328825;0.00211369;0.937664;-0.128134;0.11987;0.119163;82495999;47.61156343;-122.75123600;97.57287229;0.02710131;0.00000000;4.57523298;3.67360282;
82497413;80.8;32.1;30.8;0;32.1;42.5;0;0;0;0;0;0.001;0.8793;0.1377;69.212;11.2883;241880;244190;295.2;0;1;0.062;0.042;82497412;0.8793;0.1377;69.212;11.2883;0.844;531.433;0;0;0;2279.66;2301.44;1;82497321;-0.00860913;0.335496;2.18486;-0.328825;0.00211369;0.937664;-0.128134;0.11987;0.119163;82495999;47.61156343;-122.75123600;97.57287229;0.02710131;0.00000000;4.57523298;3.67360282;
82497497;80.8;32.1;30.8;0;32.1;42.5;0;0;0;0;0;0.001;0.8793;0.1377;69.212;11.2883;241880;244190;295.2;0;1;0.062;0.042;82497412;0.8793;0.1377;69.212;11.2883;0.844;531.433;0;0;0;2279.66;2301.44;1;82497413;-0.00859746;0.335522;2.18457;-0.326122;-0.00230557;0.937603;0.169148;0.121761;0.303878;82495999;47.61156343;-122.75123600;97.57287229;0.02710131;0.00000000;4.57523298;3.67360282;
82497596;80.8;32.1;30.8;0;32.1;42.5;0;0;0;0;0;0.001;0.8793;0.1377;69.212;11.2883;241880;244190;295.2;0;1;0.061;0.042;82497498;0.8793;0.1377;69.212;11.2883;0.844;531.433;0;0;0;2279.66;2301.44;1;82497499;-0.00892251;0.335717;2.18418;-0.327111;0.00555805;0.937707;0.384462;0.192283;0.354538;82495999;47.61156343;-122.75123600;97.57287229;0.02710131;0.00000000;4.57523298;3.67360282;
82497685;80.8;32.1;30.9;0;32.2;42.5;0;0;0;0;0;0.001;0.8793;0.1377;69.212;11.2883;241880;244190;295.2;0;1;0.062;0.042;82497597;0.8793;0.1377;69.212;11.2883;0.844;531.433;0;0;0;2279.66;2301.44;1;82497597;-0.00935118;0.335794;2.18376;-0.329781;0.000107501;0.93766;0.0932981;0.12111;0.240267;82495999;47.61156343;-122.75123600;97.57287229;0.02710131;0.00000000;4.57523298;3.67360282;
82497776;80.8;32.1;30.8;0;32.1;42.5;0;0;0;0;0;0.001;0.8793;0.1377;69.212;11.2883;241880;244190;295.2;0;1;0.061;0.042;82497685;0.8793;0.1377;69.212;11.2883;0.844;531.433;0;0;0;2279.66;2301.44;1;82497686;-0.0097656;0.335816;2.18333;-0.32903;0.00903576;0.937511;0.302494;-0.159064;0.22478;82496999;47.61156368;-122.75123638;97.27972956;0.01581166;0.00000000;4.73332119;3.70944142;
82497860;80.8;32.1;30.7;0;32.1;42.5;0;0;0;0;0;0.001;0.8793;0.1377;69.212;11.2883;241880;244190;295.2;0;1;0.061;0.042;82497777;0.8793;0.1377;69.212;11.2883;0.844;531.433;0;0;0;2279.66;2301.44;1;82497777;-0.00995184;0.335759;2.18297;-0.322932;0.00791396;0.937473;0.16303;0.0510506;0.234866;82496999;47.61156368;-122.75123638;97.27972956;0.01581166;0.00000000;4.73332119;3.70944142;
82498001;80.8;32.1;30.7;0;32.1;42.5;0;0;0;0;0;0.001;0.8793;0.1377;69.212;11.2883;241880;244190;295.2;0;1;0.063;0.043;82497861;0.8793;0.1377;69.212;11.2883;0.844;531.433;0;0;0;2279.66;2301.44;1;82497861;-0.00985007;0.335819;2.18267;-0.321388;0.00157893;0.937501;-0.122016;-0.019409;0.190324;82496999;47.61156368;-122.75123638;97.27972956;0.01581166;0.00000000;4.73332119;3.70944142;
82498086;80.8;32.1;30.8;0;32.1;42.5;0;0;0;0;0;0.001;0.8793;0.1377;69.212;11.2883;241880;244190;295.2;0;1;0.061;0.042;82498002;0.8793;0.1377;69.212;11.2883;0.844;531.434;0;0;0;2279.66;2301.44;1;82498003;-0.00999416;0.33574;2.18236;-0.324595;0.00166203;0.937497;0.0174481;0.0504621;0.177373;82496999;47.61156368;-122.75123638;97.27972956;0.01581166;0.00000000;4.73332119;3.70944142;
82498179;80.8;32.1;30.8;0;32.1;42.5;0;0;0;0;0;0.001;0.8793;0.1377;69.212;11.2883;241880;244190;295.2;0;1;0.062;0.042;82498087;0.8793;0.1377;69.212;11.2883;0.844;531.446;0;0;0;2279.66;2301.44;1;82498087;-0.0100735;0.33582;2.18189;-0.325022;-0.000339624;0.93773;0.0871803;0.190392;0.169822;82496999;47.61156368;-122.75123638;97.27972956;0.01581166;0.00000000;4.73332119;3.70944142;
82498313;80.8;32.1;30.7;0;32.1;42.5;0;0;0;0;0;0.001;0.8793;0.1377;69.212;11.2883;241880;244190;295.2;0;1;0.061;0.042;82498262;0.8793;0.1377;69.212;11.2883;0.844;531.456;0;0;0;2279.66;2301.44;1;82498180;-0.00999037;0.335836;2.18159;-0.326326;0.00754434;0.937808;-0.203984;-0.0207737;0.0569844;82496999;47.61156368;-122.75123638;97.27972956;0.01581166;0.00000000;4.73332119;3.70944142;
82498402;80.8;32.1;30.7;0;32.1;42.5;0;0;0;0;0;0.001;0.8793;0.1377;69.212;11.2883;241880;244190;295.2;0;1;0.06;0.041;82498401;0.8793;0.1377;69.212;11.2883;0.844;531.477;0;0;0;2279.66;2301.44;1;82498316;-0.00923489;0.335956;2.18132;-0.330011;0.00257766;0.937931;-0.267598;-0.0199974;0.13283;82496999;47.61156368;-122.75123638;97.27972956;0.01581166;0.00000000;4.73332119;3.70944142;
82498487;80.8;32.1;30.8;0;32.1;42.5;0;0;0;0;0;0.001;0.8793;0.1377;69.212;11.2883;241880;244190;295.2;0;1;0.061;0.042;82498401;0.8793;0.1377;69.212;11.2883;0.844;531.477;0;0;0;2279.66;2301.44;1;82498402;-0.00901132;0.335831;2.18105;-0.326582;0.00312272;0.937835;-0.052284;-0.159464;0.185639;82496999;47.61156368;-122.75123638;97.27972956;0.01581166;0.00000000;4.73332119;3.70944142;
82498577;80.8;32.1;30.8;0;32.1;42.5;0;0;0;0;0;0.001;0.8793;0.1377;69.212;11.2883;241880;244190;295.2;0;1;0.061;0.042;82498487;0.8793;0.1377;69.212;11.2883;0.844;531.486;0;0;0;2279.66;2301.44;1;82498488;-0.00899627;0.335519;2.18078;-0.329627;0.00945408;0.937673;0.0871803;-0.229586;0.174121;82496999;47.61156368;-122.75123638;97.27972956;0.01581166;0.00000000;4.73332119;3.70944142;
82498678;80.8;32.1;30.7;0;32.1;42.5;0;0;0;0;0;0.001;0.8793;0.1377;69.212;11.2883;241880;244190;295.2;0;1;0.061;0.042;82498677;0.8793;0.1377;69.212;11.2883;0.844;531.497;0;0;0;2279.66;2301.44;1;82498578;-0.00890265;0.335283;2.18053;-0.321209;0.0129375;0.937668;-0.0461662;-0.158751;0.255368;82496999;47.61156368;-122.75123638;97.27972956;0.01581166;0.00000000;4.73332119;3.70944142;
82498802;80.8;32.1;30.7;0;32.2;42.5;0;0;0;0;0;0.001;0.8793;0.1377;69.212;11.2883;241880;244190;295.2;0;1;0.062;0.043;82498677;0.8793;0.1377;69.212;11.2883;0.844;531.497;0;0;0;2279.66;2301.44;1;82498718;-0.00883702;0.335032;2.18013;-0.326753;0.00456674;0.937821;0.0932981;-0.0888795;0.242416;82497999;47.61156352;-122.75123703;97.25664360;0.01837073;0.00000000;4.44989443;3.64321423;
82498892;80.8;32.1;30.8;0;32.1;42.5;0;0;0;0;0;0.001;0.8793;0.1377;69.212;11.2883;241880;244190;295.2;0;1;0.061;0.042;82498802;0.8793;0.1377;69.212;11.2883;0.845;531.527;0;0;0;2279.66;2301.44;1;82498818;-0.00900117;0.334886;2.17974;-0.321593;0.00118138;0.937996;0.169148;-0.158225;0.306744;82497999;47.61156352;-122.75123703;97.25664360;0.01837073;0.00000000;4.44989443;3.64321423;
82499037;80.8;32.1;30.9;0;32.2;42.5;0;0;0;0;0;0.001;0.8793;0.1377;69.212;11.2883;241880;244190;295.2;0;1;0.061;0.042;82498893;0.8793;0.1377;69.212;11.2883;0.845;531.554;0;0;0;2279.66;2301.44;1;82498893;-0.00911488;0.334842;2.17942;-0.329047;0.000509588;0.938118;0.156912;0.0503369;0.165138;82497999;47.61156352;-122.75123703;97.25664360;0.01837073;0.00000000;4.44989443;3.64321423;
82499128;80.8;32.1;30.9;0;32.1;42.5;0;0;0;0;0;0.001;0.8793;0.1377;69.212;11.2883;241880;244190;295.2;0;1;0.061;0.042;82499037;0.8793;0.1377;69.212;11.2883;0.845;531.56;0;0;0;2279.66;2301.44;1;82499038;-0.0094549;0.334643;2.17893;-0.325576;0.0015476;0.938109;0.448077;-0.158475;0.282274;82497999;47.61156352;-122.75123703;97.25664360;0.01837073;0.00000000;4.44989443;3.64321423;
82499213;80.8;32.1;30.8;0;32.3;42.5;0;0;0;0;0;0.001;0.8793;0.1377;69.212;11.2883;241880;244190;295.2;0;1;0.06;0.042;82499129;0.8793;0.1377;69.212;11.2883;0.845;531.56;0;0;0;2279.66;2301.44;1;82499130;-0.0100224;0.334604;2.17846;-0.325781;0.00115005;0.938108;0.605894;0.0535296;0.477075;82497999;47.61156352;-122.75123703;97.25664360;0.01837073;0.00000000;4.44989443;3.64321423;
82499311;80.8;32.1;30.8;0;32.1;42.4;0;0;0;0;0;0.001;0.8793;0.1377;69.212;11.2883;241880;244190;295.2;0;1;0.061;0.042;82499213;0.8793;0.1377;69.212;11.2883;0.845;531.561;0;0;0;2279.66;2301.44;1;82499214;-0.0107297;0.334753;2.17793;-0.327538;0.00697222;0.938233;0.0932981;0.191106;0.239551;82497999;47.61156352;-122.75123703;97.25664360;0.01837073;0.00000000;4.44989443;3.64321423;
82499393;80.8;32.1;30.8;0;32.2;42.4;0;0;0;0;0;0.001;0.8793;0.1377;69.212;11.2883;241880;244190;295.2;0;1;0.061;0.042;82499312;0.8793;0.1377;69.212;11.2883;0.845;531.561;0;0;0;2279.66;2301.44;1;82499312;-0.0107673;0.335021;2.17765;-0.33054;0.00257312;0.938327;-0.0584018;0.2598;0.111612;82497999;47.61156352;-122.75123703;97.25664360;0.01837073;0.00000000;4.44989443;3.64321423;
82499532;80.8;32.1;30.8;0;32.2;42.4;0;0;0;0;0;0.001;0.8793;0.1377;69.212;11.2883;241880;244190;295.2;0;1;0.061;0.042;82499394;0.8793;0.1377;69.212;11.2883;0.845;531.567;0;0;0;2279.66;2301.44;1;82499394;-0.0106708;0.335204;2.17738;-0.326608;0.00403853;0.938284;0.0810624;-0.0203105;0.102243;82497999;47.61156352;-122.75123703;97.25664360;0.01837073;0.00000000;4.44989443;3.64321423;
82499670;80.8;32.1;30.8;0;32.2;42.4;0;0;0;0;0;0.001;0.8793;0.1377;69.212;11.2883;241880;244190;295.2;0;1;0.062;0.042;82499533;0.8793;0.1377;69.212;11.2883;0.845;531.575;0;0;0;2279.66;2301.44;1;82499534;-0.0106493;0.335303;2.17696;-0.326813;0.0114486;0.938046;-0.0584018;-0.0201853;0.114478;82497999;47.61156352;-122.75123703;97.25664360;0.01837073;0.00000000;4.44989443;3.64321423;
82499747;80.8;32.1;30.7;0;32;42.4;0;0;0;0;0;0.001;0.8793;0.1377;69.212;11.2883;241880;244190;295.2;0;1;0.06;0.042;82499671;0.8793;0.1377;69.212;11.2883;0.845;531.577;0;0;0;2279.66;2301.44;1;82499672;-0.0104863;0.335484;2.17655;-0.329567;-0.00523534;0.937954;-0.122016;0.19058;0.188175;82497999;47.61156352;-122.75123703;97.25664360;0.01837073;0.00000000;4.44989443;3.64321423;
82499888;80.8;32.1;30.8;0;32.2;42.4;0;0;0;0;0;0.001;0.8793;0.1377;69.212;11.2883;241880;244190;295.2;0;1;0.062;0.042;82499757;0.8793;0.1377;69.212;11.2883;0.845;531.577;0;0;0;2279.66;2301.44;1;82499757;-0.0106406;0.335671;2.17618;-0.328228;0.00755106;0.937909;0.0994159;0.121823;0.309996;82498999;47.61156398;-122.75123681;97.44873113;0.04138740;0.00000000;4.35692072;3.61418509;
82500068;80.8;32.1;30.8;0;32.1;42.4;0;0;0;0;0;0.001;0.8793;0.1377;69.212;11.2883;241880;244190;295.2;0;1;0.061;0.042;82499889;0.8793;0.1377;69.212;11.2883;0.845;531.579;0;0;0;2279.66;2301.44;1;82499890;-0.010559;0.335931;2.17576;-0.329627;0.00945408;0.937864;0.0235659;0.121172;0.246385;82498999;47.61156398;-122.75123681;97.44873113;0.04138740;0.00000000;4.35692072;3.61418509;
82500160;80.8;32.1;30.8;0;32.1;42.4;0;0;0;0;0;0.001;0.8793;0.1377;69.212;11.2883;241880;244190;295.2;0;1;0.061;0.041;82500160;0.8793;0.1377;69.212;11.2883;0.845;531.584;0;0;0;2279.66;2301.44;1;82500072;-0.010304;0.336027;2.17518;-0.3259;0.00661815;0.937581;-0.122016;0.120584;0.188891;82498999;47.61156398;-122.75123681;97.44873113;0.04138740;0.00000000;4.35692072;3.61418509;
82500244;80.8;32.1;30.7;0;32.2;42.4;0;0;0;0;0;0.001;0.8793;0.1377;69.212;11.2883;241880;244190;295.2;0;1;0.061;0.042;82500160;0.8793;0.1377;69.212;11.2883;0.845;531.584;0;0;0;2279.66;2301.44;1;82500203;-0.0102465;0.336117;2.17478;-0.328254;0.00163523;0.937437;-0.0400484;-0.0880406;0.32438;82498999;47.61156398;-122.75123681;97.44873113;0.04138740;0.00000000;4.35692072;3.61418509;
82500378;80.8;32.1;30.7;0;32.1;42.4;0;0;0;0;0;0.001;0.8793;0.1377;69.212;11.2883;241880;244190;295.2;0;1;0.061;0.042;82500333;0.8793;0.1377;69.212;11.2883;0.845;531.584;0;0;0;2279.66;2301.44;1;82500295;-0.0104351;0.336188;2.17442;-0.325892;0.00303186;0.937339;0.244998;-0.0875774;0.369638;82498999;47.61156398;-122.75123681;97.44873113;0.04138740;0.00000000;4.35692072;3.61418509;
82500468;80.8;32.1;30.7;0;32.1;42.4;0;0;0;0;0;0.001;0.8793;0.1377;69.212;11.2883;241880;244190;295.2;0;1;0.061;0.041;82500427;0.8793;0.1377;69.212;11.2883;0.845;531.586;0;0;0;2279.66;2301.44;1;82500379;-0.0104942;0.336055;2.17415;-0.326838;0.00162895;0.937217;-0.128134;-0.0201226;0.120595;82498999;47.61156398;-122.75123681;97.44873113;0.04138740;0.00000000;4.35692072;3.61418509;
82500557;80.8;32.1;30.8;0;32.1;42.4;0;0;0;0;0;0.001;0.8793;0.1377;69.212;11.2883;241880;244190;295.2;0;1;0.062;0.042;82500511;0.8793;0.1377;69.212;11.2883;0.845;531.602;0;0;0;2279.66;2301.44;1;82500469;-0.0103592;0.336066;2.17389;-0.325968;0.000697338;0.937259;0.0113302;-0.0202479;0.10836;82498999;47.61156398;-122.75123681;97.44873113;0.04138740;0.00000000;4.35692072;3.61418509;
82500648;80.8;32.1;30.7;0;32.1;42.4;0;0;0;0;0;0.001;0.8793;0.1377;69.212;11.2883;241880;244190;295.2;0;1;0.061;0.042;82500605;0.8793;0.1377;69.212;11.2883;0.845;531.602;0;0;0;2279.66;2301.44;1;82500558;-0.0103184;0.336083;2.1736;-0.329422;0.00448391;0.937308;0.156912;-0.0896558;0.16657;82498999;47.61156398;-122.75123681;97.44873113;0.04138740;0.00000000;4.35692072;3.61418509;
82500739;80.8;32.1;30.8;0;32.1;42.4;0;0;0;0;0;0.001;0.8793;0.1377;69.212;11.2883;241880;244190;295.2;0;1;0.061;0.042;82500700;0.8793;0.1377;69.212;11.2883;0.845;531.606;0;0;0;2279.66;2301.44;1;82500648;-0.0102576;0.336096;2.17331;-0.32671;0.00505969;0.937363;0.0871803;0.0503995;0.171255;82498999;47.61156398;-122.75123681;97.44873113;0.04138740;0.00000000;4.35692072;3.61418509;
82500828;80.8;32.1;30.7;0;32.1;42.4;0;0;0;0;0;0.001;0.8793;0.1377;69.212;11.2883;241880;244190;295.2;0;1;0.061;0.042;82500790;0.8793;0.1377;69.212;11.2883;0.845;531.611;0;0;0;2279.66;2301.44;1;82500741;-0.00985735;0.33625;2.17311;-0.324535;0.00697956;0.937498;-0.419298;0.188689;0.00345923;82499999;47.61156378;-122.75123690;97.62294847;0.02914641;0.00000000;4.26524639;3.58543634;
82500962;80.8;32.1;30.8;0;32.1;42.4;0;0;0;0;0;0.001;0.8793;0.1377;69.212;11.2883;241880;244190;295.2;0;1;0.062;0.042;82500871;0.8793;0.1377;69.212;11.2883;0.845;531.627;0;0;0;2279.66;2301.44;1;82500829;-0.00958265;0.33621;2.1729;-0.323009;0.00460349;0.937414;0.0174481;-0.159527;0.179522;82499999;47.61156378;-122.75123690;97.62294847;0.02914641;0.00000000;4.26524639;3.58543634;
82501055;80.8;32.1;30.7;0;32.1;42.4;0;0;0;0;0;0.001;0.8793;0.1377;69.212;11.2883;241880;244190;295.2;0;1;0.061;0.042;82501013;0.8793;0.1377;69.212;11.2883;0.845;531.652;0;0;0;2279.66;2301.44;1;82500964;-0.00982688;0.335949;2.17253;-0.329098;0.00897065;0.937269;0.0810624;-0.0903068;0.102959;82499999;47.61156378;-122.75123690;97.62294847;0.02914641;0.00000000;4.26524639;3.58543634;
82501146;80.8;32.1;30.7;0;32.1;42.4;0;0;0;0;0;0.001;0.8793;0.1377;69.212;11.2883;241880;244190;295.2;0;1;0.062;0.042;82501098;0.8793;0.1377;69.212;11.2883;0.845;531.661;0;0;0;2279.66;2301.44;1;82501056;-0.0100612;0.335873;2.17199;-0.328399;0.00265142;0.937477;0.0994159;0.0518268;0.310712;82499999;47.61156378;-122.75123690;97.62294847;0.02914641;0.00000000;4.26524639;3.58543634;
82501240;80.8;32.1;30.7;0;32.1;42.4;0;0;0;0;0;0.001;0.8793;0.1377;69.212;11.2883;241880;244190;295.2;0;1;0.06;0.042;82501191;0.8793;0.1377;69.212;11.2883;0.845;531.677;0;0;0;2279.66;2301.44;1;82501146;-0.0102851;0.335796;2.17163;-0.325422;0.00211063;0.937571;0.232762;-0.159001;0.230898;82499999;47.61156378;-122.75123690;97.62294847;0.02914641;0.00000000;4.26524639;3.58543634;
82501370;80.8;32.1;30.7;0;32.1;42.4;0;0;0;0;0;0.001;0.8793;0.1377;69.212;11.2883;241880;244190;295.2;0;1;0.062;0.042;82501278;0.8793;0.1377;69.212;11.2883;0.845;531.685;0;0;0;2279.66;2301.44;1;82501240;-0.0106841;0.335667;2.17122;-0.330011;0.00501753;0.937559;0.232762;-0.0890047;0.230181;82499999;47.61156378;-122.75123690;97.62294847;0.02914641;0.00000000;4.26524639;3.58543634;
82501467;80.8;32.1;30.8;0;32.1;42.4;0;0;0;0;0;0.001;0.8793;0.1377;69.212;11.2883;241880;244190;295.2;0;1;0.061;0.041;82501371;0.8793;0.1377;69.212;11.2883;0.845;531.688;0;0;0;2279.66;2301.44;1;82501371;-0.0110648;0.335727;2.17066;-0.326437;0.0064983;0.93769;0.0174481;-0.0195342;0.178089;82499999;47.61156378;-122.75123690;97.62294847;0.02914641;0.00000000;4.26524639;3.58543634;
82501549;80.8;32.1;30.7;0;32.1;42.4;0;0;0;0;0;0.001;0.8793;0.1377;69.212;11.2883;241880;244190;295.2;0;1;0.061;0.042;82501468;0.8793;0.1377;69.212;11.2883;0.845;531.69;0;0;0;2279.66;2301.44;1;82501468;-0.0108681;0.335846;2.17038;-0.32671;0.00652362;0.937788;-0.279834;0.188564;-0.00877577;82499999;47.61156378;-122.75123690;97.62294847;0.02914641;0.00000000;4.26524639;3.58543634;
82501648;80.8;32.1;30.7;0;32.1;42.4;0;0;0;0;0;0.001;0.8793;0.1377;69.212;11.2883;241880;244190;295.2;0;1;0.062;0.042;82501549;0.8793;0.1377;69.212;11.2883;0.845;531.695;0;0;0;2279.66;2301.44;1;82501550;-0.0105969;0.335999;2.17015;-0.329926;0.00112369;0.937814;0.0994159;-0.0881658;0.312145;82499999;47.61156378;-122.75123690;97.62294847;0.02914641;0.00000000;4.26524639;3.58543634;
82501727;80.8;32.1;30.7;0;32.1;42.4;0;0;0;0;0;0.001;0.8793;0.1377;69.212;11.2883;241880;244190;295.2;0;1;0.061;0.042;82501649;0.8793;0.1377;69.212;11.2883;0.845;531.704;0;0;0;2279.66;2301.44;1;82501649;-0.0107516;0.336033;2.16981;-0.327793;0.00694237;0.93769;0.0871803;-0.0195968;0.171971;82499999;47.61156378;-122.75123690;97.62294847;0.02914641;0.00000000;4.26524639;3.58543634;
82501819;80.8;32.1;30.7;0;32.1;42.4;0;0;0;0;0;0.001;0.8793;0.1377;69.212;11.2883;241880;244190;295.2;0;1;0.061;0.042;82501729;0.8793;0.1377;69.212;11.2883;0.845;531.713;0;0;0;2279.66;2301.44;1;82501730;-0.0109081;0.336087;2.16951;-0.326122;0.00550202;0.937631;-0.052284;0.120521;0.182774;82500999;47.61156379;-122.75123735;97.70747580;0.02351803;0.00000000;4.16796589;3.54863000;
82501919;80.8;32.1;30.7;0;32.1;42.4;0;0;0;0;0;0.001;0.8793;0.1377;69.212;11.2883;241880;244190;295.2;0;1;0.061;0.042;82501873;0.8793;0.1377;69.212;11.2883;0.845;531.729;0;0;0;2279.66;2301.44;1;82501874;-0.010828;0.336196;2.16912;-0.327793;0.00206263;0.937538;0.232762;0.050988;0.228748;82500999;47.61156379;-122.75123735;97.70747580;0.02351803;0.00000000;4.16796589;3.54863000;
82502002;80.8;32.1;30.8;0;32.1;42.4;0;0;0;0;0;0.001;0.8793;0.1377;69.212;11.2883;241880;244190;295.2;0;1;0.062;0.042;82501970;0.8793;0.1377;69.212;11.2883;0.845;531.746;0;0;0;2279.66;2301.44;1;82501971;-0.0108228;0.336396;2.16878;-0.325781;0.00358992;0.937512;0.169148;-0.0182321;0.305311;82500999;47.61156379;-122.75123735;97.70747580;0.02351803;0.00000000;4.16796589;3.54863000;
82502096;80.8;32.1;30.8;0;32.2;42.4;0;0;0;0;0;0.001;0.8793;0.1377;69.212;11.2883;241880;244190;295.2;0;1;0.061;0.042;82502047;0.8793;0.1377;69.212;11.2883;0.845;531.753;0;0;0;2279.66;2301.44;1;82502095;-0.0109095;0.336433;2.16847;-0.329653;0.00695407;0.937367;0.0871803;0.190392;0.169822;82500999;47.61156379;-122.75123735;97.70747580;0.02351803;0.00000000;4.16796589;3.54863000;
82502185;80.8;32.1;30.8;0;32.1;42.4;0;0;0;0;0;0.001;0.8793;0.1377;69.212;11.2883;241880;244190;295.2;0;1;0.061;0.042;82502137;0.8793;0.1377;69.212;11.2883;0.845;531.763;0;0;0;2279.66;2301.44;1;82502095;-0.0109095;0.336433;2.16847;-0.329653;0.00695407;0.937367;0.0871803;0.190392;0.169822;82500999;47.61156379;-122.75123735;97.70747580;0.02351803;0.00000000;4.16796589;3.54863000;
82502271;80.8;32.1;30.7;0;32;42.4;0;0;0;0;0;0.001;0.8793;0.1377;69.212;11.2883;241880;244190;295.2;0;1;0.062;0.043;82502225;0.8793;0.1377;69.212;11.2883;0.845;531.763;0;0;0;2279.66;2301.44;1;82502224;-0.0110853;0.336788;2.16784;-0.328322;0.00205809;0.937261;0.251116;0.193122;0.436501;82500999;47.61156379;-122.75123735;97.70747580;0.02351803;0.00000000;4.16796589;3.54863000;
82502362;80.8;32.1;30.7;0;32.1;42.4;0;0;0;0;0;0.001;0.8793;0.1377;69.212;11.2883;241880;244190;295.2;0;1;0.062;0.042;82502313;0.8793;0.1377;69.212;11.2883;0.845;531.78;0;0;0;2279.66;2301.44;1;82502314;-0.0115927;0.337139;2.16732;-0.330198;0.00358887;0.93732;0.226645;0.0502743;0.15902;82500999;47.61156379;-122.75123735;97.70747580;0.02351803;0.00000000;4.16796589;3.54863000;
82502448;80.8;32.1;30.7;0;32.1;42.4;0;0;0;0;0;0.001;0.8793;0.1377;69.212;11.2883;241880;244190;295.2;0;1;0.062;0.043;82502404;0.8793;0.1377;69.212;11.2883;0.845;531.797;0;0;0;2279.66;2301.44;1;82502404;-0.0119007;0.337265;2.16693;-0.329695;0.00841302;0.937214;0.0810624;0.0496858;0.101527;82500999;47.61156379;-122.75123735;97.70747580;0.02351803;0.00000000;4.16796589;3.54863000;
82502536;80.8;32.1;30.8;0;32.1;42.4;0;0;0;0;0;0.001;0.8793;0.1377;69.212;11.2883;241880;244190;295.2;0;1;0.062;0.043;82502493;0.8793;0.1377;69.212;11.2883;0.845;531.818;0;0;0;2279.66;2301.44;1;82502493;-0.0118509;0.337288;2.16666;-0.327085;0.01001;0.936991;0.0871803;-0.0195968;0.171971;82500999;47.61156379;-122.75123735;97.70747580;0.02351803;0.00000000;4.16796589;3.54863000;
82502634;80.8;32.1;30.7;0;32.1;42.4;0;0;0;0;0;0.001;0.8793;0.1377;69.212;11.2883;241880;244190;295.2;0;1;0.062;0.042;82502583;0.8793;0.1377;69.212;11.2883;0.845;531.818;0;0;0;2279.66;2301.44;1;82502583;-0.0118099;0.337326;2.16638;-0.328194;0.00792871;0.936883;0.0235659;-0.0188206;0.247817;82500999;47.61156379;-122.75123735;97.70747580;0.02351803;0.00000000;4.16796589;3.54863000;
82502718;80.8;32.1;30.8;0;32.1;42.4;0;0;0;0;0;0.001;0.8793;0.1377;69.212;11.2883;241880;244190;295.2;0;1;0.062;0.042;82502675;0.8793;0.1377;69.212;11.2883;0.845;531.818;0;0;0;2279.66;2301.44;1;82502675;-0.0115278;0.337281;2.16613;-0.328697;0.00310457;0.936809;-0.115898;0.051301;0.259336;82500999;47.61156379;-122.75123735;97.70747580;0.02351803;0.00000000;4.16796589;3.54863000;
82502853;80.8;32.1;30.7;0;32.1;42.4;0;0;0;0;0;0.001;0.8793;0.1377;69.212;11.2883;241880;244190;295.2;0;1;0.061;0.042;82502811;0.8793;0.1377;69.212;11.2883;0.845;531.824;0;0;0;2279.66;2301.44;1;82502811;-0.0113812;0.337241;2.16585;-0.326395;0.00308746;0.936764;-0.343448;-0.160641;0.0706522;82501999;47.61156335;-122.75123765;97.83518550;0.02172485;0.00000000;4.08637238;3.52274919;
82502942;80.8;32.1;30.7;0;32.1;42.4;0;0;0;0;0;0.001;0.8793;0.1377;69.212;11.2883;241880;244190;295.2;0;1;0.061;0.042;82502899;0.8793;0.1377;69.212;11.2883;0.845;531.827;0;0;0;2279.66;2301.44;1;82502901;-0.0106115;0.337017;2.16562;-0.329405;3.69754e-05;0.936765;0.0932981;0.0511132;0.240984;82501999;47.61156335;-122.75123765;97.83518550;0.02172485;0.00000000;4.08637238;3.52274919;
82503034;80.8;32.1;30.7;0;32.1;42.4;0;0;0;0;0;0.001;0.8793;0.1377;69.212;11.2883;241880;244190;295.2;0;1;0.06;0.041;82502987;0.8793;0.1377;69.212;11.2883;0.845;531.827;0;0;0;2279.66;2301.44;1;82502992;-0.0106379;0.33702;2.16527;-0.326736;0.00158373;0.936865;-0.203984;-0.230763;0.0591336;82501999;47.61156335;-122.75123765;97.83518550;0.02172485;0.00000000;4.08637238;3.52274919;
82503122;80.8;32.1;30.7;0;32;42.4;0;0;0;0;0;0.001;0.8793;0.1377;69.212;11.2883;241880;244190;295.2;0;1;0.062;0.042;82503079;0.8793;0.1377;69.212;11.2883;0.845;531.828;0;0;0;2279.66;2301.44;1;82503079;-0.0104235;0.336826;2.16505;-0.329269;0.0060229;0.936821;0.0174481;-0.0895306;0.178805;82501999;47.61156335;-122.75123765;97.83518550;0.02172485;0.00000000;4.08637238;3.52274919;
82503260;80.8;32.1;30.8;0;32.1;42.4;0;0;0;0;0;0.001;0.8793;0.1377;69.212;11.2883;241880;244190;295.2;0;1;0.061;0.042;82503168;0.8793;0.1377;69.212;11.2883;0.845;531.828;0;0;0;2279.66;2301.44;1;82503168;-0.0105427;0.336749;2.16474;-0.331094;0.00738819;0.936879;0.23888;-0.228284;0.301343;82501999;47.61156335;-122.75123765;97.83518550;0.02172485;0.00000000;4.08637238;3.52274919;
82503352;80.8;32.1;30.8;0;32.1;42.4;0;0;0;0;0;0.001;0.8793;0.1377;69.212;11.2883;241880;244190;295.2;0;1;0.061;0.042;82503302;0.8793;0.1377;69.212;11.2883;0.845;531.834;0;0;0;2279.66;2301.44;1;82503303;-0.010524;0.336612;2.1643;-0.328825;0.00943331;0.937017;-0.0584018;-0.160178;0.115911;82501999;47.61156335;-122.75123765;97.83518550;0.02172485;0.00000000;4.08637238;3.52274919;
82503443;80.8;32.1;30.7;0;32.1;42.4;0;0;0;0;0;0.001;0.8793;0.1377;69.212;11.2883;241880;244190;295.2;0;1;0.062;0.043;82503395;0.8793;0.1377;69.212;11.2883;0.845;531.845;0;0;0;2279.66;2301.44;1;82503395;-0.0104509;0.336524;2.16404;-0.329311;0.00894577;0.937093;0.16303;-0.0189458;0.235582;82501999;47.61156335;-122.75123765;97.83518550;0.02172485;0.00000000;4.08637238;3.52274919;
82503529;80.8;32.1;30.7;0;32.1;42.4;0;0;0;0;0;0.001;0.8793;0.1377;69.212;11.2883;241880;244190;295.2;0;1;0.06;0.042;82503483;0.8793;0.1377;69.212;11.2883;0.845;531.847;0;0;0;2279.66;2301.44;1;82503483;-0.0104775;0.336325;2.16374;-0.329943;0.000202904;0.93705;0.0235659;-0.22881;0.249967;82501999;47.61156335;-122.75123765;97.83518550;0.02172485;0.00000000;4.08637238;3.52274919;
82503618;80.8;32.1;30.7;0;32;42.4;0;0;0;0;0;0.001;0.8793;0.1377;69.212;11.2883;241880;244190;295.2;0;1;0.061;0.042;82503577;0.8793;0.1377;69.212;11.2883;0.845;531.848;0;0;0;2279.66;2301.44;1;82503578;-0.0108993;0.336114;2.16333;-0.328519;0.000514126;0.937055;0.454194;-0.157762;0.352002;82501999;47.61156335;-122.75123765;97.83518550;0.02172485;0.00000000;4.08637238;3.52274919;
82503714;80.8;32.1;30.7;0;32.2;42.4;0;0;0;0;0;0.001;0.8793;0.1377;69.212;11.2883;241880;244190;295.2;0;1;0.061;0.042;82503668;0.8793;0.1377;69.212;11.2883;0.845;531.849;0;0;0;2279.66;2301.44;1;82503668;-0.0115385;0.335792;2.16284;-0.325653;0.00848459;0.936985;0.0932981;-0.0888795;0.242416;82501999;47.61156335;-122.75123765;97.83518550;0.02172485;0.00000000;4.08637238;3.52274919;
82503800;80.8;32.1;30.7;0;32.1;42.4;0;0;0;0;0;0.001;0.8793;0.1377;69.212;11.2883;241880;244190;295.2;0;1;0.062;0.042;82503759;0.8793;0.1377;69.212;11.2883;0.845;531.853;0;0;0;2279.66;2301.44;1;82503759;-0.0114279;0.335563;2.16259;-0.329772;0.00559052;0.937088;-0.134252;-0.160829;0.0522997;82502999;47.61156316;-122.75123827;97.93658618;0.01881169;0.00000000;4.00685835;3.49729896;
82503946;80.8;32.1;30.7;0;32.1;42.4;0;0;0;0;0;0.001;0.8793;0.1377;69.212;11.2883;241880;244190;295.2;0;1;0.061;0.042;82503843;0.8793;0.1377;69.212;11.2883;0.845;531.86;0;0;0;2279.66;2301.44;1;82503843;-0.0114115;0.335551;2.16227;-0.327725;0.0118872;0.937321;-0.0461662;-0.228747;0.256084;82502999;47.61156316;-122.75123827;97.93658618;0.01881169;0.00000000;4.00685835;3.49729896;
82504079;80.8;32.1;30.6;0;32.1;42.4;0;0;0;0;0;0.001;0.8793;0.1377;69.212;11.2883;241880;244190;295.2;0;1;0.061;0.042;82503980;0.8793;0.1377;69.212;11.2883;0.845;531.875;0;0;0;2279.66;2301.44;1;82503981;-0.0118488;0.334892;2.16169;-0.33077;0.00894708;0.937154;0.372227;-0.509108;0.222245;82502999;47.61156316;-122.75123827;97.93658618;0.01881169;0.00000000;4.00685835;3.49729896;
82504159;80.8;32.1;30.7;0;32.1;42.4;0;0;0;0;0;0.001;0.8793;0.1377;69.212;11.2883;241880;244190;295.2;0;1;0.061;0.042;82504080;0.8793;0.1377;69.212;11.2883;0.845;531.875;0;0;0;2279.66;2301.44;1;82504081;-0.0124456;0.334587;2.16122;-0.323538;0.0109426;0.937327;0.320848;0.0530663;0.431816;82502999;47.61156316;-122.75123827;97.93658618;0.01881169;0.00000000;4.00685835;3.49729896;
82504255;80.8;32.1;30.7;0;32.1;42.4;0;0;0;0;0;0.001;0.8793;0.1377;69.212;11.2883;241880;244190;295.2;0;1;0.061;0.042;82504159;0.8793;0.1377;69.212;11.2883;0.845;531.881;0;0;0;2279.66;2301.44;1;82504160;-0.0127279;0.334948;2.16082;-0.326284;0.0114531;0.93792;-0.052284;0.400506;0.179908;82502999;47.61156316;-122.75123827;97.93658618;0.01881169;0.00000000;4.00685835;3.49729896;
82504345;80.8;32.1;30.7;0;32;42.4;0;0;0;0;0;0.001;0.8793;0.1377;69.212;11.2883;241880;244190;295.2;0;1;0.062;0.042;82504256;0.8793;0.1377;69.212;11.2883;0.845;531.888;0;0;0;2279.66;2301.44;1;82504257;-0.0126658;0.335206;2.16057;-0.323495;0.00997164;0.938239;0.0810624;0.119682;0.10081;82502999;47.61156316;-122.75123827;97.93658618;0.01881169;0.00000000;4.00685835;3.49729896;
82504445;80.8;32;30.7;0;32;42.4;0;0;0;0;0;0.001;0.8793;0.1377;69.212;11.2883;241880;244190;295.2;0;1;0.061;0.041;82504346;0.8793;0.1377;69.212;11.2883;0.845;531.888;0;0;0;2279.66;2301.44;1;82504347;-0.0131077;0.335307;2.16018;-0.32538;0.00601941;0.938246;0.454194;0.0522274;0.349853;82502999;47.61156316;-122.75123827;97.93658618;0.01881169;0.00000000;4.00685835;3.49729896;
82504519;80.8;32.1;30.7;0;32.1;42.4;0;0;0;0;0;0.001;0.8793;0.1377;69.212;11.2883;241880;244190;295.2;0;1;0.062;0.041;82504447;0.8793;0.1377;69.212;11.2883;0.845;531.891;0;0;0;2279.66;2301.44;1;82504449;-0.0137585;0.335192;2.1597;-0.325439;0.0158291;0.93805;-0.0645196;-0.0908953;0.0454658;82502999;47.61156316;-122.75123827;97.93658618;0.01881169;0.00000000;4.00685835;3.49729896;
82504619;80.8;32.1;30.7;0;32.1;42.4;0;0;0;0;0;0.001;0.8793;0.1377;69.212;11.2883;241880;244190;295.2;0;1;0.061;0.042;82504520;0.8793;0.1377;69.212;11.2883;0.845;531.902;0;0;0;2279.66;2301.44;1;82504521;-0.0135749;0.335194;2.15942;-0.327913;0.0197301;0.938033;-0.312859;0.122912;0.416429;82502999;47.61156316;-122.75123827;97.93658618;0.01881169;0.00000000;4.00685835;3.49729896;
82504797;80.8;32.1;30.7;0;32.1;42.3;0;0;0;0;0;0.001;0.8793;0.1377;69.212;11.2883;241880;244190;295.2;0;1;0.061;0.042;82504746;0.8793;0.1377;69.212;11.2883;0.845;531.93;0;0;0;2279.66;2301.44;1;82504621;-0.0123096;0.335703;2.15944;-0.327077;-0.000895943;0.938318;-0.400945;0.120834;0.213361;82503999;47.61156294;-122.75123847;97.96066861;0.02063451;0.00000000;3.94022894;3.46884060;
82504882;80.8;32.1;30.7;0;32.1;42.4;0;0;0;0;0;0.001;0.8793;0.1377;69.212;11.2883;241880;244190;295.2;0;1;0.061;0.042;82504833;0.8793;0.1377;69.212;11.2883;0.845;531.949;0;0;0;2279.66;2301.44;1;82504798;-0.0117493;0.335382;2.15892;-0.327538;-0.00571511;0.937585;-0.0584018;-0.0901816;0.115194;82503999;47.61156294;-122.75123847;97.96066861;0.02063451;0.00000000;3.94022894;3.46884060;
82504970;80.8;32.1;30.7;0;32.1;42.4;0;0;0;0;0;0.001;0.8793;0.1377;69.212;11.2883;241880;244190;295.2;0;1;0.061;0.042;82504924;0.8793;0.1377;69.212;11.2883;0.845;531.952;0;0;0;2279.66;2301.44;1;82504882;-0.01159;0.33523;2.15867;-0.328621;7.13659e-05;0.937462;0.16303;-0.228935;0.237732;82503999;47.61156294;-122.75123847;97.96066861;0.02063451;0.00000000;3.94022894;3.46884060;
82505070;80.8;32.1;30.7;0;32.1;42.3;0;0;0;0;0;0.001;0.8793;0.1377;69.212;11.2883;241880;244190;295.2;0;1;0.061;0.042;82505057;0.8793;0.1377;69.212;11.2883;0.845;531.958;0;0;0;2279.66;2301.44;1;82504971;-0.0117791;0.335076;2.15828;-0.325235;0.00890702;0.937426;0.16303;-0.0189458;0.235582;82503999;47.61156294;-122.75123847;97.96066861;0.02063451;0.00000000;3.94022894;3.46884060;
82505152;80.8;32.1;30.8;0;32;42.3;0;0;0;0;0;0.001;0.8793;0.1377;69.212;11.2883;241880;244190;295.2;0;1;0.062;0.042;82505057;0.8793;0.1377;69.212;11.2883;0.845;531.958;0;0;0;2279.66;2301.44;1;82505114;-0.0119355;0.335164;2.15776;-0.325039;0.010939;0.937653;-0.203984;0.329208;0.0534024;82503999;47.61156294;-122.75123847;97.96066861;0.02063451;0.00000000;3.94022894;3.46884060;
82505239;80.8;32.1;30.7;0;32.1;42.3;0;0;0;0;0;0.001;0.8793;0.1377;69.212;11.2883;241880;244190;295.2;0;1;0.061;0.042;82505153;0.8793;0.1377;69.212;11.2883;0.845;531.97;0;0;0;2279.66;2301.44;1;82505193;-0.0115666;0.335304;2.15756;-0.321184;0.00714199;0.937828;-0.128134;0.0498737;0.119879;82503999;47.61156294;-122.75123847;97.96066861;0.02063451;0.00000000;3.94022894;3.46884060;
82505339;80.8;32;30.7;0;32.1;42.4;0;0;0;0;0;0.001;0.8793;0.1377;69.212;11.2883;241880;244190;295.2;0;1;0.062;0.042;82505239;0.8793;0.1377;69.212;11.2883;0.845;531.972;0;0;0;2279.66;2301.44;1;82505287;-0.011436;0.335723;2.15723;-0.326847;0.014201;0.938146;-0.128134;0.0498737;0.119879;82503999;47.61156294;-122.75123847;97.96066861;0.02063451;0.00000000;3.94022894;3.46884060;
82505421;80.8;32;30.8;0;32.1;42.3;0;0;0;0;0;0.001;0.8793;0.1377;69.212;11.2883;241880;244190;295.2;0;1;0.061;0.042;82505341;0.8793;0.1377;69.212;11.2883;0.845;531.976;0;0;0;2279.66;2301.44;1;82505389;-0.011336;0.335631;2.15698;-0.329295;0.0113305;0.937985;0.0932981;-0.0888795;0.242416;82503999;47.61156294;-122.75123847;97.96066861;0.02063451;0.00000000;3.94022894;3.46884060;
82505519;80.8;32;30.8;0;32;42.3;0;0;0;0;0;0.001;0.8793;0.1377;69.212;11.2883;241880;244190;295.2;0;1;0.06;0.041;82505422;0.8793;0.1377;69.212;11.2883;0.845;531.982;0;0;0;2279.66;2301.44;1;82505464;-0.0112225;0.335523;2.15676;-0.323196;0.00415078;0.937809;0.0174481;-0.0195342;0.178089;82503999;47.61156294;-122.75123847;97.96066861;0.02063451;0.00000000;3.94022894;3.46884060;
82505644;80.8;32;30.8;0;32;42.3;0;0;0;0;0;0.001;0.8793;0.1377;69.212;11.2883;241880;244190;295.2;0;1;0.061;0.042;82505520;0.8793;0.1377;69.212;11.2883;0.845;531.995;0;0;0;2279.66;2301.44;1;82505566;-0.0110362;0.335698;2.15651;-0.330727;0.00553623;0.93789;-0.14037;0.188439;-0.0210108;82503999;47.61156294;-122.75123847;97.96066861;0.02063451;0.00000000;3.94022894;3.46884060;
82505780;80.8;32.1;30.8;0;32.1;42.3;0;0;0;0;0;0.001;0.8793;0.1377;69.212;11.2883;241880;244190;295.2;0;1;0.061;0.041;82505645;0.8793;0.1377;69.212;11.2883;0.845;531.996;0;0;0;2279.66;2301.44;1;82505645;-0.0111324;0.335994;2.15617;-0.327009;0.0167363;0.937988;-0.052284;0.260514;0.181341;82504999;47.61156246;-122.75123865;98.11674210;0.04214809;0.00000000;3.90986538;3.44280529;
82505919;80.8;32;30.7;0;32.1;42.3;0;0;0;0;0;0.001;0.8793;0.1377;69.212;11.2883;241880;244190;295.2;0;1;0.062;0.042;82505781;0.8793;0.1377;69.212;11.2883;0.845;531.998;0;0;0;2279.66;2301.44;1;82505781;-0.0110505;0.336005;2.15586;-0.32538;0.0079713;0.937838;-0.052284;-0.159464;0.185639;82504999;47.61156246;-122.75123865;98.11674210;0.04214809;0.00000000;3.90986538;3.44280529;
82506010;80.8;32;30.7;0;32;42.3;0;0;0;0;0;0.001;0.8793;0.1377;69.212;11.2883;241880;244190;295.2;0;1;0.06;0.042;82505921;0.8793;0.1377;69.212;11.2883;0.845;532;0;0;0;2279.66;2301.44;1;82505921;-0.0101176;0.335284;2.15551;-0.327538;0.00258045;0.937225;0.16303;-0.158938;0.237015;82504999;47.61156246;-122.75123865;98.11674210;0.04214809;0.00000000;3.90986538;3.44280529;
82506095;80.8;32;30.7;0;32.1;42.3;0;0;0;0;0;0.001;0.8793;0.1377;69.212;11.2883;241880;244190;295.2;0;1;0.062;0.042;82506011;0.8793;0.1377;69.212;11.2883;0.845;532.004;0;0;0;2279.66;2301.44;1;82506011;-0.0102814;0.334933;2.15512;-0.325985;0.00709617;0.937145;0.244998;-0.157574;0.370355;82504999;47.61156246;-122.75123865;98.11674210;0.04214809;0.00000000;3.90986538;3.44280529;
82506230;80.8;32;30.7;0;32.1;42.3;0;0;0;0;0;0.001;0.8793;0.1377;69.212;11.2883;241880;244190;295.2;0;1;0.062;0.043;82506229;0.8793;0.1377;69.212;11.2883;0.845;532.004;0;0;0;2279.66;2301.44;1;82506096;-0.0105198;0.335271;2.15467;-0.327896;0.00845151;0.937637;0.0994159;0.331812;0.307846;82504999;47.61156246;-122.75123865;98.11674210;0.04214809;0.00000000;3.90986538;3.44280529;
82506362;80.8;32;30.8;0;32;42.3;0;0;0;0;0;0.001;0.8793;0.1377;69.212;11.2883;241880;244190;295.2;0;1;0.061;0.042;82506229;0.8793;0.1377;69.212;11.2883;0.845;532.004;0;0;0;2279.66;2301.44;1;82506232;-0.0108278;0.335586;2.15427;-0.328007;0.00935737;0.937907;0.0932981;0.331098;0.238118;82504999;47.61156246;-122.75123865;98.11674210;0.04214809;0.00000000;3.90986538;3.44280529;
82506460;80.8;32;30.7;0;32;42.3;0;0;0;0;0;0.001;0.8793;0.1377;69.212;11.2883;241880;244190;295.2;0;1;0.063;0.043;82506369;0.8793;0.1377;69.212;11.2883;0.845;532.008;0;0;0;2279.66;2301.44;1;82506369;-0.0113634;0.335658;2.15353;-0.325661;0.0130468;0.93778;-0.115898;0.121297;0.25862;82504999;47.61156246;-122.75123865;98.11674210;0.04214809;0.00000000;3.90986538;3.44280529;
82506549;80.8;32;30.7;0;32.1;42.3;0;0;0;0;0;0.001;0.8793;0.1377;69.212;11.2883;241880;244190;295.2;0;1;0.062;0.042;82506460;0.8793;0.1377;69.212;11.2883;0.845;532.008;0;0;0;2279.66;2301.44;1;82506461;-0.0112409;0.335903;2.15325;-0.329056;0.0172712;0.937836;-0.122016;-0.0894053;0.19104;82504999;47.61156246;-122.75123865;98.11674210;0.04214809;0.00000000;3.90986538;3.44280529;
82506637;80.8;32;30.7;0;32;42.3;0;0;0;0;0;0.001;0.8793;0.1377;69.212;11.2883;241880;244190;295.2;0;1;0.061;0.042;82506549;0.8793;0.1377;69.212;11.2883;0.845;532.011;0;0;0;2279.66;2301.44;1;82506550;-0.010994;0.336309;2.15297;-0.331324;0.015714;0.938025;0.105534;0.402522;0.376858;82504999;47.61156246;-122.75123865;98.11674210;0.04214809;0.00000000;3.90986538;3.44280529;
82506774;80.8;32;30.7;0;32;42.3;0;0;0;0;0;0.001;0.8793;0.1377;69.212;11.2883;241880;244190;295.2;0;1;0.061;0.042;82506637;0.8793;0.1377;69.212;11.2883;0.845;532.019;0;0;0;2279.66;2301.44;1;82506638;-0.0110407;0.336509;2.15258;-0.331742;0.00943593;0.937915;0.0994159;-0.0181695;0.311428;82505999;47.61156237;-122.75123874;98.06498976;0.02441172;0.00000000;3.85861635;3.39075422;
82506912;80.8;32;30.7;0;32;42.3;0;0;0;0;0;0.001;0.8793;0.1377;69.212;11.2883;241880;244190;295.2;0;1;0.061;0.042;82506775;0.8793;0.1377;69.212;11.2883;0.845;532.026;0;0;0;2279.66;2301.44;1;82506776;-0.0109915;0.336651;2.1522;-0.327469;0.00996519;0.937775;-0.115898;0.051301;0.259336;82505999;47.61156237;-122.75123874;98.06498976;0.02441172;0.00000000;3.85861635;3.39075422;
82507002;80.8;32;30.7;0;32.1;42.3;0;0;0;0;0;0.001;0.8793;0.1377;69.212;11.2883;241880;244190;295.2;0;1;0.061;0.042;82506913;0.8793;0.1377;69.212;11.2883;0.845;532.033;0;0;0;2279.66;2301.44;1;82506913;-0.0105203;0.336586;2.15185;-0.323597;0.00855293;0.937388;-0.343448;-0.0906448;0.0699358;82505999;47.61156237;-122.75123874;98.06498976;0.02441172;0.00000000;3.85861635;3.39075422;
82507086;80.8;32.1;30.7;0;32.1;42.3;0;0;0;0;0;0.001;0.8793;0.1377;69.212;11.2883;241880;244190;295.2;0;1;0.061;0.042;82507003;0.8793;0.1377;69.212;11.2883;0.845;532.033;0;0;0;2279.66;2301.44;1;82507003;-0.00926558;0.33686;2.15155;-0.328638;0.0142778;0.937332;-0.831573;-0.230199;0.114191;82505999;47.61156237;-122.75123874;98.06498976;0.02441172;0.00000000;3.85861635;3.39075422;
82507176;80.8;32;30.7;0;32.1;42.3;0;0;0;0;0;0.001;0.8793;0.1377;69.212;11.2883;241880;244190;295.2;0;1;0.061;0.042;82507087;0.8793;0.1377;69.212;11.2883;0.845;532.033;0;0;0;2279.66;2301.44;1;82507087;-0.00768818;0.337473;2.1517;-0.329107;-0.00383199;0.937695;-0.388709;0.962217;0.344221;82505999;47.61156237;-122.75123874;98.06498976;0.02441172;0.00000000;3.85861635;3.39075422;
82507272;80.8;32;30.7;0;32;42.3;0;0;0;0;0;0.001;0.8793;0.1377;69.212;11.2883;241880;244190;295.2;0;1;0.061;0.042;82507177;0.8793;0.1377;69.212;11.2883;0.845;532.033;0;0;0;2279.66;2301.44;1;82507181;-0.00710172;0.338365;2.15153;-0.329064;-0.00431499;0.937949;-0.48903;0.118756;0.0102931;82505999;47.61156237;-122.75123874;98.06498976;0.02441172;0.00000000;3.85861635;3.39075422;
82507356;80.8;32;30.7;0;32;42.3;0;0;0;0;0;0.001;0.8793;0.1377;69.212;11.2883;241880;244190;295.2;0;1;0.061;0.042;82507273;0.8793;0.1377;69.212;11.2883;0.845;532.033;0;0;0;2279.66;2301.44;1;82507274;-0.00626288;0.33862;2.15142;-0.328492;0.000372062;0.937661;-0.109781;0.821974;0.321184;82505999;47.61156237;-122.75123874;98.06498976;0.02441172;0.00000000;3.85861635;3.39075422;
82507448;80.8;32;30.7;0;32.1;42.3;0;0;0;0;0;0.001;0.8793;0.1377;69.212;11.2883;241880;244190;295.2;0;1;0.061;0.042;82507356;0.8793;0.1377;69.212;11.2883;0.845;532.033;0;0;0;2279.66;2301.44;1;82507400;-0.00623939;0.340952;2.15088;-0.335478;0.0145964;0.938267;0.396698;-0.0862753;0.49686;82505999;47.61156237;-122.75123874;98.06498976;0.02441172;0.00000000;3.85861635;3.39075422;
82507533;80.8;32;30.7;0;32.1;42.3;0;0;0;0;0;0.001;0.8793;0.1377;69.212;11.2883;241880;244190;295.2;0;1;0.062;0.042;82507449;0.8793;0.1377;69.212;11.2883;0.845;532.034;0;0;0;2279.66;2301.44;1;82507490;-0.00671714;0.340106;2.1504;-0.327622;0.000904378;0.936668;0.560634;-0.433527;0.767121;82505999;47.61156237;-122.75123874;98.06498976;0.02441172;0.00000000;3.85861635;3.39075422;
82507628;80.8;32;30.7;0;32;42.3;0;0;0;0;0;0.001;0.8793;0.1377;69.212;11.2883;241880;244190;295.2;0;1;0.063;0.042;82507539;0.8793;0.1377;69.212;11.2883;0.845;532.034;0;0;0;2279.66;2301.44;1;82507587;-0.00670926;0.339299;2.15023;-0.328007;-0.00332997;0.935607;-0.546527;-1.34968;0.170912;82505999;47.61156237;-122.75123874;98.06498976;0.02441172;0.00000000;3.85861635;3.39075422;
82507717;80.8;32;30.7;0;32;42.3;0;0;0;0;0;0.001;0.8793;0.1377;69.212;11.2883;241880;244190;295.2;0;1;0.061;0.041;82507629;0.8793;0.1377;69.212;11.2883;0.845;532.034;0;0;0;2279.66;2301.44;1;82507676;-0.00715618;0.338218;2.14965;-0.331648;0.0393276;0.935214;0.399134;0.955757;-0.287017;82505999;47.61156237;-122.75123874;98.06498976;0.02441172;0.00000000;3.85861635;3.39075422;
82507810;80.8;32;30.7;0;32;42.3;0;0;0;0;0;0.001;0.8793;0.1377;69.212;11.2883;241880;244190;295.2;0;1;0.062;0.042;82507717;0.8793;0.1377;69.212;11.2883;0.845;532.034;0;0;0;2279.66;2301.44;1;82507805;-0.0069971;0.337766;2.14937;-0.329235;0.00884042;0.935637;-0.325095;-0.1585;0.279838;82506999;47.61156207;-122.75123858;98.06142738;0.02668738;0.00000000;3.83916664;3.36019325;
82507903;80.8;32;30.7;0;32;42.3;0;0;0;0;0;0.001;0.8793;0.1377;69.212;11.2883;241880;244190;295.2;0;1;0.062;0.042;82507810;0.8793;0.1377;69.212;11.2883;0.845;532.034;0;0;0;2279.66;2301.44;1;82507805;-0.0069971;0.337766;2.14937;-0.329235;0.00884042;0.935637;-0.325095;-0.1585;0.279838;82506999;47.61156207;-122.75123858;98.06142738;0.02668738;0.00000000;3.83916664;3.36019325;
82508029;80.8;32;30.7;0;32;42.3;0;0;0;0;0;0.001;0.8793;0.1377;69.212;11.2883;241880;244190;295.2;0;1;0.061;0.042;82507904;0.8793;0.1377;69.212;11.2883;0.845;532.035;0;0;0;2279.66;2301.44;1;82507904;-0.00616179;0.337772;2.1493;-0.332416;-0.00614356;0.93641;-0.419298;0.888653;-0.0037048;82506999;47.61156207;-122.75123858;98.06142738;0.02668738;0.00000000;3.83916664;3.36019325;
82508127;80.8;32;30.7;0;32;42.3;0;0;0;0;0;0.001;0.8793;0.1377;69.212;11.2883;241880;244190;295.2;0;1;0.061;0.042;82508029;0.8793;0.1377;69.212;11.2883;0.845;532.04;0;0;0;2279.66;2301.44;1;82508032;-0.00619974;0.337484;2.14878;-0.328314;0.00412529;0.936538;0.0932981;-1.27882;0.254595;82506999;47.61156207;-122.75123858;98.06142738;0.02668738;0.00000000;3.83916664;3.36019325;
82508215;80.8;32;30.7;0;32.1;42.3;0;0;0;0;0;0.001;0.8793;0.1377;69.212;11.2883;241880;244190;295.2;0;1;0.062;0.042;82508127;0.8793;0.1377;69.212;11.2883;0.845;532.046;0;0;0;2279.66;2301.44;1;82508128;-0.00589098;0.336651;2.14847;-0.326062;-0.016019;0.937023;-0.36792;0.0464932;-0.210411;82506999;47.61156207;-122.75123858;98.06142738;0.02668738;0.00000000;3.83916664;3.36019325;
82508343;80.8;32;30.7;0;32;42.3;0;0;0;0;0;0.001;0.8793;0.1377;69.212;11.2883;241880;244190;295.2;0;1;0.06;0.041;82508216;0.8793;0.1377;69.212;11.2883;0.845;532.047;0;0;0;2279.66;2301.44;1;82508216;-0.00497915;0.336408;2.14856;-0.326198;-0.00171225;0.937296;-0.343448;-0.0906448;0.0699358;82506999;47.61156207;-122.75123858;98.06142738;0.02668738;0.00000000;3.83916664;3.36019325;
82508436;80.8;32;30.7;0;32;42.3;0;0;0;0;0;0.001;0.8793;0.1377;69.212;11.2883;241880;244190;295.2;0;1;0.061;0.04;82508344;0.8793;0.1377;69.212;11.2883;0.845;532.049;0;0;0;2279.66;2301.44;1;82508345;-0.00475922;0.336237;2.14823;-0.331751;0.0107845;0.937496;-0.203984;-0.370755;0.0605664;82506999;47.61156207;-122.75123858;98.06142738;0.02668738;0.00000000;3.83916664;3.36019325;
82508523;80.8;32;30.7;0;32;42.3;0;0;0;0;0;0.001;0.8793;0.1377;69.212;11.2883;241880;244190;295.2;0;1;0.058;0.035;82508437;0.8793;0.1377;69.212;11.2883;0.845;532.054;0;0;0;2279.66;2301.44;1;82508437;-0.00304455;0.333539;2.14845;-0.331538;0.0075958;0.936006;-1.08359;-3.59483;-0.321169;82506999;47.61156207;-122.75123858;98.06142738;0.02668738;0.00000000;3.83916664;3.36019325;
82508620;80.8;32;30.7;0;32;42.3;0;0;0;0;0;0.001;0.8793;0.1377;69.212;11.2883;241880;244190;295.2;0;1;0.056;0.032;82508620;0.8793;0.1377;69.212;11.2883;0.845;532.056;0;0;0;2279.66;2301.44;1;82508529;-0.000976383;0.324778;2.14918;-0.333775;-0.0174594;0.931087;0.159349;-10.667;-0.498384;82506999;47.61156207;-122.75123858;98.06142738;0.02668738;0.00000000;3.83916664;3.36019325;
82508753;80.8;32;30.7;0;32;42.3;0;0;0;0;0;0.001;0.8793;0.1377;69.212;11.2883;241880;244190;295.2;0;1;0.071;0.064;82508620;0.8793;0.1377;69.212;11.2883;0.845;532.056;0;0;0;2279.66;2301.44;1;82508621;-0.00147236;0.297233;2.14949;-0.335128;-0.00574339;0.917677;-0.814464;-20.9635;-1.08056;82506999;47.61156207;-122.75123858;98.06142738;0.02668738;0.00000000;3.83916664;3.36019325;
82508890;80.8;32;30.6;0;32;42.3;-1.02;-0.01;-0.07;4.01;-95;-0.003;0.8793;0.1377;69.212;11.2883;241878;244192;176.4;0;1;-0.094;-0.056;82508753;0.8793;0.1377;69.212;11.2883;0.845;532.056;0;0;0;2279.66;2301.44;1;82508754;-0.00742639;0.245902;2.1527;-0.190108;-0.0585832;0.905819;10.8235;-51.4686;0.529563;82507999;47.61156153;-122.75124197;97.96631734;0.15047793;0.00000000;3.83459759;3.34334540;
82508972;80.2;32;30.7;0;32.1;42.3;29.06;1.35;-0.1;30.71;0;0.086;0.8793;0.1377;69.2144;11.2883;241877;244193;115.2;0;1;0.025;1.467;82508891;0.8793;0.1377;69.212;11.2883;0.845;532.061;-0.03;-6.07;-0.055;2279.65;2301.45;1;82508892;-0.0244951;0.03558;2.16341;0.199141;-0.0636052;0.894889;2.76505;-65.959;-6.27481;82507999;47.61156153;-122.75124197;97.96631734;0.15047793;0.00000000;3.83459759;3.34334540;
82509069;79.3;32;30.7;0;31.9;42.3;60.71;5.51;0.33;60.85;219;0.137;0.8795;0.1377;69.2247;11.2883;241879;244195;231.419;0;1;-0.145;4.283;82509069;0.8795;0.1377;69.2247;11.2883;0.843;530.561;8.24;69.6;0.172;2279.66;2301.48;1;82508975;-0.0233266;-0.0436808;2.16528;-0.438306;0.122954;0.906866;1.06587;-41.9562;-0.25768;82507999;47.61156153;-122.75124197;97.96631734;0.15047793;0.00000000;3.83459759;3.34334540;
82509153;79.8;32;30.7;0;31.9;42.3;57.63;6.04;-0.04;57.47;529;0.125;0.8796;0.1377;69.2373;11.2883;241885;244201;195.23;0;1;-0.532;5.294;82509069;0.8795;0.1377;69.2247;11.2883;0.843;530.561;8.24;69.6;0.172;2279.66;2301.48;1;82509070;-0.0197725;-0.082139;2.17339;-0.369898;0.110075;0.930743;-11.1068;-21.2347;-7.06147;82507999;47.61156153;-122.75124197;97.96631734;0.15047793;0.00000000;3.83459759;3.34334540;
82509244;80.2;32;30.7;0;32;42.3;42.88;4.38;-0.09;42.73;795;0.106;0.8797;0.1377;69.2462;11.2883;241893;244209;307.851;0;1;-0.506;5.231;82509160;0.8796;0.1377;69.2373;11.2883;0.84;528.847;5.41;48.52;0.531;2279.71;2301.54;1;82509203;0.00356018;-0.103579;2.19275;-0.0419153;-0.0952624;0.971147;0.027138;-7.51179;-6.84361;82507999;47.61156153;-122.75124197;97.96631734;0.15047793;0.00000000;3.83459759;3.34334540;
82509335;80.1;32;30.7;0;31.9;42.3;31.9;3.05;0;31.91;914;0.121;0.8798;0.1377;69.2515;11.2883;241901;244217;99.6634;0;1;-0.44;4.886;82509244;0.8797;0.1377;69.2462;11.2883;0.839;527.743;2.52;29.08;0.753;2279.79;2301.61;1;82509295;-0.01498;-0.0930015;2.21466;0.034655;-0.315321;0.998073;22.9836;2.38862;-17.6026;82507999;47.61156153;-122.75124197;97.96631734;0.15047793;0.00000000;3.83459759;3.34334540;
82509426;79.9;32;30.7;0;32;42.3;36.96;4.04;0.1;36.99;1047;0.143;0.8799;0.1377;69.2605;11.2883;241911;244227;330.938;0;1;-0.564;5.61;82509336;0.8798;0.1377;69.2523;11.2883;0.837;527.01;3.19;33.57;0.863;2279.87;2301.7;1;82509387;-0.0606293;-0.0968379;2.21868;-0.0248796;-0.0366741;1.00737;26.9182;-8.09135;4.92774;82507999;47.61156153;-122.75124197;97.96631734;0.15047793;0.00000000;3.83459759;3.34334540;
82509519;79.9;32;30.8;0;32;42.3;42.22;5.41;0.05;42.16;1254;0.147;0.8801;0.1377;69.2714;11.2883;241923;244239;352.247;0;1;-0.864;6.621;82509519;0.88;0.1377;69.2702;11.2883;0.834;524.811;5.17;40.65;1.178;2280.07;2301.9;1;82509469;-0.101193;-0.112434;2.20813;0.0185867;0.119247;1.01251;11.3166;-12.275;6.55023;82507999;47.61156153;-122.75124197;97.96631734;0.15047793;0.00000000;3.83459759;3.34334540;
82509610;80.2;32;30.8;0;32;42.3;23.77;2.66;-0.11;23.71;1344;0.148;0.8801;0.1377;69.2763;11.2883;241935;244251;337.122;0;1;-0.466;5.836;82509519;0.88;0.1377;69.2702;11.2883;0.834;524.811;5.17;40.65;1.178;2280.07;2301.9;1;82509562;-0.120089;-0.103947;2.18214;0.217791;0.137826;1.02135;20.6378;24.6134;26.7177;82507999;47.61156153;-122.75124197;97.96631734;0.15047793;0.00000000;3.83459759;3.34334540;
82509693;80;32;30.8;0;32.2;42.3;44.84;5.91;0.01;44.81;1315;0.138;0.8803;0.1377;69.2881;11.2883;241947;244263;317.687;0;1;-0.864;6.75;82509611;0.8801;0.1377;69.2771;11.2883;0.833;524.131;4.2;33.71;1.261;2280.19;2302.02;1;82509654;-0.143448;-0.0856577;2.10734;-0.235139;0.068466;1.03489;22.0292;16.1119;57.8837;82507999;47.61156153;-122.75124197;97.96631734;0.15047793;0.00000000;3.83459759;3.34334540;
