ms_today;input_voltage;temp_mos_max;temp_mos_1;temp_mos_2;temp_mos_3;temp_motor;current_motor;current_in;d_axis_current;q_axis_current;erpm;duty_cycle;amp_hours_used;amp_hours_charged;watt_hours_used;watt_hours_charged;tachometer;tachometer_abs;encoder_position;fault_code;vesc_id;d_axis_voltage;q_axis_voltage;ms_today_setup;amp_hours_setup;amp_hours_charged_setup;watt_hours_setup;watt_hours_charged_setup;battery_level;battery_wh_tot;current_in_setup;current_motor_setup;speed_meters_per_sec;tacho_meters;tacho_abs_meters;num_vescs;ms_today_imu;roll;pitch;yaw;accX;accY;accZ;gyroX;gyroY;gyroZ;gnss_posTime;gnss_lat;gnss_lon;gnss_alt;gnss_gVel;gnss_vVel;gnss_hAcc;gnss_vAcc;
75599992;81.2;25.8;25.4;0;25.9;29.2;3.89;0.98;0.01;3.29;0;0.001;0.4299;0.0831;33.4711;6.905;123427;123929;235.8;0;1;-0.338;3.173;75599991;0.4299;0.0831;33.4711;6.905;0.872;548.68;0;0;0;1163.27;1168;1;75558404;0.0162436;0.267727;-1.83546;-0.265065;-0.0163061;0.954794;0.0113302;0.0497485;0.107644;75596999;47.59972295;-122.83505077;122.71014294;0.00000000;0.00000000;4.24417543;3.00000000;
75600074;81.2;25.8;25.5;0;25.8;29.2;0;0;0;0;0;0.001;0.4299;0.0831;33.4711;6.905;123427;123929;235.8;0;1;-0.005;0.074;75599991;0.4299;0.0831;33.4711;6.905;0.872;548.68;0;0;0;1163.27;1168;1;75599993;0.00640204;0.327153;-0.770776;-0.31657;-0.00184623;0.938391;0.0749446;0.258961;0.0296488;75596999;47.59972295;-122.83505077;122.71014294;0.00000000;0.00000000;4.24417543;3.00000000;
75600164;81.2;25.8;25.4;0;25.8;29.2;0;0;0;0;0;0.001;0.4299;0.0831;33.4711;6.905;123427;123929;235.8;0;1;-0.006;0.073;75600164;0.4299;0.0831;33.4711;6.905;0.872;548.706;0;0;0;1163.27;1168;1;75600076;0.0064356;0.327169;-0.770853;-0.31755;-0.0104584;0.938367;0.138559;0.188189;-0.0454808;75596999;47.59972295;-122.83505077;122.71014294;0.00000000;0.00000000;4.24417543;3.00000000;
75600254;81.2;25.8;25.4;0;25.8;29.2;0;0;0;0;0;0.001;0.4299;0.0831;33.4711;6.905;123427;123929;235.8;0;1;-0.006;0.073;75600164;0.4299;0.0831;33.4711;6.905;0.872;548.706;0;0;0;1163.27;1168;1;75600167;0.00629169;0.327285;-0.770971;-0.320288;-0.0106064;0.938376;-0.000905395;-0.0916715;-0.0303801;75596999;47.59972295;-122.83505077;122.71014294;0.00000000;0.00000000;4.24417543;3.00000000;
75600348;81.2;25.8;25.4;0;25.8;29.2;0;0;0;0;0;0.001;0.4299;0.0831;33.4711;6.905;123427;123929;235.8;0;1;-0.005;0.074;75600347;0.4299;0.0831;33.4711;6.905;0.872;548.756;0;0;0;1163.27;1168;1;75600258;0.00643436;0.327076;-0.771067;-0.321491;-0.0115512;0.938171;0.0749446;-0.301009;0.03538;75596999;47.59972295;-122.83505077;122.71014294;0.00000000;0.00000000;4.24417543;3.00000000;
75600487;81.2;25.8;25.4;0;25.9;29.2;0;0;0;0;0;0.001;0.4299;0.0831;33.4711;6.905;123427;123929;235.8;0;1;-0.006;0.073;75600347;0.4299;0.0831;33.4711;6.905;0.872;548.756;0;0;0;1163.27;1168;1;75600348;0.0064745;0.326479;-0.771142;-0.320774;-0.010118;0.937799;0.150795;-0.370355;0.0997074;75596999;47.59972295;-122.83505077;122.71014294;0.00000000;0.00000000;4.24417543;3.00000000;
75600583;81.2;25.8;25.4;0;25.8;29.2;0;0;0;0;0;0.001;0.4299;0.0831;33.4711;6.905;123427;123929;235.8;0;1;-0.005;0.074;75600488;0.4299;0.0831;33.4711;6.905;0.872;548.783;0;0;0;1163.27;1168;1;75600489;0.00640523;0.325685;-0.771234;-0.3179;0.00138362;0.93749;-0.273716;-0.2307;0.0652511;75596999;47.59972295;-122.83505077;122.71014294;0.00000000;0.00000000;4.24417543;3.00000000;
75600660;81.2;25.8;25.4;0;25.8;29.2;0;0;0;0;0;0.001;0.4299;0.0831;33.4711;6.905;123427;123929;235.8;0;1;-0.005;0.073;75600584;0.4299;0.0831;33.4711;6.905;0.872;548.803;0;0;0;1163.27;1168;1;75600585;0.00673419;0.326021;-0.771279;-0.315487;-0.00763271;0.938304;-0.210102;-0.0914837;-0.0120277;75596999;47.59972295;-122.83505077;122.71014294;0.00000000;0.00000000;4.24417543;3.00000000;
75600761;81.2;25.8;25.5;0;25.8;29.2;0;0;0;0;0;0.001;0.4299;0.0831;33.4711;6.905;123427;123929;235.8;0;1;-0.006;0.074;75600760;0.4299;0.0831;33.4711;6.905;0.872;548.824;0;0;0;1163.27;1168;1;75600663;0.00690368;0.325824;-0.771352;-0.318455;-0.00726239;0.938412;-0.0645196;-0.230888;0.0468986;75596999;47.59972295;-122.83505077;122.71014294;0.00000000;0.00000000;4.24417543;3.00000000;
75600888;81.2;25.8;25.5;0;25.8;29.2;0;0;0;0;0;0.001;0.4299;0.0831;33.4711;6.905;123427;123929;235.8;0;1;-0.005;0.073;75600883;0.4299;0.0831;33.4711;6.905;0.872;548.845;0;0;0;1163.27;1168;1;75600799;0.00750838;0.325818;-0.771316;-0.314352;-0.0101689;0.938783;-0.0645196;0.259086;0.0418838;75597999;47.59972295;-122.83505077;122.69410684;0.00000000;0.00000000;4.24437237;3.00000000;
75600983;81.2;25.8;25.4;0;25.7;29.2;0;0;0;0;0;0.001;0.4299;0.0831;33.4711;6.905;123427;123929;235.8;0;1;-0.005;0.074;75600883;0.4299;0.0831;33.4711;6.905;0.872;548.845;0;0;0;1163.27;1168;1;75600933;0.00757296;0.326009;-0.771443;-0.316604;0.000703971;0.939052;0.144677;0.258899;0.0235313;75597999;47.59972295;-122.83505077;122.69410684;0.00000000;0.00000000;4.24437237;3.00000000;
75601066;81.2;25.8;25.3;0;25.7;29.2;0;0;0;0;0;0.001;0.4299;0.0831;33.4711;6.905;123427;123929;235.8;0;1;-0.006;0.074;75601064;0.4299;0.0831;33.4711;6.905;0.872;548.873;0;0;0;1163.27;1168;1;75601025;0.00760863;0.326133;-0.771524;-0.319862;-0.00372498;0.939082;0.0688268;0.0482585;-0.0379305;75597999;47.59972295;-122.83505077;122.69410684;0.00000000;0.00000000;4.24437237;3.00000000;
75601155;81.2;25.8;25.4;0;25.8;29.2;0;0;0;0;0;0.001;0.4299;0.0831;33.4711;6.905;123427;123929;235.8;0;1;-0.005;0.073;75601064;0.4299;0.0831;33.4711;6.905;0.872;548.873;0;0;0;1163.27;1168;1;75601111;0.00770912;0.326025;-0.771592;-0.319674;-0.0140077;0.938912;0.0174481;-0.159527;0.179522;75597999;47.59972295;-122.83505077;122.69410684;0.00000000;0.00000000;4.24437237;3.00000000;
75601249;81.2;25.8;25.3;0;25.8;29.2;0;0;0;0;0;0.001;0.4299;0.0831;33.4711;6.905;123427;123929;235.8;0;1;-0.005;0.073;75601249;0.4299;0.0831;33.4711;6.905;0.872;548.898;0;0;0;1163.27;1168;1;75601201;0.00779134;0.32564;-0.77168;-0.312015;-0.00561875;0.938631;-0.0584018;-0.0201853;0.114478;75597999;47.59972295;-122.83505077;122.69410684;0.00000000;0.00000000;4.24437237;3.00000000;
75601341;81.2;25.8;25.4;0;25.8;29.2;0;0;0;0;0;0.001;0.4299;0.0831;33.4711;6.905;123427;123929;235.8;0;1;-0.006;0.073;75601249;0.4299;0.0831;33.4711;6.905;0.872;548.898;0;0;0;1163.27;1168;1;75601294;0.00789679;0.32549;-0.771758;-0.317841;-0.00968777;0.93866;0.00521243;-0.230951;0.0407811;75597999;47.59972295;-122.83505077;122.69410684;0.00000000;0.00000000;4.24437237;3.00000000;
75601473;81.2;25.8;25.4;0;25.8;29.2;0;0;0;0;0;0.001;0.4299;0.0831;33.4711;6.905;123427;123929;235.8;0;1;-0.005;0.074;75601342;0.4299;0.0831;33.4711;6.905;0.872;548.922;0;0;0;1163.27;1168;1;75601380;0.00802932;0.325438;-0.771843;-0.319598;-0.0141131;0.938704;0.156912;-0.159652;0.167287;75597999;47.59972295;-122.83505077;122.69410684;0.00000000;0.00000000;4.24437237;3.00000000;
75601562;81.2;25.8;25.4;0;25.8;29.2;0;0;0;0;0;0.001;0.4299;0.0831;33.4711;6.905;123427;123929;235.8;0;1;-0.006;0.074;75601473;0.4299;0.0831;33.4711;6.905;0.872;548.946;0;0;0;1163.27;1168;1;75601474;0.00779019;0.325233;-0.772009;-0.316945;-0.00616747;0.938619;0.0749446;-0.0210241;0.0325144;75597999;47.59972295;-122.83505077;122.69410684;0.00000000;0.00000000;4.24437237;3.00000000;
75601657;81.2;25.8;25.3;0;25.9;29.2;0;0;0;0;0;0.001;0.4299;0.0831;33.4711;6.905;123427;123929;235.8;0;1;-0.005;0.074;75601562;0.4299;0.0831;33.4711;6.905;0.872;548.964;0;0;0;1163.27;1168;1;75601563;0.0077548;0.32553;-0.772123;-0.315674;-0.0027177;0.9389;-0.0706375;0.258373;-0.0278447;75597999;47.59972295;-122.83505077;122.69410684;0.00000000;0.00000000;4.24437237;3.00000000;
75601784;81.2;25.8;25.4;0;25.7;29.2;0;0;0;0;0;0.001;0.4299;0.0831;33.4711;6.905;123427;123929;235.8;0;1;-0.006;0.074;75601658;0.4299;0.0831;33.4711;6.905;0.872;548.983;0;0;0;1163.27;1168;1;75601658;0.0079975;0.325742;-0.772157;-0.319316;-0.014511;0.939013;-0.134252;0.04916;0.0501505;75598999;47.59972295;-122.83505077;122.59783322;0.00000000;0.00000000;4.38546753;3.00000000;
75601921;81.2;25.8;25.3;0;25.8;29.2;0;0;0;0;0;0.001;0.4299;0.0831;33.4711;6.905;123427;123929;235.8;0;1;-0.005;0.074;75601784;0.4299;0.0831;33.4711;6.905;0.872;549.015;0;0;0;1163.27;1168;1;75601785;0.00824531;0.325859;-0.772232;-0.316288;-0.0110278;0.939022;0.00521243;0.119031;0.0371991;75598999;47.59972295;-122.83505077;122.59783322;0.00000000;0.00000000;4.38546753;3.00000000;
75602107;81.2;25.8;25.3;0;25.8;29.2;0;0;0;0;0;0.001;0.4299;0.0831;33.4711;6.905;123427;123929;235.8;0;1;-0.006;0.074;75602056;0.4299;0.0831;33.4711;6.905;0.872;549.08;0;0;0;1163.27;1168;1;75601923;0.00803651;0.325911;-0.772375;-0.314002;-0.00171818;0.938974;0.156912;0.120333;0.164421;75598999;47.59972295;-122.83505077;122.59783322;0.00000000;0.00000000;4.38546753;3.00000000;
75602192;81.2;25.8;25.4;0;25.8;29.2;0;0;0;0;0;0.001;0.4299;0.0831;33.4711;6.905;123427;123929;235.8;0;1;-0.006;0.073;75602150;0.4299;0.0831;33.4711;6.905;0.872;549.108;0;0;0;1163.27;1168;1;75602108;0.00738167;0.326289;-0.772767;-0.317892;-0.00708241;0.938807;0.144677;0.258899;0.0235313;75598999;47.59972295;-122.83505077;122.59783322;0.00000000;0.00000000;4.38546753;3.00000000;
75602280;81.2;25.8;25.4;0;25.8;29.2;0;0;0;0;0;0.001;0.4299;0.0831;33.4711;6.905;123427;123929;235.8;0;1;-0.006;0.074;75602240;0.4299;0.0831;33.4711;6.905;0.873;549.126;0;0;0;1163.27;1168;1;75602193;0.00715717;0.326326;-0.772938;-0.320186;-0.0047959;0.938625;-0.203984;-0.160766;0.0584172;75598999;47.59972295;-122.83505077;122.59783322;0.00000000;0.00000000;4.38546753;3.00000000;
75602421;81.2;25.8;25.4;0;25.8;29.2;0;0;0;0;0;0.001;0.4299;0.0831;33.4711;6.905;123427;123929;235.8;0;1;-0.005;0.073;75602325;0.4299;0.0831;33.4711;6.905;0.873;549.15;0;0;0;1163.27;1168;1;75602281;0.00736612;0.326084;-0.772982;-0.319614;-0.0101541;0.938396;-0.000905395;-0.231664;-0.0289473;75598999;47.59972295;-122.83505077;122.59783322;0.00000000;0.00000000;4.38546753;3.00000000;
75602549;81.2;25.8;25.4;0;25.8;29.2;0;0;0;0;0;0.001;0.4299;0.0831;33.4711;6.905;123427;123929;235.8;0;1;-0.006;0.074;75602422;0.4299;0.0831;33.4711;6.905;0.873;549.166;0;0;0;1163.27;1168;1;75602422;0.00743511;0.325848;-0.773058;-0.315017;-0.00855393;0.938244;-0.134252;-0.0908327;0.0515833;75598999;47.59972295;-122.83505077;122.59783322;0.00000000;0.00000000;4.38546753;3.00000000;
75602640;81.2;25.8;25.5;0;25.9;29.2;0;0;0;0;0;0.001;0.4299;0.0831;33.4711;6.905;123427;123929;235.8;0;1;-0.006;0.074;75602640;0.4299;0.0831;33.4711;6.905;0.873;549.224;0;0;0;1163.27;1168;1;75602553;0.00737603;0.325549;-0.773215;-0.310958;-0.00853752;0.938322;0.00521243;0.189027;0.0364827;75598999;47.59972295;-122.83505077;122.59783322;0.00000000;0.00000000;4.38546753;3.00000000;
75602782;81.2;25.8;25.4;0;25.8;29.2;0;0;0;0;0;0.001;0.4299;0.0831;33.4711;6.905;123427;123929;235.8;0;1;-0.006;0.074;75602781;0.4299;0.0831;33.4711;6.905;0.873;549.264;0;0;0;1163.27;1168;1;75602642;0.00724248;0.325485;-0.773339;-0.321508;-0.00515233;0.938446;-0.0706375;-0.0916089;-0.0242627;75598999;47.59972295;-122.83505077;122.59783322;0.00000000;0.00000000;4.38546753;3.00000000;
75602866;81.2;25.8;25.3;0;25.8;29.2;0;0;0;0;0;0.001;0.4299;0.0831;33.4711;6.905;123427;123929;235.8;0;1;-0.006;0.073;75602781;0.4299;0.0831;33.4711;6.905;0.873;549.264;0;0;0;1163.27;1168;1;75602827;0.00699283;0.325336;-0.773596;-0.31529;-0.00755267;0.938587;0.0810624;-0.0903068;0.102959;75599999;47.59972295;-122.83505077;122.57574599;0.00000000;0.00000000;4.38562155;3.00000000;
75602958;81.2;25.8;25.3;0;25.8;29.3;0;0;0;0;0;0.001;0.4299;0.0831;33.4711;6.905;123427;123929;235.8;0;1;-0.005;0.074;75602956;0.4299;0.0831;33.4711;6.905;0.873;549.312;0;0;0;1163.27;1168;1;75602909;0.00693298;0.325185;-0.773708;-0.318318;-0.00566824;0.938671;-0.14037;-0.0915463;-0.0181452;75599999;47.59972295;-122.83505077;122.57574599;0.00000000;0.00000000;4.38562155;3.00000000;
75603050;81.2;25.8;25.3;0;25.8;29.2;0;0;0;0;0;0.001;0.4299;0.0831;33.4711;6.905;123427;123929;235.8;0;1;-0.006;0.074;75602956;0.4299;0.0831;33.4711;6.905;0.873;549.312;0;0;0;1163.27;1168;1;75603043;0.00727442;0.325103;-0.77373;-0.312604;-0.00264525;0.938827;-0.0584018;-0.160178;0.115911;75599999;47.59972295;-122.83505077;122.57574599;0.00000000;0.00000000;4.38562155;3.00000000;
75603133;81.2;25.8;25.4;0;25.9;29.2;0;0;0;0;0;0.001;0.4299;0.0831;33.4711;6.905;123427;123929;235.8;0;1;-0.005;0.074;75603050;0.4299;0.0831;33.4711;6.905;0.873;549.326;0;0;0;1163.27;1168;1;75603043;0.00727442;0.325103;-0.77373;-0.312604;-0.00264525;0.938827;-0.0584018;-0.160178;0.115911;75599999;47.59972295;-122.83505077;122.57574599;0.00000000;0.00000000;4.38562155;3.00000000;
75603231;81.2;25.8;25.3;0;25.8;29.2;0;0;0;0;0;0.001;0.4299;0.0831;33.4711;6.905;123427;123929;235.8;0;1;-0.005;0.074;75603231;0.4299;0.0831;33.4711;6.905;0.873;549.369;0;0;0;1163.27;1168;1;75603135;0.00761676;0.325119;-0.773725;-0.320527;-0.0136192;0.939036;-0.0645196;-0.0908953;0.0454658;75599999;47.59972295;-122.83505077;122.57574599;0.00000000;0.00000000;4.38562155;3.00000000;
75603315;81.2;25.8;25.3;0;25.8;29.2;0;0;0;0;0;0.001;0.4299;0.0831;33.4711;6.905;123427;123929;235.8;0;1;-0.006;0.073;75603231;0.4299;0.0831;33.4711;6.905;0.873;549.369;0;0;0;1163.27;1168;1;75603231;0.00772097;0.324771;-0.773819;-0.313303;-0.00803741;0.938889;-0.000905395;-0.161668;-0.0296637;75599999;47.59972295;-122.83505077;122.57574599;0.00000000;0.00000000;4.38562155;3.00000000;
75603416;81.2;25.8;25.2;0;25.7;29.2;0;0;0;0;0;0.001;0.4299;0.0831;33.4711;6.905;123427;123929;235.8;0;1;-0.005;0.074;75603416;0.4299;0.0831;33.4711;6.905;0.873;549.416;0;0;0;1163.27;1168;1;75603318;0.00776347;0.324754;-0.773916;-0.318702;-0.00668897;0.939046;-0.0645196;-0.0208989;0.0447494;75599999;47.59972295;-122.83505077;122.57574599;0.00000000;0.00000000;4.38562155;3.00000000;
75603540;81.2;25.8;25.4;0;25.8;29.2;0;0;0;0;0;0.001;0.4299;0.0831;33.4711;6.905;123427;123929;235.8;0;1;-0.006;0.073;75603540;0.4299;0.0831;33.4711;6.905;0.873;549.455;0;0;0;1163.27;1168;1;75603455;0.00830054;0.324635;-0.773884;-0.313158;-0.0110055;0.939128;-0.210102;0.118505;-0.0141769;75599999;47.59972295;-122.83505077;122.57574599;0.00000000;0.00000000;4.38562155;3.00000000;
75603632;81.2;25.8;25.3;0;25.8;29.2;0;0;0;0;0;0.001;0.4299;0.0831;33.4711;6.905;123427;123929;235.8;0;1;-0.005;0.073;75603632;0.4299;0.0831;33.4711;6.905;0.873;549.478;0;0;0;1163.27;1168;1;75603542;0.00864722;0.324753;-0.773899;-0.317107;-0.00899992;0.939247;-0.419298;0.0486968;0.00489204;75599999;47.59972295;-122.83505077;122.57574599;0.00000000;0.00000000;4.38562155;3.00000000;
75603719;81.2;25.8;25.3;0;25.8;29.2;0;0;0;0;0;0.002;0.4299;0.0831;33.4711;6.905;123427;123929;235.8;0;1;-0.005;0.074;75603632;0.4299;0.0831;33.4711;6.905;0.873;549.478;0;0;0;1163.27;1168;1;75603633;0.00912579;0.325128;-0.773922;-0.318438;-0.0121973;0.9395;-0.419298;0.188689;0.00345923;75599999;47.59972295;-122.83505077;122.57574599;0.00000000;0.00000000;4.38562155;3.00000000;
75603865;81.2;25.8;25.3;0;25.8;29.3;0;0;0;0;0;0.001;0.4299;0.0831;33.4711;6.905;123427;123929;235.8;0;1;-0.005;0.074;75603864;0.4299;0.0831;33.4711;6.905;0.873;549.53;0;0;0;1163.27;1168;1;75603721;0.0093538;0.324989;-0.774005;-0.314352;-0.00793119;0.939282;0.0113302;0.0497485;0.107644;75600999;47.59972295;-122.83505077;122.47028936;0.00000000;0.00000000;4.42885780;3.00000000;
75603945;81.2;25.8;25.3;0;25.8;29.2;0;0;0;0;0;0.001;0.4299;0.0831;33.4711;6.905;123427;123929;235.8;0;1;-0.005;0.074;75603943;0.4299;0.0831;33.4711;6.905;0.873;549.57;0;0;0;1163.27;1168;1;75603865;0.00919333;0.325192;-0.774119;-0.315453;-0.00871898;0.939344;-0.00702322;-0.0223888;-0.100825;75600999;47.59972295;-122.83505077;122.47028936;0.00000000;0.00000000;4.42885780;3.00000000;
75604033;81.2;25.8;25.3;0;25.8;29.2;0;0;0;0;0;0.001;0.4299;0.0831;33.4711;6.905;123427;123929;235.8;0;1;-0.006;0.074;75603943;0.4299;0.0831;33.4711;6.905;0.873;549.57;0;0;0;1163.27;1168;1;75603957;0.00931324;0.325088;-0.774222;-0.3186;-0.00527026;0.939225;0.144677;-0.0210867;0.0263969;75600999;47.59972295;-122.83505077;122.47028936;0.00000000;0.00000000;4.42885780;3.00000000;
75604217;81.2;25.8;25.4;0;25.7;29.3;0;0;0;0;0;0.001;0.4299;0.0831;33.4711;6.905;123427;123929;235.8;0;1;-0.005;0.074;75604170;0.4299;0.0831;33.4711;6.905;0.873;549.616;0;0;0;1163.27;1168;1;75604035;0.00942517;0.324921;-0.774271;-0.313457;-0.0115283;0.939041;-0.0645196;-0.160892;0.0461822;75600999;47.59972295;-122.83505077;122.47028936;0.00000000;0.00000000;4.42885780;3.00000000;
75604307;81.2;25.8;25.3;0;25.8;29.3;0;0;0;0;0;0.001;0.4299;0.0831;33.4711;6.905;123427;123929;235.8;0;1;-0.006;0.073;75604267;0.4299;0.0831;33.4711;6.905;0.873;549.635;0;0;0;1163.27;1168;1;75604218;0.00940344;0.324464;-0.774463;-0.314113;-0.0159395;0.93872;-0.134252;-0.230825;0.0530161;75600999;47.59972295;-122.83505077;122.47028936;0.00000000;0.00000000;4.42885780;3.00000000;
75604398;81.2;25.8;25.3;0;25.7;29.3;0;0;0;0;0;0.001;0.4299;0.0831;33.4711;6.905;123427;123929;235.8;0;1;-0.006;0.073;75604350;0.4299;0.0831;33.4711;6.905;0.873;549.66;0;0;0;1163.27;1168;1;75604307;0.00938035;0.324393;-0.774567;-0.318685;-0.0116239;0.938834;0.220527;0.0495606;0.0892915;75600999;47.59972295;-122.83505077;122.47028936;0.00000000;0.00000000;4.42885780;3.00000000;
75604487;81.2;25.8;25.3;0;25.8;29.3;0;0;0;0;0;0.001;0.4299;0.0831;33.4711;6.905;123427;123929;235.8;0;1;-0.005;0.074;75604442;0.4299;0.0831;33.4711;6.905;0.873;549.682;0;0;0;1163.27;1168;1;75604441;0.0093763;0.323962;-0.774711;-0.315128;-0.0144797;0.938805;0.144677;0.118906;0.0249641;75600999;47.59972295;-122.83505077;122.47028936;0.00000000;0.00000000;4.42885780;3.00000000;
75604582;81.2;25.8;25.3;0;25.8;29.3;0;0;0;0;0;0.001;0.4299;0.0831;33.4711;6.905;123427;123929;235.8;0;1;-0.005;0.074;75604531;0.4299;0.0831;33.4711;6.905;0.873;549.691;0;0;0;1163.27;1168;1;75604582;0.00903224;0.323627;-0.774955;-0.318147;-0.00808821;0.938842;0.359991;0.0494354;0.0770565;75600999;47.59972295;-122.83505077;122.47028936;0.00000000;0.00000000;4.42885780;3.00000000;
75604665;81.2;25.8;25.4;0;25.8;29.3;0;0;0;0;0;0.001;0.4299;0.0831;33.4711;6.905;123427;123929;235.8;0;1;-0.006;0.074;75604623;0.4299;0.0831;33.4711;6.905;0.873;549.703;0;0;0;1163.27;1168;1;75604582;0.00903224;0.323627;-0.774955;-0.318147;-0.00808821;0.938842;0.359991;0.0494354;0.0770565;75600999;47.59972295;-122.83505077;122.47028936;0.00000000;0.00000000;4.42885780;3.00000000;
75604756;81.2;25.8;25.3;0;25.8;29.3;0;0;0;0;0;0.001;0.4299;0.0831;33.4711;6.905;123427;123929;235.8;0;1;-0.006;0.074;75604712;0.4299;0.0831;33.4711;6.905;0.873;549.716;0;0;0;1163.27;1168;1;75604712;0.00840622;0.323278;-0.775243;-0.311785;-0.00857688;0.938895;0.0749446;-0.231013;0.0346636;75600999;47.59972295;-122.83505077;122.47028936;0.00000000;0.00000000;4.42885780;3.00000000;
75604847;81.2;25.8;25.3;0;25.8;29.3;0;0;0;0;0;0.001;0.4299;0.0831;33.4711;6.905;123427;123929;235.8;0;1;-0.006;0.074;75604806;0.4299;0.0831;33.4711;6.905;0.873;549.736;0;0;0;1163.27;1168;1;75604807;0.0082501;0.323046;-0.775335;-0.31031;-0.00472956;0.939044;0.150795;-0.0903694;0.0968418;75604764;47.59956620;-122.83514790;123.30000305;0.00000000;0.00000000;37.73600006;1.67282665;
75604985;81.2;25.7;25.3;0;25.8;29.3;0;0;0;0;0;0.001;0.4299;0.0831;33.4711;6.905;123427;123929;235.8;0;1;-0.005;0.074;75604894;0.4299;0.0831;33.4711;6.905;0.874;549.746;0;0;0;1163.27;1168;1;75604894;0.00820476;0.322808;-0.775405;-0.313175;-0.00558261;0.939173;0.0749446;-0.161017;0.0339472;75604764;47.59956620;-122.83514790;123.30000305;0.00000000;0.00000000;37.73600006;1.67282665;
75605074;81.2;25.8;25.4;0;25.9;29.3;0;0;0;0;0;0.001;0.4299;0.0831;33.4711;6.905;123427;123929;235.8;0;1;-0.006;0.074;75604986;0.4299;0.0831;33.4711;6.905;0.874;549.75;0;0;0;1163.27;1168;1;75605026;0.00784145;0.322663;-0.775649;-0.313542;-0.0134901;0.939517;0.0749446;-0.231013;0.0346636;75604764;47.59956620;-122.83514790;123.30000305;0.00000000;0.00000000;37.73600006;1.67282665;
75605162;81.2;25.8;25.4;0;25.8;29.3;0;0;0;0;0;0.001;0.4299;0.0831;33.4711;6.905;123427;123929;235.8;0;1;-0.006;0.073;75605159;0.4299;0.0831;33.4711;6.905;0.874;549.758;0;0;0;1163.27;1168;1;75605117;0.00769046;0.322532;-0.775791;-0.316288;-0.0105398;0.939689;0.0810624;0.119682;0.10081;75604764;47.59956620;-122.83514790;123.30000305;0.00000000;0.00000000;37.73600006;1.67282665;
75605249;81.2;25.8;25.3;0;25.8;29.3;0;0;0;0;0;0.001;0.4299;0.0831;33.4711;6.905;123427;123929;235.8;0;1;-0.005;0.073;75605159;0.4299;0.0831;33.4711;6.905;0.874;549.758;0;0;0;1163.27;1168;1;75605209;0.0073483;0.322484;-0.775933;-0.311742;-0.00125229;0.939898;0.226645;-0.159715;0.161169;75604764;47.59956620;-122.83514790;123.30000305;0.00000000;0.00000000;37.73600006;1.67282665;
75605343;81.2;25.7;25.3;0;25.8;29.3;0;0;0;0;0;0.001;0.4299;0.0831;33.4711;6.905;123427;123929;235.8;0;1;-0.005;0.073;75605250;0.4299;0.0831;33.4711;6.905;0.874;549.759;0;0;0;1163.27;1168;1;75605299;0.00727096;0.322475;-0.776029;-0.30967;-0.00709481;0.940081;0.0932981;-0.158876;0.243133;75604764;47.59956620;-122.83514790;123.30000305;0.00000000;0.00000000;37.73600006;1.67282665;
75605430;81.2;25.7;25.4;0;25.8;29.3;0;0;0;0;0;0.001;0.4299;0.0831;33.4711;6.905;123427;123929;235.8;0;1;-0.005;0.074;75605343;0.4299;0.0831;33.4711;6.905;0.874;549.764;0;0;0;1163.27;1168;1;75605384;0.00717233;0.322392;-0.776134;-0.315;-0.00714517;0.940092;0.156912;-0.0896558;0.16657;75604764;47.59956620;-122.83514790;123.30000305;0.00000000;0.00000000;37.73600006;1.67282665;
75605527;81.2;25.8;25.3;0;25.7;29.3;0;0;0;0;0;0.001;0.4299;0.0831;33.4711;6.905;123427;123929;235.8;0;1;-0.006;0.073;75605526;0.4299;0.0831;33.4711;6.905;0.874;549.795;0;0;0;1163.27;1168;1;75605476;0.0070295;0.322369;-0.776249;-0.314958;-0.0032364;0.94016;0.0810624;-0.0203105;0.102243;75604764;47.59956620;-122.83514790;123.30000305;0.00000000;0.00000000;37.73600006;1.67282665;
75605610;81.2;25.8;25.3;0;25.8;29.3;0;0;0;0;0;0.001;0.4299;0.0831;33.4711;6.905;123427;123929;235.8;0;1;-0.006;0.074;75605610;0.4299;0.0831;33.4711;6.905;0.874;549.818;0;0;0;1163.27;1168;1;75605566;0.00690002;0.322388;-0.776404;-0.315683;-0.002833;0.94018;0.0113302;0.0497485;0.107644;75604764;47.59956620;-122.83514790;123.30000305;0.00000000;0.00000000;37.73600006;1.67282665;
75605700;81.2;25.7;25.3;0;25.8;29.3;0;0;0;0;0;0.001;0.4299;0.0831;33.4711;6.905;123427;123929;235.8;0;1;-0.006;0.074;75605700;0.4299;0.0831;33.4711;6.905;0.874;549.834;0;0;0;1163.27;1168;1;75605657;0.00687785;0.322326;-0.776507;-0.317448;-0.0109916;0.940119;-0.0706375;0.0483838;-0.0256955;75604764;47.59956620;-122.83514790;123.30000305;0.00000000;0.00000000;37.73600006;1.67282665;
75605798;81.2;25.7;25.3;0;25.7;29.3;0;0;0;0;0;0.001;0.4299;0.0831;33.4711;6.905;123427;123929;235.8;0;1;-0.005;0.074;75605798;0.4299;0.0831;33.4711;6.905;0.874;549.849;0;0;0;1163.27;1168;1;75605749;0.00693626;0.322384;-0.776598;-0.316612;-0.0106347;0.940171;0.0749446;-0.0210241;0.0325144;75602999;47.59972295;-122.83505077;122.10055474;0.00000000;0.00000000;7.49538994;3.00000000;
75605880;81.2;25.7;25.3;0;25.8;29.3;0;0;0;0;0;0.001;0.4299;0.0831;33.4711;6.905;123427;123929;235.8;0;1;-0.006;0.074;75605798;0.4299;0.0831;33.4711;6.905;0.874;549.849;0;0;0;1163.27;1168;1;75605837;0.00682063;0.322406;-0.776738;-0.315785;-0.00864348;0.940155;0.0810624;0.119682;0.10081;75602999;47.59972295;-122.83505077;122.10055474;0.00000000;0.00000000;7.49538994;3.00000000;
75605976;81.2;25.7;25.3;0;25.7;29.3;0;0;0;0;0;0.001;0.4299;0.0831;33.4711;6.905;123427;123929;235.8;0;1;-0.005;0.075;75605974;0.4299;0.0831;33.4711;6.905;0.874;549.883;0;0;0;1163.27;1168;1;75605934;0.00671484;0.322539;-0.776838;-0.315086;-0.00959499;0.940167;0.156912;0.120333;0.164421;75602999;47.59972295;-122.83505077;122.10055474;0.00000000;0.00000000;7.49538994;3.00000000;
75606107;81.2;25.7;25.4;0;25.8;29.3;0;0;0;0;0;0.001;0.4299;0.0831;33.4711;6.905;123427;123929;235.8;0;1;-0.006;0.074;75606059;0.4299;0.0831;33.4711;6.905;0.874;549.897;0;0;0;1163.27;1168;1;75606019;0.00656233;0.322528;-0.77697;-0.31483;-0.0027335;0.939999;0.16303;-0.158938;0.237015;75602999;47.59972295;-122.83505077;122.10055474;0.00000000;0.00000000;7.49538994;3.00000000;
75606194;81.2;25.7;25.4;0;25.7;29.3;0;0;0;0;0;0.001;0.4299;0.0831;33.4711;6.905;123427;123929;235.8;0;1;-0.006;0.074;75606150;0.4299;0.0831;33.4711;6.905;0.874;549.92;0;0;0;1163.27;1168;1;75606107;0.00643499;0.322529;-0.777108;-0.3157;-0.00472974;0.93993;0.0113302;-0.0902442;0.109077;75602999;47.59972295;-122.83505077;122.10055474;0.00000000;0.00000000;7.49538994;3.00000000;
75606292;81.2;25.7;25.3;0;25.7;29.3;0;0;0;0;0;0.001;0.4299;0.0831;33.4711;6.905;123427;123929;235.8;0;1;-0.005;0.074;75606242;0.4299;0.0831;33.4711;6.905;0.874;549.926;0;0;0;1163.27;1168;1;75606200;0.00650373;0.322376;-0.777174;-0.314113;-0.00666802;0.939874;-0.0584018;0.0498111;0.113762;75602999;47.59972295;-122.83505077;122.10055474;0.00000000;0.00000000;7.49538994;3.00000000;
75606373;81.2;25.7;25.3;0;25.7;29.3;0;0;0;0;0;0.001;0.4299;0.0831;33.4711;6.905;123427;123929;235.8;0;1;-0.006;0.074;75606330;0.4299;0.0831;33.4711;6.905;0.874;549.934;0;0;0;1163.27;1168;1;75606293;0.00662112;0.322546;-0.777236;-0.315401;-0.0100626;0.940012;0.00521243;0.0490348;0.0379155;75602999;47.59972295;-122.83505077;122.10055474;0.00000000;0.00000000;7.49538994;3.00000000;
75606467;81.2;25.7;25.3;0;25.7;29.3;0;0;0;0;0;0.001;0.4299;0.0831;33.4711;6.905;123427;123929;235.8;0;1;-0.006;0.074;75606424;0.4299;0.0831;33.4711;6.905;0.874;549.936;0;0;0;1163.27;1168;1;75606424;0.00665956;0.322659;-0.777336;-0.316971;-0.0159871;0.94008;0.0174481;0.190455;0.17594;75602999;47.59972295;-122.83505077;122.10055474;0.00000000;0.00000000;7.49538994;3.00000000;
75606557;81.2;25.7;25.3;0;25.7;29.3;0;0;0;0;0;0.001;0.4299;0.0831;33.4711;6.905;123427;123929;235.8;0;1;-0.005;0.073;75606509;0.4299;0.0831;33.4711;6.905;0.874;549.948;0;0;0;1163.27;1168;1;75606510;0.00662167;0.322769;-0.77746;-0.31361;-0.00623565;0.940009;0.150795;-0.0903694;0.0968418;75602999;47.59972295;-122.83505077;122.10055474;0.00000000;0.00000000;7.49538994;3.00000000;
75606650;81.2;25.7;25.3;0;25.7;29.3;0;0;0;0;0;0.001;0.4299;0.0831;33.4711;6.905;123427;123929;235.8;0;1;-0.006;0.074;75606600;0.4299;0.0831;33.4711;6.905;0.874;549.951;0;0;0;1163.27;1168;1;75606601;0.00655194;0.322738;-0.777555;-0.317303;-0.00127237;0.939872;0.00521243;-0.0209615;0.0386319;75602999;47.59972295;-122.83505077;122.10055474;0.00000000;0.00000000;7.49538994;3.00000000;
75606740;81.2;25.7;25.2;0;25.7;29.3;0;0;0;0;0;0.001;0.4299;0.0831;33.4711;6.905;123427;123929;235.8;0;1;-0.006;0.073;75606688;0.4299;0.0831;33.4711;6.905;0.874;549.953;0;0;0;1163.27;1168;1;75606690;0.00633921;0.322688;-0.777738;-0.310045;-0.00360846;0.939825;-0.134252;-0.0208363;0.0508669;75602999;47.59972295;-122.83505077;122.10055474;0.00000000;0.00000000;7.49538994;3.00000000;
75606874;81.2;25.7;25.3;0;25.7;29.3;0;0;0;0;0;0.001;0.4299;0.0831;33.4711;6.905;123427;123929;235.8;0;1;-0.005;0.073;75606833;0.4299;0.0831;33.4711;6.905;0.874;549.954;0;0;0;1163.27;1168;1;75606833;0.00623769;0.322849;-0.777849;-0.30851;-0.00469107;0.939941;0.284141;-0.0912083;0.0148783;75603999;47.59972295;-122.83505077;121.93664793;0.00000000;0.00000000;4.88066864;3.00000000;
75606963;81.2;25.7;25.4;0;25.7;29.3;0;0;0;0;0;0.001;0.4299;0.0831;33.4711;6.905;123427;123929;235.8;0;1;-0.006;0.075;75606962;0.4299;0.0831;33.4711;6.905;0.874;549.957;0;0;0;1163.27;1168;1;75606962;0.00628139;0.323038;-0.778049;-0.313201;-0.0066187;0.940005;0.0113302;-0.300233;0.111226;75603999;47.59972295;-122.83505077;121.93664793;0.00000000;0.00000000;4.88066864;3.00000000;
75607054;81.2;25.7;25.3;0;25.7;29.3;0;0;0;0;0;0.001;0.4299;0.0831;33.4711;6.905;123427;123929;235.8;0;1;-0.005;0.074;75606962;0.4299;0.0831;33.4711;6.905;0.874;549.957;0;0;0;1163.27;1168;1;75606962;0.00628139;0.323038;-0.778049;-0.313201;-0.0066187;0.940005;0.0113302;-0.300233;0.111226;75603999;47.59972295;-122.83505077;121.93664793;0.00000000;0.00000000;4.88066864;3.00000000;
75607151;81.2;25.7;25.3;0;25.7;29.3;0;0;0;0;0;0.001;0.4299;0.0831;33.4711;6.905;123427;123929;235.8;0;1;-0.005;0.074;75607138;0.4299;0.0831;33.4711;6.905;0.874;549.967;0;0;0;1163.27;1168;1;75607055;0.00596466;0.32287;-0.778223;-0.310412;-0.00322042;0.939816;0.441959;-0.0191962;0.211112;75603999;47.59972295;-122.83505077;121.93664793;0.00000000;0.00000000;4.88066864;3.00000000;
75607231;81.2;25.7;25.3;0;25.7;29.3;0;0;0;0;0;0.001;0.4299;0.0831;33.4711;6.905;123427;123929;235.8;0;1;-0.005;0.074;75607138;0.4299;0.0831;33.4711;6.905;0.874;549.967;0;0;0;1163.27;1168;1;75607151;0.00497476;0.322529;-0.778552;-0.314403;-0.00121982;0.939543;0.359991;-0.0905573;0.0784893;75603999;47.59972295;-122.83505077;121.93664793;0.00000000;0.00000000;4.88066864;3.00000000;
75607369;81.2;25.7;25.3;0;25.7;29.3;0;0;0;0;0;0.001;0.4299;0.0831;33.4711;6.905;123427;123929;235.8;0;1;-0.006;0.073;75607319;0.4299;0.0831;33.4711;6.905;0.874;549.976;0;0;0;1163.27;1168;1;75607232;0.00484891;0.322468;-0.778618;-0.313218;0.000268104;0.939661;-0.646848;0.326729;-0.188807;75603999;47.59972295;-122.83505077;121.93664793;0.00000000;0.00000000;4.88066864;3.00000000;
75607509;81.2;25.7;25.3;0;25.7;29.3;0;0;0;0;0;0.001;0.4299;0.0831;33.4711;6.905;123427;123929;235.8;0;1;-0.005;0.074;75607417;0.4299;0.0831;33.4711;6.905;0.874;549.991;0;0;0;1163.27;1168;1;75607370;0.00594418;0.322946;-0.77841;-0.31552;-0.00313061;0.940025;-0.501266;0.397314;-0.132029;75603999;47.59972295;-122.83505077;121.93664793;0.00000000;0.00000000;4.88066864;3.00000000;
75607635;81.2;25.7;25.3;0;25.7;29.3;0;0;0;0;0;0.001;0.4299;0.0831;33.4711;6.905;123427;123929;235.8;0;1;-0.005;0.074;75607634;0.4299;0.0831;33.4711;6.905;0.874;550.018;0;0;0;1163.27;1168;1;75607510;0.00639922;0.323285;-0.778408;-0.31639;-0.0139104;0.939991;0.0113302;0.0497485;0.107644;75603999;47.59972295;-122.83505077;121.93664793;0.00000000;0.00000000;4.88066864;3.00000000;
75607779;81.3;25.7;25.2;0;25.7;29.3;0;0;0;0;0;0.001;0.4299;0.0831;33.4711;6.905;123427;123929;235.8;0;1;-0.005;0.074;75607779;0.4299;0.0831;33.4711;6.905;0.874;550.035;0;0;0;1163.27;1168;1;75607637;0.00627902;0.32342;-0.778629;-0.315145;-0.0149125;0.939865;0.144677;-0.0210867;0.0263969;75603999;47.59972295;-122.83505077;121.93664793;0.00000000;0.00000000;4.88066864;3.00000000;
75607890;81.3;25.7;25.3;0;25.7;29.3;0;0;0;0;0;0.001;0.4299;0.0831;33.4711;6.905;123427;123929;235.8;0;1;-0.005;0.074;75607779;0.4299;0.0831;33.4711;6.905;0.874;550.035;0;0;0;1163.27;1168;1;75607780;0.00564118;0.323332;-0.77894;-0.309499;0.00122066;0.939789;0.0871803;-0.159589;0.173404;75604999;47.59972295;-122.83505077;121.73610916;0.00000000;0.00000000;4.76763201;3.00000000;
75607997;81.2;25.7;25.3;0;25.7;29.3;0;0;0;0;0;0.001;0.4299;0.0831;33.4711;6.905;123427;123929;235.8;0;1;-0.005;0.074;75607891;0.4299;0.0831;33.4711;6.905;0.874;550.048;0;0;0;1163.27;1168;1;75607891;0.00554071;0.323345;-0.779059;-0.315427;-0.00719492;0.939813;-0.21622;0.117792;-0.0839054;75604999;47.59972295;-122.83505077;121.73610916;0.00000000;0.00000000;4.76763201;3.00000000;
75608085;81.3;25.7;25.3;0;25.8;29.3;0;0;0;0;0;0.001;0.4299;0.0831;33.4711;6.905;123427;123929;235.8;0;1;-0.006;0.074;75607997;0.4299;0.0831;33.4711;6.905;0.874;550.058;0;0;0;1163.27;1168;1;75607997;0.00601674;0.323734;-0.77905;-0.310761;-0.00748153;0.940026;-0.425416;0.327968;-0.0677021;75604999;47.59972295;-122.83505077;121.73610916;0.00000000;0.00000000;4.76763201;3.00000000;
75608179;81.2;25.7;25.3;0;25.7;29.3;0;0;0;0;0;0.001;0.4299;0.0831;33.4711;6.905;123427;123929;235.8;0;1;-0.006;0.074;75608179;0.4299;0.0831;33.4711;6.905;0.874;550.083;0;0;0;1163.27;1168;1;75608135;0.0064376;0.324103;-0.779064;-0.316544;-0.00910571;0.940015;-0.128134;0.329859;0.117013;75604999;47.59972295;-122.83505077;121.73610916;0.00000000;0.00000000;4.76763201;3.00000000;
75608279;81.3;25.7;25.3;0;25.7;29.3;0;0;0;0;0;0.001;0.4299;0.0831;33.4711;6.905;123427;123929;235.8;0;1;-0.005;0.073;75608278;0.4299;0.0831;33.4711;6.905;0.874;550.089;0;0;0;1163.27;1168;1;75608219;0.00653426;0.324345;-0.779132;-0.316058;-0.00569032;0.939854;0.366109;-0.299833;0.150367;75604999;47.59972295;-122.83505077;121.73610916;0.00000000;0.00000000;4.76763201;3.00000000;
75608459;81.3;25.7;25.3;0;25.7;29.3;0;0;0;0;0;0.001;0.4299;0.0831;33.4711;6.905;123427;123929;235.8;0;1;-0.006;0.073;75608458;0.4299;0.0831;33.4711;6.905;0.874;550.093;0;0;0;1163.27;1168;1;75608312;0.00635502;0.324418;-0.779273;-0.316544;0.000165807;0.939628;0.156912;0.260326;0.162988;75604999;47.59972295;-122.83505077;121.73610916;0.00000000;0.00000000;4.76763201;3.00000000;
75608541;81.3;25.7;25.3;0;25.7;29.3;0;0;0;0;0;0.001;0.4299;0.0831;33.4711;6.905;123427;123929;235.8;0;1;-0.005;0.074;75608541;0.4299;0.0831;33.4711;6.905;0.874;550.126;0;0;0;1163.27;1168;1;75608460;0.00616838;0.324475;-0.779433;-0.315359;-0.00468993;0.93935;0.0810624;-0.0203105;0.102243;75604999;47.59972295;-122.83505077;121.73610916;0.00000000;0.00000000;4.76763201;3.00000000;
75608673;81.3;25.7;25.4;0;25.7;29.3;0;0;0;0;0;0.001;0.4299;0.0831;33.4711;6.905;123427;123929;235.8;0;1;-0.005;0.074;75608673;0.4299;0.0831;33.4711;6.905;0.874;550.14;0;0;0;1163.27;1168;1;75608542;0.0058067;0.324753;-0.779632;-0.316587;-0.00667081;0.93923;0.0810624;0.0496858;0.101527;75604999;47.59972295;-122.83505077;121.73610916;0.00000000;0.00000000;4.76763201;3.00000000;
75608770;81.3;25.7;25.3;0;25.7;29.3;0;0;0;0;0;0.001;0.4299;0.0831;33.4711;6.905;123427;123929;235.8;0;1;-0.005;0.074;75608770;0.4299;0.0831;33.4711;6.905;0.874;550.149;0;0;0;1163.27;1168;1;75608674;0.00581018;0.325089;-0.779741;-0.311512;-0.00909017;0.93932;-0.0645196;0.399079;0.040451;75604999;47.59972295;-122.83505077;121.73610916;0.00000000;0.00000000;4.76763201;3.00000000;
75608849;81.2;25.7;25.3;0;25.8;29.3;0;0;0;0;0;0.001;0.4299;0.0831;33.4711;6.905;123427;123929;235.8;0;1;-0.005;0.073;75608770;0.4299;0.0831;33.4711;6.905;0.874;550.149;0;0;0;1163.27;1168;1;75608771;0.00647778;0.32515;-0.779709;-0.316552;-0.00307955;0.939034;-0.431534;0.0472695;-0.134565;75605999;47.59972295;-122.83505077;121.80218548;0.00000000;0.00000000;4.44980288;3.00000000;
75608942;81.2;25.7;25.3;0;25.7;29.3;0;0;0;0;0;0.001;0.4299;0.0831;33.4711;6.905;123427;123929;235.8;0;1;-0.006;0.073;75608942;0.4299;0.0831;33.4711;6.905;0.874;550.151;0;0;0;1163.27;1168;1;75608862;0.00695276;0.325159;-0.779649;-0.317474;-0.00275619;0.938883;-0.128134;-0.300108;0.123461;75605999;47.59972295;-122.83505077;121.80218548;0.00000000;0.00000000;4.44980288;3.00000000;
75609036;81.3;25.7;25.3;0;25.7;29.3;0;0;0;0;0;0.001;0.4299;0.0831;33.4711;6.905;123427;123929;235.8;0;1;-0.005;0.074;75608942;0.4299;0.0831;33.4711;6.905;0.874;550.151;0;0;0;1163.27;1168;1;75608943;0.00719175;0.324763;-0.779698;-0.316774;-0.00468365;0.938546;-0.0584018;-0.0201853;0.114478;75605999;47.59972295;-122.83505077;121.80218548;0.00000000;0.00000000;4.44980288;3.00000000;
75609172;81.3;25.7;25.2;0;25.6;29.3;0;0;0;0;0;0.001;0.4299;0.0831;33.4711;6.905;123427;123929;235.8;0;1;-0.005;0.074;75609079;0.4299;0.0831;33.4711;6.905;0.874;550.167;0;0;0;1163.27;1168;1;75609080;0.00716694;0.324407;-0.77984;-0.315256;-0.0164465;0.938498;0.366109;-0.15984;0.148934;75605999;47.59972295;-122.83505077;121.80218548;0.00000000;0.00000000;4.44980288;3.00000000;
75609262;81.3;25.7;25.3;0;25.6;29.3;0;0;0;0;0;0.001;0.4299;0.0831;33.4711;6.905;123427;123929;235.8;0;1;-0.006;0.074;75609262;0.4299;0.0831;33.4711;6.905;0.874;550.173;0;0;0;1163.27;1168;1;75609173;0.00661806;0.324021;-0.780157;-0.318574;-0.00541232;0.938536;0.0810624;0.329671;0.0986609;75605999;47.59972295;-122.83505077;121.80218548;0.00000000;0.00000000;4.44980288;3.00000000;
75609354;81.3;25.7;25.3;0;25.7;29.3;0;0;0;0;0;0.001;0.4299;0.0831;33.4711;6.905;123427;123929;235.8;0;1;-0.005;0.074;75609262;0.4299;0.0831;33.4711;6.905;0.874;550.173;0;0;0;1163.27;1168;1;75609263;0.00658111;0.324607;-0.780241;-0.312169;0.000161879;0.939303;0.00521243;-0.160954;0.0400647;75605999;47.59972295;-122.83505077;121.80218548;0.00000000;0.00000000;4.44980288;3.00000000;
75609441;81.3;25.7;25.3;0;25.7;29.3;0;0;0;0;0;0.001;0.4299;0.0831;33.4711;6.905;123427;123929;235.8;0;1;-0.006;0.073;75609440;0.4299;0.0831;33.4711;6.905;0.874;550.175;0;0;0;1163.27;1168;1;75609355;0.00676521;0.324379;-0.780264;-0.319248;-0.0144459;0.939178;0.0871803;0.0503995;0.171255;75605999;47.59972295;-122.83505077;121.80218548;0.00000000;0.00000000;4.44980288;3.00000000;
75609536;81.3;25.7;25.3;0;25.6;29.3;0;0;0;0;0;0.001;0.4299;0.0831;33.4711;6.905;123427;123929;235.8;0;1;-0.005;0.073;75609536;0.4299;0.0831;33.4711;6.905;0.874;550.178;0;0;0;1163.27;1168;1;75609441;0.00652705;0.324674;-0.780483;-0.319913;-0.00482121;0.9395;0.366109;0.120145;0.146069;75605999;47.59972295;-122.83505077;121.80218548;0.00000000;0.00000000;4.44980288;3.00000000;
75609669;81.3;25.7;25.2;0;25.6;29.3;0;0;0;0;0;0.001;0.4299;0.0831;33.4711;6.905;123427;123929;235.8;0;1;-0.006;0.074;75609667;0.4299;0.0831;33.4711;6.905;0.874;550.185;0;0;0;1163.27;1168;1;75609537;0.00661388;0.324842;-0.780685;-0.314864;0.000792651;0.939557;-0.343448;0.119344;0.0677866;75605999;47.59972295;-122.83505077;121.80218548;0.00000000;0.00000000;4.44980288;3.00000000;
75609797;81.3;25.7;25.3;0;25.7;29.3;0;0;0;0;0;0.001;0.4299;0.0831;33.4711;6.905;123427;123929;235.8;0;1;-0.005;0.074;75609667;0.4299;0.0831;33.4711;6.905;0.874;550.185;0;0;0;1163.27;1168;1;75609670;0.00838721;0.324628;-0.780693;-0.316911;-0.00989583;0.939027;-0.552645;-1.35039;0.101184;75606999;47.59972295;-122.83505077;121.79305894;0.00000000;0.00000000;4.47733974;3.00000000;
75609887;81.3;25.7;25.3;0;25.6;29.3;0;0;0;0;0;0.001;0.4299;0.0831;33.4711;6.905;123427;123929;235.8;0;1;-0.006;0.072;75609798;0.4299;0.0831;33.4711;6.905;0.874;550.201;0;0;0;1163.27;1168;1;75609799;0.00870305;0.324949;-0.780675;-0.315009;-0.0109621;0.939581;-0.0767553;0.81763;-0.103304;75606999;47.59972295;-122.83505077;121.79305894;0.00000000;0.00000000;4.47733974;3.00000000;
75609977;81.3;25.7;25.3;0;25.7;29.3;0;0;0;0;0;0.001;0.4299;0.0831;33.4711;6.905;123427;123929;235.8;0;1;-0.006;0.074;75609977;0.4299;0.0831;33.4711;6.905;0.874;550.231;0;0;0;1163.27;1168;1;75609888;0.00846603;0.321813;-0.780634;-0.309491;-0.0147672;0.937994;0.372227;0.190855;0.215081;75606999;47.59972295;-122.83505077;121.79305894;0.00000000;0.00000000;4.47733974;3.00000000;
75610071;81.3;25.7;25.2;0;25.8;29.3;0;0;0;0;0;0.001;0.4299;0.0831;33.4711;6.905;123427;123929;235.8;0;1;-0.006;0.074;75609977;0.4299;0.0831;33.4711;6.905;0.874;550.231;0;0;0;1163.27;1168;1;75609978;0.00805038;0.323067;-0.780775;-0.318651;-0.00295066;0.939845;0.302494;0.750889;0.215467;75606999;47.59972295;-122.83505077;121.79305894;0.00000000;0.00000000;4.47733974;3.00000000;
75610164;81.3;25.7;25.3;0;25.7;29.3;0;0;0;0;0;0.001;0.4299;0.0831;33.4711;6.905;123427;123929;235.8;0;1;-0.005;0.073;75610164;0.4299;0.0831;33.4711;6.905;0.874;550.252;0;0;0;1163.27;1168;1;75610072;0.00784639;0.323652;-0.780874;-0.314617;-0.0114922;0.9405;0.0810624;0.53966;0.0965117;75606999;47.59972295;-122.83505077;121.79305894;0.00000000;0.00000000;4.47733974;3.00000000;
75610300;81.3;25.7;25.3;0;25.7;29.3;0;0;0;0;0;0.001;0.4299;0.0831;33.4711;6.905;123427;123929;235.8;0;1;-0.005;0.074;75610299;0.4299;0.0831;33.4711;6.905;0.874;550.265;0;0;0;1163.27;1168;1;75610245;0.0077582;0.324053;-0.780982;-0.324605;-0.0224476;0.94065;0.144677;-0.791046;0.0342773;75606999;47.59972295;-122.83505077;121.79305894;0.00000000;0.00000000;4.47733974;3.00000000;
75610387;81.3;25.7;25.3;0;25.7;29.3;0;0;0;0;0;0.001;0.4299;0.0831;33.4711;6.905;123427;123929;235.8;0;1;-0.006;0.074;75610387;0.4299;0.0831;33.4711;6.905;0.874;550.28;0;0;0;1163.27;1168;1;75610350;0.00637613;0.323544;-0.781347;-0.319478;-0.0095359;0.940247;0.441959;0.120797;0.20968;75606999;47.59972295;-122.83505077;121.79305894;0.00000000;0.00000000;4.47733974;3.00000000;
75610473;81.3;25.7;25.3;0;25.6;29.3;0;0;0;0;0;0.001;0.4299;0.0831;33.4711;6.905;123427;123929;235.8;0;1;-0.005;0.072;75610387;0.4299;0.0831;33.4711;6.905;0.874;550.28;0;0;0;1163.27;1168;1;75610433;0.00669046;0.323649;-0.781423;-0.318694;-0.00519331;0.940008;-1.72342;-0.0958782;-0.441388;75606999;47.59972295;-122.83505077;121.79305894;0.00000000;0.00000000;4.47733974;3.00000000;
75610621;81.3;25.7;25.3;0;25.6;29.3;0;0;0;0;0;0.001;0.4299;0.0831;33.4711;6.905;123427;123929;235.8;0;1;-0.005;0.074;75610570;0.4299;0.0831;33.4711;6.905;0.874;550.301;0;0;0;1163.27;1168;1;75610516;0.00807614;0.323841;-0.781188;-0.317986;-0.0140393;0.940188;0.378344;2.36146;0.262601;75606999;47.59972295;-122.83505077;121.79305894;0.00000000;0.00000000;4.47733974;3.00000000;
75610741;81.3;25.7;25.3;0;25.7;29.3;0;0;0;0;0;0.001;0.4299;0.0831;33.4711;6.905;123427;123929;235.8;0;1;-0.006;0.074;75610700;0.4299;0.0831;33.4711;6.905;0.874;550.304;0;0;0;1163.27;1168;1;75610622;0.00797087;0.325016;-0.781266;-0.317866;-0.0138539;0.940602;-0.134252;-0.510811;0.0558817;75606999;47.59972295;-122.83505077;121.79305894;0.00000000;0.00000000;4.47733974;3.00000000;
75610836;81.3;25.7;25.2;0;25.7;29.3;0;0;0;0;0;0.001;0.4299;0.0831;33.4711;6.905;123427;123929;235.8;0;1;-0.005;0.073;75610791;0.4299;0.0831;33.4711;6.905;0.874;550.31;0;0;0;1163.27;1168;1;75610741;0.00752068;0.325975;-0.781493;-0.318156;0.00399585;0.940522;0.0174481;-0.439512;0.182387;75607999;47.59972295;-122.83505077;122.03923065;0.00000000;0.00000000;4.27977562;3.00000000;
75610964;81.3;25.7;25.3;0;25.7;29.3;0;0;0;0;0;0.001;0.4299;0.0831;33.4711;6.905;123427;123929;235.8;0;1;-0.005;0.073;75610927;0.4299;0.0831;33.4711;6.905;0.874;550.318;0;0;0;1163.27;1168;1;75610837;0.00769399;0.325087;-0.781603;-0.318028;-0.00282087;0.939258;-0.279834;-0.791384;0.00125386;75607999;47.59972295;-122.83505077;122.03923065;0.00000000;0.00000000;4.27977562;3.00000000;
75611057;81.3;25.7;25.3;0;25.7;29.3;0;0;0;0;0;0.001;0.4299;0.0831;33.4711;6.905;123427;123929;235.8;0;1;-0.005;0.073;75611021;0.4299;0.0831;33.4711;6.905;0.874;550.321;0;0;0;1163.27;1168;1;75610977;0.00860381;0.324478;-0.781592;-0.31361;-0.00867552;0.938934;-0.203984;0.469201;0.0519696;75607999;47.59972295;-122.83505077;122.03923065;0.00000000;0.00000000;4.27977562;3.00000000;
75611147;81.3;25.7;25.2;0;25.7;29.3;0;0;0;0;0;0.001;0.4299;0.0831;33.4711;6.905;123427;123929;235.8;0;1;-0.006;0.074;75611103;0.4299;0.0831;33.4711;6.905;0.874;550.324;0;0;0;1163.27;1168;1;75611057;0.00945286;0.32493;-0.781485;-0.320518;-0.0100881;0.939304;-0.267598;0.539973;0.127099;75607999;47.59972295;-122.83505077;122.03923065;0.00000000;0.00000000;4.27977562;3.00000000;
75611244;81.3;25.7;25.3;0;25.7;29.3;0;0;0;0;0;0.001;0.4299;0.0831;33.4711;6.905;123427;123929;235.8;0;1;-0.006;0.073;75611195;0.4299;0.0831;33.4711;6.905;0.874;550.325;0;0;0;1163.27;1168;1;75611147;0.0100219;0.325543;-0.781433;-0.311973;-0.00882739;0.93956;-0.71658;0.0468063;-0.179823;75607999;47.59972295;-122.83505077;122.03923065;0.00000000;0.00000000;4.27977562;3.00000000;
75611327;81.3;25.7;25.4;0;25.7;29.3;0;0;0;0;0;0.001;0.4299;0.0831;33.4711;6.905;123427;123929;235.8;0;1;-0.006;0.073;75611286;0.4299;0.0831;33.4711;6.905;0.874;550.325;0;0;0;1163.27;1168;1;75611245;0.0108895;0.322693;-0.781356;-0.311273;-0.0106713;0.937321;-0.158723;-2.68355;-0.200824;75607999;47.59972295;-122.83505077;122.03923065;0.00000000;0.00000000;4.27977562;3.00000000;
75611417;81.3;25.7;25.2;0;25.6;29.3;0;0;0;0;0;0.001;0.4299;0.0831;33.4711;6.905;123427;123929;235.8;0;1;-0.006;0.074;75611370;0.4299;0.0831;33.4711;6.905;0.874;550.328;0;0;0;1163.27;1168;1;75611327;0.0107382;0.321536;-0.781517;-0.314506;0.00146747;0.937625;0.448077;-0.0184825;0.280841;75607999;47.59972295;-122.83505077;122.03923065;0.00000000;0.00000000;4.27977562;3.00000000;
75611512;81.3;25.7;25.3;0;25.6;29.3;0;0;0;0;0;0.001;0.4299;0.0831;33.4711;6.905;123427;123929;235.8;0;1;-0.005;0.075;75611464;0.4299;0.0831;33.4711;6.905;0.874;550.329;0;0;0;1163.27;1168;1;75611417;0.0106462;0.320499;-0.781632;-0.308928;-0.0145872;0.937886;-0.000905395;-0.371657;-0.0275145;75607999;47.59972295;-122.83505077;122.03923065;0.00000000;0.00000000;4.27977562;3.00000000;
75611640;81.3;25.7;25.3;0;25.7;29.3;0;0;0;0;0;0.001;0.4299;0.0831;33.4711;6.905;123427;123929;235.8;0;1;-0.005;0.074;75611550;0.4299;0.0831;33.4711;6.905;0.874;550.334;0;0;0;1163.27;1168;1;75611513;0.0100507;0.320558;-0.781898;-0.315802;-0.0105402;0.939023;0.220527;-0.230425;0.0921571;75607999;47.59972295;-122.83505077;122.03923065;0.00000000;0.00000000;4.27977562;3.00000000;
75611735;81.3;25.7;25.2;0;25.7;29.3;0;0;0;0;0;0.001;0.4299;0.0831;33.4711;6.905;123427;123929;235.8;0;1;-0.006;0.074;75611692;0.4299;0.0831;33.4711;6.905;0.874;550.341;0;0;0;1163.27;1168;1;75611652;0.00936721;0.320776;-0.782153;-0.312177;-0.00698727;0.940011;0.302494;0.680892;0.216183;75607999;47.59972295;-122.83505077;122.03923065;0.00000000;0.00000000;4.27977562;3.00000000;
75611823;81.3;25.7;25.2;0;25.7;29.3;0;0;0;0;0;0.001;0.4299;0.0831;33.4711;6.905;123427;123929;235.8;0;1;-0.006;0.073;75611784;0.4299;0.0831;33.4711;6.905;0.874;550.348;0;0;0;1163.27;1168;1;75611783;0.00890442;0.321562;-0.782389;-0.316672;-0.0149763;0.941236;0.0810624;0.749649;0.0943625;75608999;47.59972295;-122.83505077;122.15625018;0.00000000;0.00000000;4.27996016;3.00000000;
75611911;81.3;25.7;25.3;0;25.6;29.3;0;0;0;0;0;0.001;0.4299;0.0831;33.4711;6.905;123427;123929;235.8;0;1;-0.006;0.075;75611866;0.4299;0.0831;33.4711;6.905;0.874;550.35;0;0;0;1163.27;1168;1;75611867;0.00862165;0.322202;-0.782516;-0.314207;-0.0131369;0.941502;0.290259;-0.0904947;0.0846068;75608999;47.59972295;-122.83505077;122.15625018;0.00000000;0.00000000;4.27996016;3.00000000;
75612045;81.3;25.7;25.2;0;25.7;29.3;0;0;0;0;0;0.001;0.4299;0.0831;33.4711;6.905;123427;123929;235.8;0;1;-0.005;0.073;75611960;0.4299;0.0831;33.4711;6.905;0.874;550.35;0;0;0;1163.27;1168;1;75611961;0.00876637;0.322328;-0.782583;-0.311896;-0.0154786;0.941237;0.169148;-0.0182321;0.305311;75608999;47.59972295;-122.83505077;122.15625018;0.00000000;0.00000000;4.27996016;3.00000000;
75612143;81.3;25.7;25.2;0;25.7;29.3;0;0;0;0;0;0.001;0.4299;0.0831;33.4711;6.905;123427;123929;235.8;0;1;-0.006;0.075;75612046;0.4299;0.0831;33.4711;6.905;0.874;550.352;0;0;0;1163.27;1168;1;75612089;0.00857213;0.323917;-0.782867;-0.313636;-0.0217088;0.94193;-0.197866;1.58986;0.110236;75608999;47.59972295;-122.83505077;122.15625018;0.00000000;0.00000000;4.27996016;3.00000000;
75612231;81.3;25.7;25.2;0;25.7;29.3;0;0;0;0;0;0.001;0.4299;0.0831;33.4711;6.905;123427;123929;235.8;0;1;-0.006;0.073;75612231;0.4299;0.0831;33.4711;6.905;0.874;550.361;0;0;0;1163.27;1168;1;75612189;0.0080354;0.323135;-0.783181;-0.318557;-0.0153105;0.940516;0.347755;-2.12188;-0.040192;75608999;47.59972295;-122.83505077;122.15625018;0.00000000;0.00000000;4.27996016;3.00000000;
75612318;81.3;25.7;25.2;0;25.7;29.3;0;0;0;0;0;0.001;0.4299;0.0831;33.4711;6.905;123427;123929;235.8;0;1;-0.006;0.073;75612231;0.4299;0.0831;33.4711;6.905;0.874;550.361;0;0;0;1163.27;1168;1;75612275;0.00798558;0.321796;-0.783279;-0.312613;-0.0181735;0.939699;0.0235658;0.961128;0.237788;75608999;47.59972295;-122.83505077;122.15625018;0.00000000;0.00000000;4.27996016;3.00000000;
75612408;81.3;25.7;25.2;0;25.7;29.3;0;0;0;0;0;0.001;0.4299;0.0831;33.4711;6.905;123427;123929;235.8;0;1;-0.005;0.074;75612408;0.4299;0.0831;33.4711;6.905;0.874;550.362;0;0;0;1163.27;1168;1;75612367;0.00845749;0.322183;-0.783365;-0.313192;-0.0113831;0.940115;-0.122016;0.96054;0.180294;75608999;47.59972295;-122.83505077;122.15625018;0.00000000;0.00000000;4.27996016;3.00000000;
75612496;81.3;25.7;25.3;0;25.7;29.3;0;0;0;0;0;0.001;0.4299;0.0831;33.4711;6.905;123427;123929;235.8;0;1;-0.006;0.073;75612408;0.4299;0.0831;33.4711;6.905;0.874;550.362;0;0;0;1163.27;1168;1;75612450;0.00891803;0.32231;-0.783519;-0.30352;-0.0187482;0.940054;-0.495148;-0.651918;-0.0515549;75608999;47.59972295;-122.83505077;122.15625018;0.00000000;0.00000000;4.27996016;3.00000000;
75612594;81.3;25.7;25.3;0;25.6;29.3;0;0;0;0;0;0.001;0.4299;0.0831;33.4711;6.905;123427;123929;235.8;0;1;-0.006;0.074;75612593;0.4299;0.0831;33.4711;6.905;0.874;550.37;0;0;0;1163.27;1168;1;75612541;0.00909023;0.3252;-0.783408;-0.321543;-0.0102911;0.942166;0.930084;1.94026;0.148231;75608999;47.59972295;-122.83505077;122.15625018;0.00000000;0.00000000;4.27996016;3.00000000;
75612683;81.3;25.7;25.2;0;25.6;29.3;0;0;0;0;0;0.001;0.4299;0.0831;33.4711;6.905;123427;123929;235.8;0;1;-0.006;0.074;75612682;0.4299;0.0831;33.4711;6.905;0.874;550.371;0;0;0;1163.27;1168;1;75612637;0.00788672;0.325993;-0.783779;-0.31535;-0.0123822;0.941741;-0.355684;1.51784;-0.0859984;75608999;47.59972295;-122.83505077;122.15625018;0.00000000;0.00000000;4.27996016;3.00000000;
75612823;81.3;25.7;25.3;0;25.6;29.3;0;0;0;0;0;0.001;0.4299;0.0831;33.4711;6.905;123427;123929;235.8;0;1;-0.006;0.074;75612682;0.4299;0.0831;33.4711;6.905;0.874;550.371;0;0;0;1163.27;1168;1;75612773;0.00823362;0.326729;-0.7838;-0.312271;-0.00341093;0.941164;-0.285952;0.467836;-0.0813699;75609999;47.59972295;-122.83505077;122.10064851;0.00000000;0.00000000;4.28014660;3.00000000;
75612901;81.3;25.6;25.2;0;25.7;29.3;0;0;0;0;0;0.001;0.4299;0.0831;33.4711;6.905;123427;123929;235.8;0;1;-0.006;0.073;75612824;0.4299;0.0831;33.4711;6.905;0.875;550.377;0;0;0;1163.27;1168;1;75612857;0.00821561;0.327017;-0.783968;-0.318199;-0.0106484;0.939627;-0.052284;-1.27941;0.197102;75609999;47.59972295;-122.83505077;122.10064851;0.00000000;0.00000000;4.28014660;3.00000000;
75613040;81.3;25.7;25.3;0;25.6;29.3;0;0;0;0;0;0.001;0.4299;0.0831;33.4711;6.905;123427;123929;235.8;0;1;-0.005;0.073;75612902;0.4299;0.0831;33.4711;6.905;0.875;550.383;0;0;0;1163.27;1168;1;75612950;0.0085653;0.325751;-0.783947;-0.312979;-0.00139657;0.938233;-0.14037;-0.581521;-0.0131303;75609999;47.59972295;-122.83505077;122.10064851;0.00000000;0.00000000;4.28014660;3.00000000;
75613137;81.3;25.6;25.2;0;25.6;29.3;0;0;0;0;0;0.001;0.4299;0.0831;33.4711;6.905;123427;123929;235.8;0;1;-0.005;0.07;75613136;0.4299;0.0831;33.4711;6.905;0.875;550.398;0;0;0;1163.27;1168;1;75613041;0.0091126;0.322224;-0.783911;-0.314472;-0.018852;0.935694;-0.583234;-3.31386;-0.2274;75609999;47.59972295;-122.83505077;122.10064851;0.00000000;0.00000000;4.28014660;3.00000000;
75613261;81.3;25.7;25.2;0;25.7;29.3;0;0;0;0;0;0;0.4299;0.0831;33.4711;6.905;123427;123929;235.8;0;1;-0.003;0.055;75613136;0.4299;0.0831;33.4711;6.905;0.875;550.398;0;0;0;1163.27;1168;1;75613215;0.00964098;0.314578;-0.784049;-0.308784;0.00354624;0.931827;-2.01458;-7.02669;-0.485451;75609999;47.59972295;-122.83505077;122.10064851;0.00000000;0.00000000;4.28014660;3.00000000;
75613350;81.3;25.7;25.2;0;25.6;29.3;0;0;0;0;0;-0.004;0.4299;0.0831;33.4711;6.905;123427;123929;235.8;0;1;-0.013;-0.038;75613262;0.4299;0.0831;33.4711;6.905;0.875;550.412;0;0;0;1163.27;1168;1;75613311;0.00528864;0.262989;-0.785679;-0.295209;-0.102092;0.913395;15.936;-46.5917;5.09071;75609999;47.59972295;-122.83505077;122.10064851;0.00000000;0.00000000;4.28014660;3.00000000;
75613485;81.1;25.6;25.2;0;25.6;29.3;-0.53;0.05;0.16;5.06;-189;0.047;0.4299;0.0831;33.4713;6.905;123424;123932;56.4285;0;1;-0.127;-0.281;75613441;0.4299;0.0831;33.4711;6.905;0.875;550.431;-0.04;-6.01;-0.04;1163.26;1168.01;1;75613395;-0.0265195;0.151765;-0.796944;-0.0649252;0.137301;0.894255;18.5626;-83.9584;6.57788;75609999;47.59972295;-122.83505077;122.10064851;0.00000000;0.00000000;4.28014660;3.00000000;
75613582;80;25.6;25.2;0;25.6;29.3;53.3;4.08;0.18;53.51;124;0.118;0.43;0.0831;33.4792;6.905;123425;123933;112.415;0;1;0;3.485;75613530;0.43;0.0831;33.4737;6.905;0.874;550.086;4.15;53.92;0.038;1163.24;1168.03;1;75613494;-0.0589123;-0.0063736;-0.793125;-0.51393;0.250438;0.880888;10.3891;-88.7573;-4.04003;75609999;47.59972295;-122.83505077;122.10064851;0.00000000;0.00000000;4.28014660;3.00000000;
75613668;80.5;25.6;25.2;0;25.6;29.3;51.79;5.19;-0.04;51.54;590;0.103;0.4302;0.0831;33.4899;6.905;123432;123940;134.359;0;1;-0.64;5.061;75613621;0.4301;0.0831;33.4852;6.905;0.872;548.522;5.19;53.38;0.379;1163.28;1168.07;1;75613583;-0.0699147;-0.0831175;-0.77438;-0.322653;-0.101927;0.896071;1.72047;-33.6903;7.11945;75609999;47.59972295;-122.83505077;122.10064851;0.00000000;0.00000000;4.28014660;3.00000000;
75613757;80.4;25.6;25.2;0;25.6;29.3;35.4;3.33;0.04;35.43;820;0.12;0.4302;0.0831;33.4958;6.905;123440;123948;252.287;0;1;-0.403;4.822;75613712;0.4302;0.0831;33.4926;6.905;0.87;547.525;3.17;34.66;0.674;1163.36;1168.14;1;75613669;-0.0661442;-0.0914126;-0.796258;0.109152;0.00649154;0.930996;1.23132;0.0558486;21.2229;75609999;47.59972295;-122.83505077;122.10064851;0.00000000;0.00000000;4.28014660;3.00000000;
75613889;80.2;25.6;25.2;0;25.6;29.3;41.62;4.39;0.17;41.64;928;0.148;0.4303;0.0831;33.5044;6.905;123448;123956;42.3504;0;1;-0.557;5.405;75613800;0.4303;0.0831;33.5002;6.905;0.868;546.493;4.26;41.16;0.813;1163.43;1168.22;1;75613758;-0.063057;-0.0913687;-0.832016;-0.0568458;-0.126129;0.96328;1.47354;1.38125;20.7664;75610999;47.59973218;-122.83503599;122.14227813;0.35129771;0.00000000;4.28033352;3.00000000;
75613984;79.9;25.6;25.2;0;25.6;29.3;47.12;5.78;0;47.12;1164;0.157;0.4306;0.0831;33.5224;6.905;123464;123972;248.398;0;1;-0.835;6.323;75613937;0.4305;0.0831;33.5153;6.905;0.865;544.456;6.27;50.1;1.006;1163.56;1168.35;1;75613890;-0.0513612;-0.0959685;-0.868936;-0.0577455;0.0390885;0.98554;-18.279;-4.83285;22.3522;75610999;47.59973218;-122.83503599;122.14227813;0.35129771;0.00000000;4.28033352;3.00000000;
75614074;79.7;25.6;25.2;0;25.6;29.3;47.18;6.34;0.02;47.18;1321;0.174;0.4307;0.0831;33.5351;6.905;123476;123984;252.533;0;1;-1.004;6.964;75614033;0.4306;0.0831;33.5277;6.905;0.862;542.801;6.48;45.94;1.174;1163.68;1168.46;1;75613985;0.00866712;-0.101568;-0.918349;-0.100838;-0.0826259;1.00728;-20.5399;-3.63992;15.7922;75610999;47.59973218;-122.83503599;122.14227813;0.35129771;0.00000000;4.28033352;3.00000000;
75614163;79.4;25.6;25.3;0;25.7;29.3;51.84;7.69;0.08;51.84;1436;0.189;0.4309;0.0831;33.5504;6.905;123490;123998;5.72675;0;1;-1.213;7.695;75614118;0.4308;0.0831;33.5433;6.905;0.859;540.84;7.36;52.23;1.305;1163.8;1168.59;1;75614074;0.0333582;-0.109036;-0.93479;-0.089525;0.0305189;1.01398;-10.9023;-6.85786;2.33052;75610999;47.59973218;-122.83503599;122.14227813;0.35129771;0.00000000;4.28033352;3.00000000;
75614250;79;25.7;25.3;0;25.7;29.3;58.31;9.76;0.06;58.32;1619;0.205;0.4312;0.0831;33.5697;6.905;123504;124012;141.013;0;1;-1.673;8.665;75614208;0.431;0.0831;33.5585;6.905;0.856;538.703;9.58;55.79;1.442;1163.92;1168.71;1;75614164;0.0471619;-0.114441;-0.930238;0.0749708;0.0791202;1.01794;-9.27052;-8.7907;-8.68512;75610999;47.59973218;-122.83503599;122.14227813;0.35129771;0.00000000;4.28033352;3.00000000;
75614341;78.5;25.7;25.3;0;25.7;29.3;61.3;11.26;0.19;61.29;1842;0.234;0.4314;0.0831;33.592;6.905;123521;124031;98.1773;0;1;-2.374;9.541;75614296;0.4313;0.0831;33.5792;6.905;0.852;535.929;11.19;61.14;1.636;1164.07;1168.86;1;75614251;0.0523361;-0.12414;-0.912731;-0.033205;-0.0733817;1.01773;4.34679;-9.52519;-12.0508;75610999;47.59973218;-122.83503599;122.14227813;0.35129771;0.00000000;4.28033352;3.00000000;
75614431;78;25.7;25.2;0;25.7;29.3;64.92;12.86;0.17;64.97;2035;0.254;0.4317;0.0831;33.6142;6.905;123540;124050;131.427;0;1;-3.17;10.278;75614390;0.4316;0.0831;33.6027;6.905;0.846;532.63;12.42;65.8;1.836;1164.25;1169.06;1;75614342;0.0359593;-0.132156;-0.893724;-0.17576;-0.0122752;1.01874;4.28443;-3.48819;-10.4206;75610999;47.59973218;-122.83503599;122.14227813;0.35129771;0.00000000;4.28033352;3.00000000;
75614521;77.8;25.7;25.3;0;25.8;29.3;72.49;15.92;0.11;72.46;2281;0.293;0.4322;0.0831;33.6487;6.905;123561;124073;358.688;0;1;-4.105;11.374;75614478;0.4319;0.0831;33.631;6.905;0.84;528.875;16.06;74.75;2.023;1164.43;1169.24;1;75614438;0.0292556;-0.138592;-0.880247;-0.224611;0.00269196;1.01868;-7.64464;-9.27135;-7.76876;75610999;47.59973218;-122.83503599;122.14227813;0.35129771;0.00000000;4.28033352;3.00000000;
75614664;77;25.8;25.4;0;25.8;29.3;73.68;17.71;0.17;73.69;2639;0.332;0.4328;0.0831;33.6983;6.905;123596;124110;274.441;0;1;-4.759;12.406;75614614;0.4323;0.0831;33.6627;6.905;0.833;524.525;17.62;73.65;2.255;1164.64;1169.48;1;75614526;0.0341077;-0.143043;-0.865714;-0.0517531;-0.0125838;1.01881;-3.54025;-7.39448;-9.06163;75610999;47.59973218;-122.83503599;122.14227813;0.35129771;0.00000000;4.28033352;3.00000000;
75614749;77;25.8;25.4;0;25.8;29.3;74.95;19.65;0;74.91;2909;0.328;0.4333;0.0831;33.7365;6.905;123624;124140;145.921;0;1;-5.423;13.512;75614702;0.433;0.0831;33.7151;6.905;0.821;516.981;20.12;79.59;2.606;1164.99;1169.83;1;75614664;0.0197929;-0.149568;-0.858288;-0.233917;-0.236556;1.01813;16.2236;-8.55014;7.97894;75610999;47.59973218;-122.83503599;122.14227813;0.35129771;0.00000000;4.28033352;3.00000000;
75614841;76.7;25.9;25.5;0;25.9;29.3;71.64;19.82;0.16;71.61;3188;0.38;0.4338;0.0831;33.7748;6.905;123652;124170;34.8647;0;1;-5.782;14.284;75614799;0.4335;0.0831;33.7528;6.905;0.813;511.802;20.13;71.88;2.863;1165.25;1170.11;1;75614749;0.00900661;-0.157314;-0.877979;-0.0762492;-0.0202992;1.01748;-2.73372;-8.48278;14.5606;75611999;47.59972839;-122.83503042;122.21532146;0.00000000;0.00000000;4.45189190;3.00000000;
75614926;77.2;25.9;25.6;0;25.9;29.3;62.38;17.63;-0.12;62.32;3439;0.351;0.4342;0.0831;33.8092;6.905;123684;124202;131.574;0;1;-5.425;14.668;75614881;0.434;0.0831;33.7904;6.905;0.805;506.731;16.92;59.2;3.145;1165.54;1170.42;1;75614841;0.0021621;-0.16664;-0.885251;0.0255051;-0.159156;1.01689;5.19479;-7.62717;2.40179;75611999;47.59972839;-122.83503042;122.21532146;0.00000000;0.00000000;4.45189190;3.00000000;
75615017;76.6;25.9;25.6;0;25.9;29.3;64.26;19.1;0.17;64.29;3643;0.386;0.4347;0.0831;33.8462;6.905;123717;124237;327.907;0;1;-5.935;15.4;75615015;0.4344;0.0831;33.825;6.905;0.798;502.185;19.43;63.09;3.349;1165.85;1170.75;1;75614926;0.0155967;-0.156253;-0.90914;0.0121993;-0.288302;1.02246;-5.18772;1.31292;20.9299;75611999;47.59972839;-122.83503042;122.21532146;0.00000000;0.00000000;4.45189190;3.00000000;
75615111;76.6;26;25.7;0;26;29.3;69.43;22.04;0;69.35;3907;0.397;0.4353;0.0831;33.8888;6.905;123755;124275;88.3177;0;1;-6.871;16.329;75615111;0.4352;0.0831;33.8843;6.905;0.785;493.911;21.13;64.89;3.667;1166.34;1171.24;1;75615061;0.0547307;-0.151269;-0.939781;-0.18487;-0.102694;1.02792;-10.9;-3.05697;-2.48713;75611999;47.59972839;-122.83503042;122.21532146;0.00000000;0.00000000;4.45189190;3.00000000;
75615199;77.1;26;25.7;0;26;29.3;56.56;18.04;-0.03;56.48;4150;0.408;0.4357;0.0831;33.9241;6.905;123794;124314;253.679;0;1;-6.011;16.487;75615195;0.4357;0.0831;33.9241;6.905;0.777;489.349;17.93;52.38;3.889;1166.7;1171.6;1;75615154;0.0493804;-0.146806;-0.910695;0.0534995;-0.00926411;1.03029;6.86554;1.26181;-25.1015;75611999;47.59972839;-122.83503042;122.21532146;0.00000000;0.00000000;4.45189190;3.00000000;
75615290;77.1;26.1;25.7;0;26.1;29.3;55.96;18.46;0.02;55.94;4328;0.438;0.4362;0.0831;33.9599;6.905;123832;124352;41.4698;0;1;-6.226;17.009;75615289;0.4362;0.0831;33.956;6.905;0.771;485.077;17.21;52.81;4.072;1167.06;1171.96;1;75615242;0.0409126;-0.138587;-0.872489;0.0989721;0.0862328;1.0327;-1.31267;7.10115;-22.2653;75611999;47.59972839;-122.83503042;122.21532146;0.00000000;0.00000000;4.45189190;3.00000000;
75615382;77.8;26.1;25.8;0;26.1;29.3;47.28;15.53;-0.22;47.2;4490;0.394;0.4366;0.0831;33.9906;6.905;123873;124393;327.415;0;1;-5.522;17.023;75615375;0.4366;0.0831;33.9874;6.905;0.765;481.466;14.42;45.37;4.222;1167.45;1172.35;1;75615332;0.0441638;-0.12607;-0.849829;0.0689765;-0.0160529;1.03413;-8.79338;4.80326;-7.39039;75611999;47.59972839;-122.83503042;122.21532146;0.00000000;0.00000000;4.45189190;3.00000000;
75615471;77.8;26.2;25.8;0;26.1;29.3;41.48;13.69;0;41.46;4621;0.418;0.4369;0.0831;34.0174;6.905;123915;124435;348.294;0;1;-5.039;17.186;75615470;0.4369;0.0831;34.0144;6.905;0.761;478.721;14.48;43.48;4.35;1167.84;1172.74;1;75615425;0.0525361;-0.116558;-0.839213;0.158606;0.0112935;1.02935;-6.08238;7.25789;-6.95065;75611999;47.59972839;-122.83503042;122.21532146;0.00000000;0.00000000;4.45189190;3.00000000;
75615557;77.5;26.2;25.9;0;26.1;29.3;42.89;14.47;0.16;42.9;4716;0.434;0.4373;0.0831;34.0424;6.905;123955;124475;217.683;0;1;-5.278;17.529;75615470;0.4369;0.0831;34.0144;6.905;0.761;478.721;14.48;43.48;4.35;1167.84;1172.74;1;75615509;0.0589735;-0.103785;-0.821663;0.00142063;-0.0734261;1.02297;-4.13487;5.72006;-13.5709;75611999;47.59972839;-122.83503042;122.21532146;0.00000000;0.00000000;4.45189190;3.00000000;
